[
{"name":"Marseille","latitude":"43.29667","longitude":"5.37639","population":"847084","region":"93","departement":"13","arrondissement":"133","commune":"13055"},
{"name":"Lyon","latitude":"45.75889","longitude":"4.84139","population":"480778","region":"84","departement":"69","arrondissement":"691","commune":"69123"},
{"name":"Toulouse","latitude":"43.60444","longitude":"1.44194","population":"440204","region":"76","departement":"31","arrondissement":"313","commune":"31555"},
{"name":"Nice","latitude":"43.70194","longitude":"7.26833","population":"340735","region":"93","departement":"06","arrondissement":"062","commune":"06088"},
{"name":"Nantes","latitude":"47.21722","longitude":"-1.55389","population":"282047","region":"52","departement":"44","arrondissement":"442","commune":"44109"},
{"name":"Strasbourg","latitude":"48.58361","longitude":"7.74806","population":"271708","region":"44","departement":"67","arrondissement":"678","commune":"67482"},
{"name":"Montpellier","latitude":"43.6113","longitude":"3.8771","population":"255080","region":"76","departement":"34","arrondissement":"343","commune":"34172"},
{"name":"Bordeaux","latitude":"44.83778","longitude":"-0.57944","population":"236725","region":"75","departement":"33","arrondissement":"332","commune":"33063"},
{"name":"Lille","latitude":"50.63194","longitude":"3.0575","population":"226827","region":"32","departement":"59","arrondissement":"595","commune":"59350"},
{"name":"Rennes","latitude":"48.11417","longitude":"-1.68083","population":"206604","region":"53","departement":"35","arrondissement":"353","commune":"35238"},
{"name":"Reims","latitude":"49.2651","longitude":"4.0292","population":"180842","region":"44","departement":"51","arrondissement":"513","commune":"51454"},
{"name":"Le Havre","latitude":"49.49889","longitude":"0.12111","population":"177259","region":"28","departement":"76","arrondissement":"762","commune":"76351"},
{"name":"Saint-Étienne","latitude":"45.43389","longitude":"4.38972","population":"171961","region":"84","departement":"42","arrondissement":"423","commune":"42218"},
{"name":"Toulon","latitude":"43.125","longitude":"5.93056","population":"165514","region":"93","departement":"83","arrondissement":"832","commune":"83137"},
{"name":"Grenoble","latitude":"45.1872","longitude":"5.7266","population":"155632","region":"84","departement":"38","arrondissement":"381","commune":"38185"},
{"name":"Dijon","latitude":"47.32306","longitude":"5.04194","population":"152110","region":"27","departement":"21","arrondissement":"212","commune":"21231"},
{"name":"Angers","latitude":"47.47278","longitude":"-0.55556","population":"147305","region":"52","departement":"49","arrondissement":"491","commune":"49007"},
{"name":"Villeurbanne","latitude":"45.76611","longitude":"4.87944","population":"144751","region":"84","departement":"69","arrondissement":"691","commune":"69266"},
{"name":"Le Mans","latitude":"48.00417","longitude":"0.19694","population":"142281","region":"52","departement":"72","arrondissement":"723","commune":"72181"},
{"name":"Aix-en-Provence","latitude":"43.52778","longitude":"5.44556","population":"141895","region":"93","departement":"13","arrondissement":"131","commune":"13001"},
{"name":"Brest","latitude":"48.39146","longitude":"-4.48483","population":"141315","region":"53","departement":"29","arrondissement":"291","commune":"29019"},
{"name":"Nîmes","latitude":"43.83694","longitude":"4.36","population":"140747","region":"76","departement":"30","arrondissement":"302","commune":"30189"},
{"name":"Limoges","latitude":"45.8343","longitude":"1.2626","population":"139216","region":"75","departement":"87","arrondissement":"872","commune":"87085"},
{"name":"Clermont-Ferrand","latitude":"45.77972","longitude":"3.08694","population":"138588","region":"84","departement":"63","arrondissement":"632","commune":"63113"},
{"name":"Tours","latitude":"47.39278","longitude":"0.68833","population":"135218","region":"24","departement":"37","arrondissement":"372","commune":"37261"},
{"name":"Amiens","latitude":"49.89194","longitude":"2.29778","population":"133998","region":"32","departement":"80","arrondissement":"802","commune":"80021"},
{"name":"Metz","latitude":"49.1202","longitude":"6.1775","population":"121841","region":"44","departement":"57","arrondissement":"579","commune":"57463"},
{"name":"Perpignan","latitude":"42.69764","longitude":"2.89541","population":"117905","region":"76","departement":"66","arrondissement":"662","commune":"66136"},
{"name":"Besançon","latitude":"47.24222","longitude":"6.02139","population":"117392","region":"27","departement":"25","arrondissement":"251","commune":"25056"},
{"name":"Orléans","latitude":"47.9025","longitude":"1.9043","population":"113224","region":"24","departement":"45","arrondissement":"452","commune":"45234"},
{"name":"Boulogne-Billancourt","latitude":"48.83528","longitude":"2.24139","population":"113085","region":"11","departement":"92","arrondissement":"923","commune":"92012"},
{"name":"Mulhouse","latitude":"47.74861","longitude":"7.33917","population":"111156","region":"44","departement":"68","arrondissement":"684","commune":"68224"},
{"name":"Rouen","latitude":"49.44306","longitude":"1.1025","population":"110688","region":"28","departement":"76","arrondissement":"763","commune":"76540"},
{"name":"Caen","latitude":"49.18222","longitude":"-0.37056","population":"109312","region":"28","departement":"14","arrondissement":"142","commune":"14118"},
{"name":"Nancy","latitude":"48.69278","longitude":"6.18361","population":"106318","region":"44","departement":"54","arrondissement":"543","commune":"54395"},
{"name":"Saint-Denis","latitude":"48.93556","longitude":"2.35389","population":"105749","region":"11","departement":"93","arrondissement":"933","commune":"93066"},
{"name":"Montreuil","latitude":"48.86028","longitude":"2.44306","population":"103192","region":"11","departement":"93","arrondissement":"931","commune":"93048"},
{"name":"Argenteuil","latitude":"48.94778","longitude":"2.2475","population":"102844","region":"11","departement":"95","arrondissement":"951","commune":"95018"},
{"name":"Roubaix","latitude":"50.6889","longitude":"3.1814","population":"95028","region":"32","departement":"59","arrondissement":"595","commune":"59512"},
{"name":"Dunkerque","latitude":"51.0381","longitude":"2.3768","population":"92923","region":"32","departement":"59","arrondissement":"594","commune":"59183"},
{"name":"Tourcoing","latitude":"50.7225","longitude":"3.16028","population":"92389","region":"32","departement":"59","arrondissement":"595","commune":"59599"},
{"name":"Nanterre","latitude":"48.89056","longitude":"2.20361","population":"89966","region":"11","departement":"92","arrondissement":"922","commune":"92050"},
{"name":"Avignon","latitude":"43.94861","longitude":"4.80833","population":"89592","region":"93","departement":"84","arrondissement":"842","commune":"84007"},
{"name":"Créteil","latitude":"48.79056","longitude":"2.46194","population":"89359","region":"11","departement":"94","arrondissement":"941","commune":"94028"},
{"name":"Poitiers","latitude":"46.58111","longitude":"0.33528","population":"88795","region":"75","departement":"86","arrondissement":"863","commune":"86194"},
{"name":"Courbevoie","latitude":"48.89722","longitude":"2.25222","population":"86945","region":"11","departement":"92","arrondissement":"922","commune":"92026"},
{"name":"Versailles","latitude":"48.80472","longitude":"2.13417","population":"86477","region":"11","departement":"78","arrondissement":"784","commune":"78646"},
{"name":"Vitry-sur-Seine","latitude":"48.7875","longitude":"2.39278","population":"85380","region":"11","departement":"94","arrondissement":"941","commune":"94081"},
{"name":"Colombes","latitude":"48.92361","longitude":"2.25222","population":"84572","region":"11","departement":"92","arrondissement":"922","commune":"92025"},
{"name":"Pau","latitude":"43.30083","longitude":"-0.37","population":"82763","region":"75","departement":"64","arrondissement":"643","commune":"64445"},
{"name":"Aulnay-sous-Bois","latitude":"48.9366","longitude":"2.4938","population":"82525","region":"11","departement":"93","arrondissement":"932","commune":"93005"},
{"name":"Asnières-sur-Seine","latitude":"48.91111","longitude":"2.28556","population":"81603","region":"11","departement":"92","arrondissement":"922","commune":"92004"},
{"name":"Rueil-Malmaison","latitude":"48.87778","longitude":"2.18833","population":"79065","region":"11","departement":"92","arrondissement":"922","commune":"92063"},
{"name":"Antibes","latitude":"43.58","longitude":"7.12306","population":"75553","region":"93","departement":"06","arrondissement":"061","commune":"06004"},
{"name":"Saint-Maur-des-Fossés","latitude":"48.79861","longitude":"2.49889","population":"75251","region":"11","departement":"94","arrondissement":"941","commune":"94068"},
{"name":"Champigny-sur-Marne","latitude":"48.81722","longitude":"2.51556","population":"75090","region":"11","departement":"94","arrondissement":"942","commune":"94017"},
{"name":"La Rochelle","latitude":"46.15944","longitude":"-1.15139","population":"74707","region":"75","departement":"17","arrondissement":"173","commune":"17300"},
{"name":"Aubervilliers","latitude":"48.91111","longitude":"2.3825","population":"74701","region":"11","departement":"93","arrondissement":"933","commune":"93001"},
{"name":"Calais","latitude":"50.9472","longitude":"1.8566","population":"74336","region":"32","departement":"62","arrondissement":"626","commune":"62193"},
{"name":"Cannes","latitude":"43.5525","longitude":"7.02139","population":"73372","region":"93","departement":"06","arrondissement":"061","commune":"06029"},
{"name":"Béziers","latitude":"43.34333","longitude":"3.21611","population":"70957","region":"76","departement":"34","arrondissement":"341","commune":"34032"},
{"name":"Colmar","latitude":"48.08111","longitude":"7.355","population":"67214","region":"44","departement":"68","arrondissement":"682","commune":"68066"},
{"name":"Bourges","latitude":"47.08361","longitude":"2.39556","population":"66786","region":"24","departement":"18","arrondissement":"181","commune":"18033"},
{"name":"Drancy","latitude":"48.9231","longitude":"2.4461","population":"66670","region":"11","departement":"93","arrondissement":"931","commune":"93029"},
{"name":"Mérignac","latitude":"44.8425","longitude":"-0.645","population":"66488","region":"75","departement":"33","arrondissement":"332","commune":"33281"},
{"name":"Saint-Nazaire","latitude":"47.27944","longitude":"-2.21","population":"66348","region":"52","departement":"44","arrondissement":"443","commune":"44184"},
{"name":"Valence","latitude":"44.9325","longitude":"4.89083","population":"64364","region":"84","departement":"26","arrondissement":"263","commune":"26362"},
{"name":"Ajaccio","latitude":"41.92556","longitude":"8.73639","population":"64306","region":"94","departement":"2A","arrondissement":"2A1","commune":"2A004"},
{"name":"Issy-les-Moulineaux","latitude":"48.82306","longitude":"2.26917","population":"64027","region":"11","departement":"92","arrondissement":"923","commune":"92040"},
{"name":"Villeneuve-d'Ascq","latitude":"50.62278","longitude":"3.14417","population":"63844","region":"32","departement":"59","arrondissement":"595","commune":"59009"},
{"name":"Levallois-Perret","latitude":"48.89333","longitude":"2.28778","population":"63436","region":"11","departement":"92","arrondissement":"922","commune":"92044"},
{"name":"Noisy-le-Grand","latitude":"48.84389","longitude":"2.55806","population":"63405","region":"11","departement":"93","arrondissement":"932","commune":"93051"},
{"name":"Quimper","latitude":"47.99583","longitude":"-4.09778","population":"63387","region":"53","departement":"29","arrondissement":"294","commune":"29232"},
{"name":"La Seyne-sur-Mer","latitude":"43.10306","longitude":"5.87833","population":"61514","region":"93","departement":"83","arrondissement":"832","commune":"83126"},
{"name":"Antony","latitude":"48.75333","longitude":"2.29667","population":"61393","region":"11","departement":"92","arrondissement":"921","commune":"92002"},
{"name":"Troyes","latitude":"48.29889","longitude":"4.07806","population":"61188","region":"44","departement":"10","arrondissement":"103","commune":"10387"},
{"name":"Neuilly-sur-Seine","latitude":"48.88722","longitude":"2.2675","population":"60501","region":"11","departement":"92","arrondissement":"922","commune":"92051"},
{"name":"Sarcelles","latitude":"48.99722","longitude":"2.37806","population":"59421","region":"11","departement":"95","arrondissement":"952","commune":"95585"},
{"name":"Vénissieux","latitude":"45.69694","longitude":"4.88583","population":"58643","region":"84","departement":"69","arrondissement":"691","commune":"69259"},
{"name":"Clichy","latitude":"48.90361","longitude":"2.30556","population":"58200","region":"11","departement":"92","arrondissement":"922","commune":"92024"},
{"name":"Lorient","latitude":"47.74583","longitude":"-3.36639","population":"57812","region":"53","departement":"56","arrondissement":"561","commune":"56121"},
{"name":"Pessac","latitude":"44.80583","longitude":"-0.63222","population":"57593","region":"75","departement":"33","arrondissement":"332","commune":"33318"},
{"name":"Ivry-sur-Seine","latitude":"48.81389","longitude":"2.38778","population":"57254","region":"11","departement":"94","arrondissement":"941","commune":"94041"},
{"name":"Cergy","latitude":"49.03583","longitude":"2.0625","population":"57247","region":"11","departement":"95","arrondissement":"953","commune":"95127"},
{"name":"Niort","latitude":"46.325","longitude":"-0.46222","population":"56878","region":"75","departement":"79","arrondissement":"792","commune":"79191"},
{"name":"Chambéry","latitude":"45.56639","longitude":"5.92083","population":"56476","region":"84","departement":"73","arrondissement":"732","commune":"73065"},
{"name":"Montauban","latitude":"44.01722","longitude":"1.355","population":"56126","region":"76","departement":"82","arrondissement":"822","commune":"82121"},
{"name":"Saint-Quentin","latitude":"49.84778","longitude":"3.28556","population":"55971","region":"32","departement":"02","arrondissement":"023","commune":"02691"},
{"name":"Villejuif","latitude":"48.79389","longitude":"2.36111","population":"55250","region":"11","departement":"94","arrondissement":"943","commune":"94076"},
{"name":"Hyères","latitude":"43.11889","longitude":"6.12861","population":"54686","region":"93","departement":"83","arrondissement":"832","commune":"83069"},
{"name":"Beauvais","latitude":"49.43417","longitude":"2.0875","population":"54461","region":"32","departement":"60","arrondissement":"601","commune":"60057"},
{"name":"Cholet","latitude":"47.05889","longitude":"-0.87972","population":"54121","region":"52","departement":"49","arrondissement":"492","commune":"49099"},
{"name":"Épinay-sur-Seine","latitude":"48.95472","longitude":"2.30833","population":"53777","region":"11","departement":"93","arrondissement":"933","commune":"93031"},
{"name":"Bondy","latitude":"48.90278","longitude":"2.48361","population":"53448","region":"11","departement":"93","arrondissement":"931","commune":"93010"},
{"name":"Fontenay-sous-Bois","latitude":"48.85167","longitude":"2.47722","population":"53258","region":"11","departement":"94","arrondissement":"942","commune":"94033"},
{"name":"Arles","latitude":"43.67694","longitude":"4.62861","population":"52979","region":"93","departement":"13","arrondissement":"132","commune":"13004"},
{"name":"Vannes","latitude":"47.655","longitude":"-2.7604","population":"52683","region":"53","departement":"56","arrondissement":"563","commune":"56260"},
{"name":"Chelles","latitude":"48.87861","longitude":"2.58889","population":"52636","region":"11","departement":"77","arrondissement":"775","commune":"77108"},
{"name":"Maisons-Alfort","latitude":"48.80583","longitude":"2.43778","population":"52619","region":"11","departement":"94","arrondissement":"941","commune":"94046"},
{"name":"Clamart","latitude":"48.80083","longitude":"2.26194","population":"52569","region":"11","departement":"92","arrondissement":"921","commune":"92023"},
{"name":"Évry","latitude":"48.63389","longitude":"2.44417","population":"52403","region":"11","departement":"91","arrondissement":"912","commune":"91228"},
{"name":"La Roche-sur-Yon","latitude":"46.66972","longitude":"-1.42778","population":"52234","region":"52","departement":"85","arrondissement":"852","commune":"85191"},
{"name":"Fréjus","latitude":"43.43306","longitude":"6.73556","population":"52203","region":"93","departement":"83","arrondissement":"831","commune":"83061"},
{"name":"Pantin","latitude":"48.89806","longitude":"2.40722","population":"52161","region":"11","departement":"93","arrondissement":"931","commune":"93055"},
{"name":"Grasse","latitude":"43.65806","longitude":"6.92528","population":"52019","region":"93","departement":"06","arrondissement":"061","commune":"06069"},
{"name":"Sartrouville","latitude":"48.94528","longitude":"2.17","population":"51459","region":"11","departement":"78","arrondissement":"783","commune":"78586"},
{"name":"Narbonne","latitude":"43.18472","longitude":"3.00361","population":"51227","region":"76","departement":"11","arrondissement":"113","commune":"11262"},
{"name":"Évreux","latitude":"49.02333","longitude":"1.1525","population":"51193","region":"28","departement":"27","arrondissement":"273","commune":"27229"},
{"name":"Laval","latitude":"48.07278","longitude":"-0.77","population":"51182","region":"52","departement":"53","arrondissement":"532","commune":"53130"},
{"name":"Le Blanc-Mesnil","latitude":"48.93861","longitude":"2.46111","population":"51106","region":"11","departement":"93","arrondissement":"932","commune":"93007"},
{"name":"Annecy","latitude":"45.89917","longitude":"6.12944","population":"50254","region":"84","departement":"74","arrondissement":"741","commune":"74010"},
{"name":"Belfort","latitude":"47.64111","longitude":"6.84944","population":"50199","region":"27","departement":"90","arrondissement":"901","commune":"90010"},
{"name":"Sevran","latitude":"48.94139","longitude":"2.52278","population":"50021","region":"11","departement":"93","arrondissement":"932","commune":"93071"},
{"name":"Charleville-Mézières","latitude":"49.77139","longitude":"4.71944","population":"49975","region":"44","departement":"08","arrondissement":"081","commune":"08105"},
{"name":"Meaux","latitude":"48.95944","longitude":"2.88778","population":"49612","region":"11","departement":"77","arrondissement":"771","commune":"77284"},
{"name":"Brive-la-Gaillarde","latitude":"45.15889","longitude":"1.53306","population":"49231","region":"75","departement":"19","arrondissement":"191","commune":"19031"},
{"name":"Albi","latitude":"43.92806","longitude":"2.14583","population":"48858","region":"76","departement":"81","arrondissement":"811","commune":"81004"},
{"name":"Vincennes","latitude":"48.84778","longitude":"2.43917","population":"48689","region":"11","departement":"94","arrondissement":"942","commune":"94080"},
{"name":"Bobigny","latitude":"48.90972","longitude":"2.43861","population":"48503","region":"11","departement":"93","arrondissement":"931","commune":"93008"},
{"name":"Montrouge","latitude":"48.81639","longitude":"2.32111","population":"48410","region":"11","departement":"92","arrondissement":"921","commune":"92049"},
{"name":"Cagnes-sur-Mer","latitude":"43.66361","longitude":"7.14833","population":"48024","region":"93","departement":"06","arrondissement":"061","commune":"06027"},
{"name":"Carcassonne","latitude":"43.21583","longitude":"2.35139","population":"47854","region":"76","departement":"11","arrondissement":"111","commune":"11069"},
{"name":"Saint-Malo","latitude":"48.64722","longitude":"-2.00889","population":"47045","region":"53","departement":"35","arrondissement":"354","commune":"35288"},
{"name":"Martigues","latitude":"43.40528","longitude":"5.0475","population":"46625","region":"93","departement":"13","arrondissement":"134","commune":"13056"},
{"name":"Aubagne","latitude":"43.29083","longitude":"5.57083","population":"46568","region":"93","departement":"13","arrondissement":"133","commune":"13005"},
{"name":"Saint-Ouen","latitude":"48.90694","longitude":"2.33306","population":"46510","region":"11","departement":"93","arrondissement":"933","commune":"93070"},
{"name":"Châteauroux","latitude":"46.80972","longitude":"1.69028","population":"46386","region":"24","departement":"36","arrondissement":"362","commune":"36044"},
{"name":"Châlons-en-Champagne","latitude":"48.9564","longitude":"4.3649","population":"46236","region":"44","departement":"51","arrondissement":"511","commune":"51108"},
{"name":"Suresnes","latitude":"48.87111","longitude":"2.22694","population":"46053","region":"11","departement":"92","arrondissement":"922","commune":"92073"},
{"name":"Blois","latitude":"47.59306","longitude":"1.32722","population":"46013","region":"24","departement":"41","arrondissement":"411","commune":"41018"},
{"name":"Saint-Brieuc","latitude":"48.51361","longitude":"-2.76028","population":"46013","region":"53","departement":"22","arrondissement":"224","commune":"22278"},
{"name":"Chalon-sur-Saône","latitude":"46.7937","longitude":"4.8482","population":"45504","region":"27","departement":"71","arrondissement":"712","commune":"71076"},
{"name":"Bayonne","latitude":"43.4925","longitude":"-1.47639","population":"44900","region":"75","departement":"64","arrondissement":"641","commune":"64102"},
{"name":"Puteaux","latitude":"48.88417","longitude":"2.23806","population":"44892","region":"11","departement":"92","arrondissement":"922","commune":"92062"},
{"name":"Meudon","latitude":"48.8075","longitude":"2.24028","population":"44717","region":"11","departement":"92","arrondissement":"923","commune":"92048"},
{"name":"Alfortville","latitude":"48.7975","longitude":"2.42417","population":"44278","region":"11","departement":"94","arrondissement":"941","commune":"94002"},
{"name":"Tarbes","latitude":"43.23278","longitude":"0.07444","population":"43686","region":"76","departement":"65","arrondissement":"653","commune":"65440"},
{"name":"Bastia","latitude":"42.7","longitude":"9.44944","population":"43545","region":"94","departement":"2B","arrondissement":"2B2","commune":"2B033"},
{"name":"Boulogne-sur-Mer","latitude":"50.72556","longitude":"1.61389","population":"43310","region":"32","departement":"62","arrondissement":"623","commune":"62160"},
{"name":"Mantes-la-Jolie","latitude":"48.99056","longitude":"1.71667","population":"43128","region":"11","departement":"78","arrondissement":"781","commune":"78361"},
{"name":"Saint-Herblain","latitude":"47.21139","longitude":"-1.65111","population":"43119","region":"52","departement":"44","arrondissement":"442","commune":"44162"},
{"name":"Castres","latitude":"43.60583","longitude":"2.24","population":"42701","region":"76","departement":"81","arrondissement":"812","commune":"81065"},
{"name":"Valenciennes","latitude":"50.35917","longitude":"3.525","population":"42649","region":"32","departement":"59","arrondissement":"596","commune":"59606"},
{"name":"Sète","latitude":"43.40444","longitude":"3.69667","population":"42496","region":"76","departement":"34","arrondissement":"343","commune":"34301"},
{"name":"Douai","latitude":"50.37083","longitude":"3.07917","population":"42461","region":"32","departement":"59","arrondissement":"593","commune":"59178"},
{"name":"Istres","latitude":"43.51417","longitude":"4.98889","population":"42460","region":"93","departement":"13","arrondissement":"134","commune":"13047"},
{"name":"Corbeil-Essonnes","latitude":"48.61028","longitude":"2.47472","population":"42456","region":"11","departement":"91","arrondissement":"912","commune":"91174"},
{"name":"Salon-de-Provence","latitude":"43.64056","longitude":"5.09722","population":"42440","region":"93","departement":"13","arrondissement":"131","commune":"13103"},
{"name":"Angoulême","latitude":"45.64944","longitude":"0.15944","population":"42242","region":"75","departement":"16","arrondissement":"161","commune":"16015"},
{"name":"Arras","latitude":"50.2893","longitude":"2.7809","population":"42049","region":"32","departement":"62","arrondissement":"621","commune":"62041"},
{"name":"Saint-Priest","latitude":"45.6966","longitude":"4.9445","population":"41751","region":"84","departement":"69","arrondissement":"691","commune":"69290"},
{"name":"Wattrelos","latitude":"50.70111","longitude":"3.21333","population":"41750","region":"32","departement":"59","arrondissement":"595","commune":"59650"},
{"name":"Le Cannet","latitude":"43.57611","longitude":"7.01861","population":"41725","region":"93","departement":"06","arrondissement":"061","commune":"06030"},
{"name":"Thionville","latitude":"49.35806","longitude":"6.16833","population":"41564","region":"44","departement":"57","arrondissement":"577","commune":"57672"},
{"name":"Alès","latitude":"44.12722","longitude":"4.08083","population":"41432","region":"76","departement":"30","arrondissement":"301","commune":"30007"},
{"name":"Gennevilliers","latitude":"48.9325","longitude":"2.30472","population":"41400","region":"11","departement":"92","arrondissement":"922","commune":"92036"},
{"name":"Livry-Gargan","latitude":"48.91833","longitude":"2.53528","population":"41206","region":"11","departement":"93","arrondissement":"932","commune":"93046"},
{"name":"Caluire-et-Cuire","latitude":"45.79472","longitude":"4.84639","population":"41149","region":"84","departement":"69","arrondissement":"691","commune":"69034"},
{"name":"Saint-Germain-en-Laye","latitude":"48.89639","longitude":"2.09056","population":"40945","region":"11","departement":"78","arrondissement":"783","commune":"78551"},
{"name":"Rosny-sous-Bois","latitude":"48.87306","longitude":"2.48528","population":"40867","region":"11","departement":"93","arrondissement":"931","commune":"93064"},
{"name":"Compiègne","latitude":"49.41417","longitude":"2.82222","population":"40860","region":"32","departement":"60","arrondissement":"603","commune":"60159"},
{"name":"Talence","latitude":"44.80833","longitude":"-0.58917","population":"40793","region":"75","departement":"33","arrondissement":"332","commune":"33522"},
{"name":"Massy","latitude":"48.73056","longitude":"2.27639","population":"40523","region":"11","departement":"91","arrondissement":"913","commune":"91377"},
{"name":"Vaulx-en-Velin","latitude":"45.78694","longitude":"4.925","population":"40339","region":"84","departement":"69","arrondissement":"691","commune":"69256"},
{"name":"Garges-lès-Gonesse","latitude":"48.97194","longitude":"2.4","population":"40215","region":"11","departement":"95","arrondissement":"952","commune":"95268"},
{"name":"Bourg-en-Bresse","latitude":"46.20472","longitude":"5.22806","population":"39586","region":"84","departement":"01","arrondissement":"012","commune":"01053"},
{"name":"Choisy-le-Roi","latitude":"48.76639","longitude":"2.40778","population":"39400","region":"11","departement":"94","arrondissement":"941","commune":"94022"},
{"name":"Melun","latitude":"48.53972","longitude":"2.65917","population":"39400","region":"11","departement":"77","arrondissement":"772","commune":"77288"},
{"name":"Noisy-le-Sec","latitude":"48.89083","longitude":"2.45361","population":"39270","region":"11","departement":"93","arrondissement":"931","commune":"93053"},
{"name":"Gap","latitude":"44.55861","longitude":"6.07778","population":"39243","region":"93","departement":"05","arrondissement":"052","commune":"05061"},
{"name":"Chartres","latitude":"48.44667","longitude":"1.48833","population":"39122","region":"24","departement":"28","arrondissement":"281","commune":"28085"},
{"name":"Cherbourg-en-Cotentin","latitude":"49.6386","longitude":"-1.6147","population":"39003","region":"28","departement":"50","arrondissement":"502","commune":"50129"},
{"name":"Montluçon","latitude":"46.34","longitude":"2.6025","population":"38978","region":"84","departement":"03","arrondissement":"031","commune":"03185"},
{"name":"Bron","latitude":"45.73861","longitude":"4.91306","population":"38827","region":"84","departement":"69","arrondissement":"691","commune":"69029"},
{"name":"Marcq-en-Barœul","latitude":"50.67028","longitude":"3.09639","population":"38819","region":"32","departement":"59","arrondissement":"595","commune":"59378"},
{"name":"Gagny","latitude":"48.88167","longitude":"2.53889","population":"38765","region":"11","departement":"93","arrondissement":"932","commune":"93032"},
{"name":"Bagneux","latitude":"48.79778","longitude":"2.3125","population":"38495","region":"11","departement":"92","arrondissement":"921","commune":"92007"},
{"name":"Rezé","latitude":"47.19056","longitude":"-1.56917","population":"38214","region":"52","departement":"44","arrondissement":"442","commune":"44143"},
{"name":"Poissy","latitude":"48.92889","longitude":"2.04472","population":"37816","region":"11","departement":"78","arrondissement":"783","commune":"78498"},
{"name":"La Courneuve","latitude":"48.9312","longitude":"2.3966","population":"37700","region":"11","departement":"93","arrondissement":"933","commune":"93027"},
{"name":"Anglet","latitude":"43.48417","longitude":"-1.51944","population":"37661","region":"75","departement":"64","arrondissement":"641","commune":"64024"},
{"name":"Nevers","latitude":"46.9925","longitude":"3.15667","population":"37470","region":"27","departement":"58","arrondissement":"583","commune":"58194"},
{"name":"Savigny-sur-Orge","latitude":"48.67389","longitude":"2.3525","population":"37092","region":"11","departement":"91","arrondissement":"913","commune":"91589"},
{"name":"Roanne","latitude":"46.03611","longitude":"4.06806","population":"36866","region":"84","departement":"42","arrondissement":"422","commune":"42187"},
{"name":"Auxerre","latitude":"47.7975","longitude":"3.56694","population":"36702","region":"27","departement":"89","arrondissement":"891","commune":"89024"},
{"name":"Draguignan","latitude":"43.53944","longitude":"6.46611","population":"36601","region":"93","departement":"83","arrondissement":"831","commune":"83050"},
{"name":"Vitrolles","latitude":"43.46","longitude":"5.24861","population":"36117","region":"93","departement":"13","arrondissement":"134","commune":"13117"},
{"name":"Joué-lès-Tours","latitude":"47.35056","longitude":"0.66167","population":"36000","region":"24","departement":"37","arrondissement":"372","commune":"37122"},
{"name":"Saint-Chamond","latitude":"45.47639","longitude":"4.51472","population":"35891","region":"84","departement":"42","arrondissement":"423","commune":"42207"},
{"name":"Lens","latitude":"50.4315","longitude":"2.8331","population":"35830","region":"32","departement":"62","arrondissement":"627","commune":"62498"},
{"name":"Villepinte","latitude":"48.96056","longitude":"2.53028","population":"35740","region":"11","departement":"93","arrondissement":"932","commune":"93078"},
{"name":"Saint-Martin-d'Hères","latitude":"45.16639","longitude":"5.76472","population":"35669","region":"84","departement":"38","arrondissement":"381","commune":"38421"},
{"name":"Échirolles","latitude":"45.14278","longitude":"5.71778","population":"35657","region":"84","departement":"38","arrondissement":"381","commune":"38151"},
{"name":"Montélimar","latitude":"44.55861","longitude":"4.75083","population":"35495","region":"84","departement":"26","arrondissement":"262","commune":"26198"},
{"name":"Conflans-Sainte-Honorine","latitude":"48.9969","longitude":"2.0951","population":"35335","region":"11","departement":"78","arrondissement":"783","commune":"78172"},
{"name":"Pontault-Combault","latitude":"48.798","longitude":"2.6063","population":"35252","region":"11","departement":"77","arrondissement":"775","commune":"77373"},
{"name":"Tremblay-en-France","latitude":"48.95611","longitude":"2.57639","population":"35036","region":"11","departement":"93","arrondissement":"932","commune":"93073"},
{"name":"Six-Fours-les-Plages","latitude":"43.0938","longitude":"5.84","population":"34919","region":"93","departement":"83","arrondissement":"832","commune":"83129"},
{"name":"Villefranche-sur-Saône","latitude":"45.98944","longitude":"4.71972","population":"34686","region":"84","departement":"69","arrondissement":"692","commune":"69264"},
{"name":"Haguenau","latitude":"48.81667","longitude":"7.78778","population":"34648","region":"44","departement":"67","arrondissement":"672","commune":"67180"},
{"name":"Creil","latitude":"49.25778","longitude":"2.48278","population":"34327","region":"32","departement":"60","arrondissement":"604","commune":"60175"},
{"name":"Colomiers","latitude":"43.61278","longitude":"1.33583","population":"34306","region":"76","departement":"31","arrondissement":"313","commune":"31149"},
{"name":"Saint-Raphaël","latitude":"43.42472","longitude":"6.76778","population":"34269","region":"93","departement":"83","arrondissement":"831","commune":"83118"},
{"name":"Marignane","latitude":"43.41694","longitude":"5.21472","population":"34226","region":"93","departement":"13","arrondissement":"134","commune":"13054"},
{"name":"Mâcon","latitude":"46.30667","longitude":"4.83194","population":"34136","region":"27","departement":"71","arrondissement":"715","commune":"71270"},
{"name":"Sainte-Geneviève-des-Bois","latitude":"48.63778","longitude":"2.33222","population":"34054","region":"11","departement":"91","arrondissement":"913","commune":"91549"},
{"name":"Stains","latitude":"48.95528","longitude":"2.38222","population":"33951","region":"11","departement":"93","arrondissement":"933","commune":"93072"},
{"name":"Agen","latitude":"44.20306","longitude":"0.61861","population":"33920","region":"75","departement":"47","arrondissement":"471","commune":"47001"},
{"name":"Bagnolet","latitude":"48.86667","longitude":"2.41667","population":"33839","region":"11","departement":"93","arrondissement":"931","commune":"93006"},
{"name":"La Ciotat","latitude":"43.17611","longitude":"5.60806","population":"33812","region":"93","departement":"13","arrondissement":"133","commune":"13028"},
{"name":"Montigny-le-Bretonneux","latitude":"48.77056","longitude":"2.0325","population":"33691","region":"11","departement":"78","arrondissement":"784","commune":"78423"},
{"name":"Romans-sur-Isère","latitude":"45.04556","longitude":"5.05083","population":"33664","region":"84","departement":"26","arrondissement":"263","commune":"26281"},
{"name":"Thonon-les-Bains","latitude":"46.37056","longitude":"6.47972","population":"33516","region":"84","departement":"74","arrondissement":"744","commune":"74281"},
{"name":"Franconville","latitude":"48.98806","longitude":"2.23056","population":"33276","region":"11","departement":"95","arrondissement":"953","commune":"95252"},
{"name":"Neuilly-sur-Marne","latitude":"48.85778","longitude":"2.53111","population":"33157","region":"11","departement":"93","arrondissement":"932","commune":"93050"},
{"name":"Épinal","latitude":"48.17361","longitude":"6.45167","population":"32845","region":"44","departement":"88","arrondissement":"881","commune":"88160"},
{"name":"Châtellerault","latitude":"46.8171","longitude":"0.5462","population":"32718","region":"75","departement":"86","arrondissement":"861","commune":"86066"},
{"name":"Dieppe","latitude":"49.9212","longitude":"1.0781","population":"32670","region":"28","departement":"76","arrondissement":"761","commune":"76217"},
{"name":"Cambrai","latitude":"50.17583","longitude":"3.23472","population":"32518","region":"32","departement":"59","arrondissement":"592","commune":"59122"},
{"name":"Châtillon","latitude":"48.80111","longitude":"2.28861","population":"32448","region":"11","departement":"92","arrondissement":"921","commune":"92020"},
{"name":"Châtenay-Malabry","latitude":"48.76528","longitude":"2.27806","population":"32386","region":"11","departement":"92","arrondissement":"921","commune":"92019"},
{"name":"Le Perreux-sur-Marne","latitude":"48.84222","longitude":"2.50361","population":"32194","region":"11","departement":"94","arrondissement":"942","commune":"94058"},
{"name":"Liévin","latitude":"50.4225","longitude":"2.7782","population":"32009","region":"32","departement":"62","arrondissement":"627","commune":"62510"},
{"name":"Maubeuge","latitude":"50.27694","longitude":"3.9725","population":"31970","region":"32","departement":"59","arrondissement":"591","commune":"59392"},
{"name":"Viry-Châtillon","latitude":"48.66944","longitude":"2.37583","population":"31630","region":"11","departement":"91","arrondissement":"912","commune":"91687"},
{"name":"Les Mureaux","latitude":"48.99306","longitude":"1.90833","population":"31490","region":"11","departement":"78","arrondissement":"781","commune":"78440"},
{"name":"Annemasse","latitude":"46.195","longitude":"6.23556","population":"31293","region":"84","departement":"74","arrondissement":"743","commune":"74012"},
{"name":"Schiltigheim","latitude":"48.60694","longitude":"7.74917","population":"31148","region":"44","departement":"67","arrondissement":"676","commune":"67447"},
{"name":"Houilles","latitude":"48.92556","longitude":"2.18833","population":"31020","region":"11","departement":"78","arrondissement":"783","commune":"78311"},
{"name":"Villeneuve-Saint-Georges","latitude":"48.73333","longitude":"2.45","population":"31013","region":"11","departement":"94","arrondissement":"941","commune":"94078"},
{"name":"Goussainville","latitude":"49.032","longitude":"2.474","population":"30990","region":"11","departement":"95","arrondissement":"952","commune":"95280"},
{"name":"Malakoff","latitude":"48.81667","longitude":"2.3","population":"30988","region":"11","departement":"92","arrondissement":"921","commune":"92046"},
{"name":"Vandœuvre-lès-Nancy","latitude":"48.65611","longitude":"6.1675","population":"30968","region":"44","departement":"54","arrondissement":"543","commune":"54547"},
{"name":"Nogent-sur-Marne","latitude":"48.83667","longitude":"2.4825","population":"30956","region":"11","departement":"94","arrondissement":"942","commune":"94052"},
{"name":"Plaisir","latitude":"48.81778","longitude":"1.94639","population":"30709","region":"11","departement":"78","arrondissement":"784","commune":"78490"},
{"name":"Dreux","latitude":"48.73639","longitude":"1.36556","population":"30690","region":"24","departement":"28","arrondissement":"283","commune":"28134"},
{"name":"Athis-Mons","latitude":"48.70861","longitude":"2.38917","population":"30644","region":"11","departement":"91","arrondissement":"913","commune":"91027"},
{"name":"Mont-de-Marsan","latitude":"43.89028","longitude":"-0.50056","population":"30418","region":"75","departement":"40","arrondissement":"402","commune":"40192"},
{"name":"Palaiseau","latitude":"48.71833","longitude":"2.24972","population":"30311","region":"11","departement":"91","arrondissement":"913","commune":"91477"},
{"name":"Rillieux-la-Pape","latitude":"45.8208","longitude":"4.8977","population":"29990","region":"84","departement":"69","arrondissement":"691","commune":"69286"},
{"name":"Clichy-sous-Bois","latitude":"48.90917","longitude":"2.54722","population":"29962","region":"11","departement":"93","arrondissement":"932","commune":"93014"},
{"name":"Saint-Laurent-du-Var","latitude":"43.67333","longitude":"7.19","population":"29897","region":"93","departement":"06","arrondissement":"061","commune":"06123"},
{"name":"Pontoise","latitude":"49.05083","longitude":"2.10083","population":"29817","region":"11","departement":"95","arrondissement":"953","commune":"95500"},
{"name":"Chatou","latitude":"48.89056","longitude":"2.15694","population":"29789","region":"11","departement":"78","arrondissement":"783","commune":"78146"},
{"name":"L'Haÿ-les-Roses","latitude":"48.77917","longitude":"2.33722","population":"29785","region":"11","departement":"94","arrondissement":"943","commune":"94038"},
{"name":"Saint-Cloud","latitude":"48.8466","longitude":"2.2157","population":"29726","region":"11","departement":"92","arrondissement":"923","commune":"92064"},
{"name":"Meyzieu","latitude":"45.76639","longitude":"5.00278","population":"29666","region":"84","departement":"69","arrondissement":"691","commune":"69282"},
{"name":"Vienne","latitude":"45.52556","longitude":"4.87472","population":"29619","region":"84","departement":"38","arrondissement":"383","commune":"38544"},
{"name":"Thiais","latitude":"48.76444","longitude":"2.39139","population":"29472","region":"11","departement":"94","arrondissement":"943","commune":"94073"},
{"name":"Sotteville-lès-Rouen","latitude":"49.40861","longitude":"1.08917","population":"29342","region":"28","departement":"76","arrondissement":"763","commune":"76681"},
{"name":"Périgueux","latitude":"45.18417","longitude":"0.71806","population":"29273","region":"75","departement":"24","arrondissement":"243","commune":"24322"},
{"name":"Carpentras","latitude":"44.055","longitude":"5.04806","population":"29271","region":"93","departement":"84","arrondissement":"843","commune":"84031"},
{"name":"Le Chesnay","latitude":"48.8205","longitude":"2.1311","population":"29210","region":"11","departement":"78","arrondissement":"784","commune":"78158"},
{"name":"Orange","latitude":"44.1375","longitude":"4.80889","population":"28990","region":"93","departement":"84","arrondissement":"842","commune":"84087"},
{"name":"Yerres","latitude":"48.71611","longitude":"2.49083","population":"28909","region":"11","departement":"91","arrondissement":"912","commune":"91691"},
{"name":"Menton","latitude":"43.77472","longitude":"7.49972","population":"28848","region":"93","departement":"06","arrondissement":"062","commune":"06083"},
{"name":"Soissons","latitude":"49.3812","longitude":"3.3236","population":"28845","region":"32","departement":"02","arrondissement":"024","commune":"02722"},
{"name":"Charenton-le-Pont","latitude":"48.82139","longitude":"2.41194","population":"28844","region":"11","departement":"94","arrondissement":"941","commune":"94018"},
{"name":"Trappes","latitude":"48.77667","longitude":"2.00167","population":"28638","region":"11","departement":"78","arrondissement":"784","commune":"78621"},
{"name":"Draveil","latitude":"48.68611","longitude":"2.40944","population":"28564","region":"11","departement":"91","arrondissement":"912","commune":"91201"},
{"name":"Villenave-d'Ornon","latitude":"44.7795","longitude":"-0.5662","population":"28469","region":"75","departement":"33","arrondissement":"332","commune":"33550"},
{"name":"Lambersart","latitude":"50.64944","longitude":"3.02417","population":"28310","region":"32","departement":"59","arrondissement":"595","commune":"59328"},
{"name":"Saint-Étienne-du-Rouvray","latitude":"49.37778","longitude":"1.10417","population":"28309","region":"28","departement":"76","arrondissement":"763","commune":"76575"},
{"name":"Pierrefitte-sur-Seine","latitude":"48.96472","longitude":"2.36083","population":"28277","region":"11","departement":"93","arrondissement":"933","commune":"93059"},
{"name":"Aurillac","latitude":"44.92528","longitude":"2.43972","population":"28207","region":"84","departement":"15","arrondissement":"151","commune":"15014"},
{"name":"Guyancourt","latitude":"48.77056","longitude":"2.07306","population":"28189","region":"11","departement":"78","arrondissement":"784","commune":"78297"},
{"name":"Bois-Colombes","latitude":"48.9175","longitude":"2.26833","population":"28153","region":"11","departement":"92","arrondissement":"922","commune":"92009"},
{"name":"Savigny-le-Temple","latitude":"48.57583","longitude":"2.58278","population":"28113","region":"11","departement":"77","arrondissement":"772","commune":"77445"},
{"name":"Saumur","latitude":"47.25917","longitude":"-0.07806","population":"28070","region":"52","departement":"49","arrondissement":"493","commune":"49328"},
{"name":"Villemomble","latitude":"48.89028","longitude":"2.51111","population":"28031","region":"11","departement":"93","arrondissement":"931","commune":"93077"},
{"name":"Bezons","latitude":"48.92556","longitude":"2.21694","population":"28012","region":"11","departement":"95","arrondissement":"951","commune":"95063"},
{"name":"Vallauris","latitude":"43.57972","longitude":"7.05333","population":"27991","region":"93","departement":"06","arrondissement":"061","commune":"06155"},
{"name":"Cachan","latitude":"48.79194","longitude":"2.33194","population":"27786","region":"11","departement":"94","arrondissement":"943","commune":"94016"},
{"name":"Ermont","latitude":"48.99139","longitude":"2.25944","population":"27625","region":"11","departement":"95","arrondissement":"953","commune":"95219"},
{"name":"Bergerac","latitude":"44.85111","longitude":"0.48194","population":"27433","region":"75","departement":"24","arrondissement":"241","commune":"24037"},
{"name":"Ris-Orangis","latitude":"48.65111","longitude":"2.41306","population":"27339","region":"11","departement":"91","arrondissement":"912","commune":"91521"},
{"name":"Saint-Médard-en-Jalles","latitude":"44.89556","longitude":"-0.7175","population":"27332","region":"75","departement":"33","arrondissement":"332","commune":"33449"},
{"name":"Alençon","latitude":"48.42972","longitude":"0.09194","population":"27325","region":"28","departement":"61","arrondissement":"611","commune":"61001"},
{"name":"Villiers-sur-Marne","latitude":"48.8275","longitude":"2.54472","population":"27322","region":"11","departement":"94","arrondissement":"942","commune":"94079"},
{"name":"Élancourt","latitude":"48.78389","longitude":"1.95806","population":"27300","region":"11","departement":"78","arrondissement":"782","commune":"78208"},
{"name":"La Garenne-Colombes","latitude":"48.905","longitude":"2.24361","population":"27091","region":"11","departement":"92","arrondissement":"922","commune":"92035"},
{"name":"Vigneux-sur-Seine","latitude":"48.7","longitude":"2.41667","population":"27067","region":"11","departement":"91","arrondissement":"912","commune":"91657"},
{"name":"Vierzon","latitude":"47.22194","longitude":"2.06833","population":"27020","region":"24","departement":"18","arrondissement":"183","commune":"18279"},
{"name":"Villiers-le-Bel","latitude":"49.00889","longitude":"2.39028","population":"27013","region":"11","departement":"95","arrondissement":"952","commune":"95680"},
{"name":"Grigny","latitude":"48.65667","longitude":"2.38806","population":"26860","region":"11","departement":"91","arrondissement":"912","commune":"91286"},
{"name":"Aix-les-Bains","latitude":"45.6885","longitude":"5.9156","population":"26819","region":"84","departement":"73","arrondissement":"732","commune":"73008"},
{"name":"Illkirch-Graffenstaden","latitude":"48.52472","longitude":"7.71444","population":"26793","region":"44","departement":"67","arrondissement":"676","commune":"67218"},
{"name":"Le Plessis-Robinson","latitude":"48.78333","longitude":"2.26361","population":"26581","region":"11","departement":"92","arrondissement":"921","commune":"92060"},
{"name":"Vanves","latitude":"48.8196","longitude":"2.2895","population":"26505","region":"11","departement":"92","arrondissement":"921","commune":"92075"},
{"name":"Le Kremlin-Bicêtre","latitude":"48.81","longitude":"2.35806","population":"26368","region":"11","departement":"94","arrondissement":"943","commune":"94043"},
{"name":"Gonesse","latitude":"48.98667","longitude":"2.44861","population":"26361","region":"11","departement":"95","arrondissement":"952","commune":"95277"},
{"name":"Saintes","latitude":"45.74528","longitude":"-0.63444","population":"26335","region":"75","departement":"17","arrondissement":"174","commune":"17415"},
{"name":"Taverny","latitude":"49.02583","longitude":"2.22667","population":"26134","region":"11","departement":"95","arrondissement":"953","commune":"95607"},
{"name":"Saint-Dizier","latitude":"48.63778","longitude":"4.94889","population":"26112","region":"44","departement":"52","arrondissement":"523","commune":"52448"},
{"name":"Laon","latitude":"49.56333","longitude":"3.62361","population":"26094","region":"32","departement":"02","arrondissement":"022","commune":"02408"},
{"name":"Montbéliard","latitude":"47.50972","longitude":"6.79833","population":"26078","region":"27","departement":"25","arrondissement":"252","commune":"25388"},
{"name":"Rambouillet","latitude":"48.64361","longitude":"1.83","population":"26065","region":"11","departement":"78","arrondissement":"782","commune":"78517"},
{"name":"La Garde","latitude":"43.1244","longitude":"6.011","population":"26064","region":"93","departement":"83","arrondissement":"832","commune":"83062"},
{"name":"Sucy-en-Brie","latitude":"48.76972","longitude":"2.52278","population":"25927","region":"11","departement":"94","arrondissement":"941","commune":"94071"},
{"name":"Sens","latitude":"48.19722","longitude":"3.28333","population":"25885","region":"27","departement":"89","arrondissement":"893","commune":"89387"},
{"name":"Sannois","latitude":"48.97167","longitude":"2.25694","population":"25856","region":"11","departement":"95","arrondissement":"951","commune":"95582"},
{"name":"Romainville","latitude":"48.88361","longitude":"2.43611","population":"25786","region":"11","departement":"93","arrondissement":"931","commune":"93063"},
{"name":"Béthune","latitude":"50.5296","longitude":"2.6405","population":"25766","region":"32","departement":"62","arrondissement":"622","commune":"62119"},
{"name":"Herblay","latitude":"48.99028","longitude":"2.16556","population":"25763","region":"11","departement":"95","arrondissement":"951","commune":"95306"},
{"name":"Hénin-Beaumont","latitude":"50.42111","longitude":"2.95","population":"25731","region":"32","departement":"62","arrondissement":"627","commune":"62427"},
{"name":"Bourgoin-Jallieu","latitude":"45.5913","longitude":"5.2802","population":"25540","region":"84","departement":"38","arrondissement":"382","commune":"38053"},
{"name":"Miramas","latitude":"43.58139","longitude":"5.00139","population":"25440","region":"93","departement":"13","arrondissement":"134","commune":"13063"},
{"name":"Décines-Charpieu","latitude":"45.7686","longitude":"4.9598","population":"25414","region":"84","departement":"69","arrondissement":"691","commune":"69275"},
{"name":"Biarritz","latitude":"43.48056","longitude":"-1.55722","population":"25397","region":"75","departement":"64","arrondissement":"641","commune":"64122"},
{"name":"Fresnes","latitude":"48.75889","longitude":"2.32361","population":"25390","region":"11","departement":"94","arrondissement":"943","commune":"94034"},
{"name":"Oullins","latitude":"45.71417","longitude":"4.8075","population":"25347","region":"84","departement":"69","arrondissement":"691","commune":"69149"},
{"name":"Brunoy","latitude":"48.69806","longitude":"2.50333","population":"25339","region":"11","departement":"91","arrondissement":"912","commune":"91114"},
{"name":"Vernon","latitude":"49.09167","longitude":"1.485","population":"25323","region":"28","departement":"27","arrondissement":"273","commune":"27681"},
{"name":"Rochefort","latitude":"45.94194","longitude":"-0.96694","population":"25317","region":"75","departement":"17","arrondissement":"172","commune":"17299"},
{"name":"Tournefeuille","latitude":"43.58444","longitude":"1.34361","population":"25286","region":"76","departement":"31","arrondissement":"313","commune":"31557"},
{"name":"Le Grand-Quevilly","latitude":"49.4064","longitude":"1.0529","population":"25160","region":"28","departement":"76","arrondissement":"763","commune":"76322"},
{"name":"Vichy","latitude":"46.1268","longitude":"3.4262","population":"25090","region":"84","departement":"03","arrondissement":"033","commune":"03310"},
{"name":"Armentières","latitude":"50.68722","longitude":"2.88028","population":"25089","region":"32","departement":"59","arrondissement":"595","commune":"59017"},
{"name":"Villeneuve-la-Garenne","latitude":"48.93722","longitude":"2.32778","population":"24944","region":"11","departement":"92","arrondissement":"922","commune":"92078"},
{"name":"Lunel","latitude":"43.67694","longitude":"4.13528","population":"24923","region":"76","departement":"34","arrondissement":"343","commune":"34145"},
{"name":"Dole","latitude":"47.09222","longitude":"5.48972","population":"24906","region":"27","departement":"39","arrondissement":"391","commune":"39198"},
{"name":"Bègles","latitude":"44.80778","longitude":"-0.54889","population":"24829","region":"75","departement":"33","arrondissement":"332","commune":"33039"},
{"name":"Saint-Sébastien-sur-Loire","latitude":"47.20766","longitude":"-1.50337","population":"24726","region":"52","departement":"44","arrondissement":"442","commune":"44190"},
{"name":"Cavaillon","latitude":"43.83667","longitude":"5.03722","population":"24723","region":"93","departement":"84","arrondissement":"841","commune":"84035"},
{"name":"Montfermeil","latitude":"48.89833","longitude":"2.56472","population":"24722","region":"11","departement":"93","arrondissement":"932","commune":"93047"},
{"name":"Les Ulis","latitude":"48.68222","longitude":"2.1675","population":"24691","region":"11","departement":"91","arrondissement":"913","commune":"91692"},
{"name":"La Teste-de-Buch","latitude":"44.6325","longitude":"-1.145","population":"24597","region":"75","departement":"33","arrondissement":"336","commune":"33529"},
{"name":"Rodez","latitude":"44.3502","longitude":"2.5748","population":"24358","region":"76","departement":"12","arrondissement":"122","commune":"12202"},
{"name":"Orvault","latitude":"47.27083","longitude":"-1.62361","population":"24332","region":"52","departement":"44","arrondissement":"442","commune":"44114"},
{"name":"Abbeville","latitude":"50.10528","longitude":"1.83528","population":"24325","region":"32","departement":"80","arrondissement":"801","commune":"80001"},
{"name":"Épernay","latitude":"49.04","longitude":"3.95917","population":"24317","region":"44","departement":"51","arrondissement":"512","commune":"51230"},
{"name":"Champs-sur-Marne","latitude":"48.85278","longitude":"2.60194","population":"24271","region":"11","departement":"77","arrondissement":"775","commune":"77083"},
{"name":"Villeparisis","latitude":"48.94278","longitude":"2.60639","population":"24146","region":"11","departement":"77","arrondissement":"775","commune":"77514"},
{"name":"Agde","latitude":"43.31","longitude":"3.47528","population":"24031","region":"76","departement":"34","arrondissement":"341","commune":"34003"},
{"name":"Eaubonne","latitude":"48.99139","longitude":"2.27972","population":"23878","region":"11","departement":"95","arrondissement":"953","commune":"95203"},
{"name":"Libourne","latitude":"44.91528","longitude":"-0.24389","population":"23830","region":"75","departement":"33","arrondissement":"335","commune":"33243"},
{"name":"Fontenay-aux-Roses","latitude":"48.78917","longitude":"2.28556","population":"23684","region":"11","departement":"92","arrondissement":"921","commune":"92032"},
{"name":"Bruay-la-Buissière","latitude":"50.481","longitude":"2.5487","population":"23621","region":"32","departement":"62","arrondissement":"622","commune":"62178"},
{"name":"Villeneuve-sur-Lot","latitude":"44.40694","longitude":"0.70417","population":"23536","region":"75","departement":"47","arrondissement":"473","commune":"47323"},
{"name":"Saint-Ouen-l'Aumône","latitude":"49.04417","longitude":"2.11028","population":"23459","region":"11","departement":"95","arrondissement":"953","commune":"95572"},
{"name":"Chaumont","latitude":"48.11083","longitude":"5.13861","population":"23411","region":"44","departement":"52","arrondissement":"521","commune":"52121"},
{"name":"Gradignan","latitude":"44.77139","longitude":"-0.61694","population":"23386","region":"75","departement":"33","arrondissement":"332","commune":"33192"},
{"name":"Muret","latitude":"43.46028","longitude":"1.32583","population":"23356","region":"76","departement":"31","arrondissement":"311","commune":"31395"},
{"name":"Le Bouscat","latitude":"44.86472","longitude":"-0.59861","population":"23317","region":"75","departement":"33","arrondissement":"332","commune":"33069"},
{"name":"Oyonnax","latitude":"46.25556","longitude":"5.655","population":"22884","region":"84","departement":"01","arrondissement":"014","commune":"01283"},
{"name":"Sèvres","latitude":"48.82306","longitude":"2.21083","population":"22873","region":"11","departement":"92","arrondissement":"923","commune":"92072"},
{"name":"Montgeron","latitude":"48.7075","longitude":"2.45528","population":"22859","region":"11","departement":"91","arrondissement":"912","commune":"91421"},
{"name":"Le Creusot","latitude":"46.80056","longitude":"4.44028","population":"22840","region":"27","departement":"71","arrondissement":"711","commune":"71153"},
{"name":"Montigny-lès-Metz","latitude":"49.09972","longitude":"6.15333","population":"22732","region":"44","departement":"57","arrondissement":"574","commune":"57480"},
{"name":"Maisons-Laffitte","latitude":"48.94611","longitude":"2.145","population":"22717","region":"11","departement":"78","arrondissement":"783","commune":"78358"},
{"name":"Brétigny-sur-Orge","latitude":"48.60944","longitude":"2.30778","population":"22691","region":"11","departement":"91","arrondissement":"913","commune":"91103"},
{"name":"Frontignan","latitude":"43.44722","longitude":"3.75556","population":"22684","region":"76","departement":"34","arrondissement":"343","commune":"34108"},
{"name":"Saint-Mandé","latitude":"48.84139","longitude":"2.41778","population":"22627","region":"11","departement":"94","arrondissement":"942","commune":"94067"},
{"name":"Coudekerque-Branche","latitude":"51.02472","longitude":"2.39083","population":"22588","region":"32","departement":"59","arrondissement":"594","commune":"59155"},
{"name":"Cormeilles-en-Parisis","latitude":"48.97306","longitude":"2.20056","population":"22587","region":"11","departement":"95","arrondissement":"951","commune":"95176"},
{"name":"Beaune","latitude":"47.02417","longitude":"4.83889","population":"22516","region":"27","departement":"21","arrondissement":"211","commune":"21054"},
{"name":"Les Lilas","latitude":"48.88","longitude":"2.41694","population":"22439","region":"11","departement":"93","arrondissement":"931","commune":"93045"},
{"name":"Manosque","latitude":"43.83333","longitude":"5.78333","population":"22321","region":"93","departement":"04","arrondissement":"044","commune":"04112"},
{"name":"Lanester","latitude":"47.76333","longitude":"-3.33889","population":"22288","region":"53","departement":"56","arrondissement":"561","commune":"56098"},
{"name":"Roissy-en-Brie","latitude":"48.79111","longitude":"2.65139","population":"22237","region":"11","departement":"77","arrondissement":"775","commune":"77390"},
{"name":"Torcy","latitude":"48.85","longitude":"2.65","population":"22225","region":"11","departement":"77","arrondissement":"775","commune":"77468"},
{"name":"Bussy-Saint-Georges","latitude":"48.84167","longitude":"2.69778","population":"22217","region":"11","departement":"77","arrondissement":"775","commune":"77058"},
{"name":"Cenon","latitude":"44.85694","longitude":"-0.53278","population":"22200","region":"75","departement":"33","arrondissement":"332","commune":"33119"},
{"name":"Étampes","latitude":"48.435","longitude":"2.16222","population":"22182","region":"11","departement":"91","arrondissement":"911","commune":"91223"},
{"name":"La Madeleine","latitude":"50.65528","longitude":"3.07028","population":"22174","region":"32","departement":"59","arrondissement":"595","commune":"59368"},
{"name":"Sainte-Foy-lès-Lyon","latitude":"45.73361","longitude":"4.8025","population":"22015","region":"84","departement":"69","arrondissement":"691","commune":"69202"},
{"name":"Millau","latitude":"44.09778","longitude":"3.07778","population":"22013","region":"76","departement":"12","arrondissement":"121","commune":"12145"},
{"name":"Fontaine","latitude":"45.19306","longitude":"5.68472","population":"22004","region":"84","departement":"38","arrondissement":"381","commune":"38169"},
{"name":"Sarreguemines","latitude":"49.1103","longitude":"7.0676","population":"21965","region":"44","departement":"57","arrondissement":"576","commune":"57631"},
{"name":"Mons-en-Barœul","latitude":"50.6421","longitude":"3.1085","population":"21958","region":"32","departement":"59","arrondissement":"595","commune":"59410"},
{"name":"Hérouville-Saint-Clair","latitude":"49.20361","longitude":"-0.32639","population":"21893","region":"28","departement":"14","arrondissement":"142","commune":"14327"},
{"name":"Lisieux","latitude":"49.14556","longitude":"0.22556","population":"21826","region":"28","departement":"14","arrondissement":"143","commune":"14366"},
{"name":"Auch","latitude":"43.64528","longitude":"0.58861","population":"21792","region":"76","departement":"32","arrondissement":"321","commune":"32013"},
{"name":"Mandelieu-la-Napoule","latitude":"43.5456","longitude":"6.938","population":"21764","region":"93","departement":"06","arrondissement":"061","commune":"06079"},
{"name":"Blagnac","latitude":"43.63556","longitude":"1.39","population":"21764","region":"76","departement":"31","arrondissement":"313","commune":"31069"},
{"name":"Le Petit-Quevilly","latitude":"49.43056","longitude":"1.05278","population":"21745","region":"28","departement":"76","arrondissement":"763","commune":"76498"},
{"name":"Loos","latitude":"50.61222","longitude":"3.01361","population":"21739","region":"32","departement":"59","arrondissement":"595","commune":"59360"},
{"name":"Hazebrouck","latitude":"50.72444","longitude":"2.53833","population":"21721","region":"32","departement":"59","arrondissement":"594","commune":"59295"},
{"name":"Deuil-la-Barre","latitude":"48.975","longitude":"2.32861","population":"21676","region":"11","departement":"95","arrondissement":"952","commune":"95197"},
{"name":"Forbach","latitude":"49.18806","longitude":"6.9","population":"21595","region":"44","departement":"57","arrondissement":"573","commune":"57227"},
{"name":"Saint-Dié-des-Vosges","latitude":"48.28417","longitude":"6.94917","population":"21523","region":"44","departement":"88","arrondissement":"883","commune":"88413"},
{"name":"Montmorency","latitude":"48.9897","longitude":"2.3228","population":"21429","region":"11","departement":"95","arrondissement":"952","commune":"95428"},
{"name":"Combs-la-Ville","latitude":"48.66194","longitude":"2.56306","population":"21427","region":"11","departement":"77","arrondissement":"772","commune":"77122"},
{"name":"Vertou","latitude":"47.16806","longitude":"-1.47139","population":"21333","region":"52","departement":"44","arrondissement":"442","commune":"44215"},
{"name":"Longjumeau","latitude":"48.69694","longitude":"2.29556","population":"21276","region":"11","departement":"91","arrondissement":"913","commune":"91345"},
{"name":"Les Pavillons-sous-Bois","latitude":"48.90583","longitude":"2.51056","population":"21226","region":"11","departement":"93","arrondissement":"931","commune":"93057"},
{"name":"Croix","latitude":"50.67472","longitude":"3.15389","population":"21195","region":"32","departement":"59","arrondissement":"595","commune":"59163"},
{"name":"La Valette-du-Var","latitude":"43.13722","longitude":"5.9825","population":"21136","region":"93","departement":"83","arrondissement":"832","commune":"83144"},
{"name":"Fleury-les-Aubrais","latitude":"47.93194","longitude":"1.92111","population":"21118","region":"24","departement":"45","arrondissement":"452","commune":"45147"},
{"name":"Dax","latitude":"43.70694","longitude":"-1.05139","population":"21003","region":"75","departement":"40","arrondissement":"401","commune":"40088"},
{"name":"Grande-Synthe","latitude":"51.01306","longitude":"2.30222","population":"20901","region":"32","departement":"59","arrondissement":"594","commune":"59271"},
{"name":"Morsang-sur-Orge","latitude":"48.66333","longitude":"2.35139","population":"20875","region":"11","departement":"91","arrondissement":"912","commune":"91434"},
{"name":"Orly","latitude":"48.74361","longitude":"2.39278","population":"20874","region":"11","departement":"94","arrondissement":"941","commune":"94054"},
{"name":"La Celle-Saint-Cloud","latitude":"48.85","longitude":"2.145","population":"20844","region":"11","departement":"78","arrondissement":"783","commune":"78126"},
{"name":"Gardanne","latitude":"43.45444","longitude":"5.47611","population":"20785","region":"93","departement":"13","arrondissement":"131","commune":"13041"},
{"name":"Gif-sur-Yvette","latitude":"48.7017","longitude":"2.1347","population":"20776","region":"11","departement":"91","arrondissement":"913","commune":"91272"},
{"name":"Le Mée-sur-Seine","latitude":"48.5375","longitude":"2.63194","population":"20478","region":"11","departement":"77","arrondissement":"772","commune":"77285"},
{"name":"Ozoir-la-Ferrière","latitude":"48.76917","longitude":"2.67917","population":"20374","region":"11","departement":"77","arrondissement":"775","commune":"77350"},
{"name":"Neuilly-Plaisance","latitude":"48.86083","longitude":"2.50972","population":"20318","region":"11","departement":"93","arrondissement":"932","commune":"93049"},
{"name":"Saint-Gratien","latitude":"48.97111","longitude":"2.28194","population":"20258","region":"11","departement":"95","arrondissement":"952","commune":"95555"},
{"name":"Lagny-sur-Marne","latitude":"48.8781","longitude":"2.7071","population":"20228","region":"11","departement":"77","arrondissement":"775","commune":"77243"},
{"name":"Voiron","latitude":"45.36333","longitude":"5.59","population":"20206","region":"84","departement":"38","arrondissement":"381","commune":"38563"},
{"name":"Denain","latitude":"50.32861","longitude":"3.395","population":"20157","region":"32","departement":"59","arrondissement":"596","commune":"59172"},
{"name":"Halluin","latitude":"50.78278","longitude":"3.12472","population":"20125","region":"32","departement":"59","arrondissement":"595","commune":"59279"},
{"name":"Saint-Genis-Laval","latitude":"45.6957","longitude":"4.7933","population":"20116","region":"84","departement":"69","arrondissement":"691","commune":"69204"},
{"name":"Saint-Michel-sur-Orge","latitude":"48.6325","longitude":"2.30278","population":"20075","region":"11","departement":"91","arrondissement":"913","commune":"91570"},
{"name":"Dammarie-les-Lys","latitude":"48.51528","longitude":"2.63444","population":"20052","region":"11","departement":"77","arrondissement":"772","commune":"77152"}
]