[
{"name":"Brest","latitude":"48.39146","longitude":"-4.48483","population":"141315","region":"53","departement":"29","arrondissement":"291","commune":"29019"},
{"name":"Landerneau","latitude":"48.45083","longitude":"-4.24944","population":"15231","region":"53","departement":"29","arrondissement":"291","commune":"29103"},
{"name":"Guipavas","latitude":"48.43333","longitude":"-4.4","population":"13496","region":"53","departement":"29","arrondissement":"291","commune":"29075"},
{"name":"Plougastel-Daoulas","latitude":"48.3725","longitude":"-4.37056","population":"13304","region":"53","departement":"29","arrondissement":"291","commune":"29189"},
{"name":"Le Relecq-Kerhuon","latitude":"48.40861","longitude":"-4.39694","population":"10927","region":"53","departement":"29","arrondissement":"291","commune":"29235"},
{"name":"Crozon","latitude":"48.24568","longitude":"-4.48929","population":"7697","region":"53","departement":"29","arrondissement":"292","commune":"29042"},
{"name":"Guilers","latitude":"48.42444","longitude":"-4.55806","population":"7399","region":"53","departement":"29","arrondissement":"291","commune":"29069"},
{"name":"Gouesnou","latitude":"48.45361","longitude":"-4.46444","population":"6229","region":"53","departement":"29","arrondissement":"291","commune":"29061"},
{"name":"Loperhet","latitude":"48.37472","longitude":"-4.30528","population":"3585","region":"53","departement":"29","arrondissement":"291","commune":"29140"},
{"name":"Bohars","latitude":"48.42944","longitude":"-4.51361","population":"3288","region":"53","departement":"29","arrondissement":"291","commune":"29011"},
{"name":"Dirinon","latitude":"48.39722","longitude":"-4.26972","population":"2460","region":"53","departement":"29","arrondissement":"291","commune":"29045"},
{"name":"Lanvéoc","latitude":"48.28583","longitude":"-4.46222","population":"2208","region":"53","departement":"29","arrondissement":"292","commune":"29120"},
{"name":"Telgruc-sur-Mer","latitude":"48.23139","longitude":"-4.35639","population":"2088","region":"53","departement":"29","arrondissement":"292","commune":"29280"},
{"name":"Logonna-Daoulas","latitude":"48.32056","longitude":"-4.29861","population":"2083","region":"53","departement":"29","arrondissement":"291","commune":"29137"},
{"name":"Hôpital-Camfrout","latitude":"48.3275","longitude":"-4.24222","population":"2057","region":"53","departement":"29","arrondissement":"291","commune":"29080"},
{"name":"La Forest-Landerneau","latitude":"48.4275","longitude":"-4.315","population":"1825","region":"53","departement":"29","arrondissement":"291","commune":"29056"},
{"name":"Daoulas","latitude":"48.36083","longitude":"-4.25972","population":"1768","region":"53","departement":"29","arrondissement":"291","commune":"29043"},
{"name":"Pencran","latitude":"48.43778","longitude":"-4.23528","population":"1672","region":"53","departement":"29","arrondissement":"291","commune":"29156"},
{"name":"Saint-Urbain","latitude":"48.40028","longitude":"-4.22639","population":"1455","region":"53","departement":"29","arrondissement":"291","commune":"29270"},
{"name":"Saint-Divy","latitude":"48.45389","longitude":"-4.33528","population":"1321","region":"53","departement":"29","arrondissement":"291","commune":"29245"},
{"name":"Roscanvel","latitude":"48.31863","longitude":"-4.55838","population":"919","region":"53","departement":"29","arrondissement":"292","commune":"29238"},
{"name":"Argol","latitude":"48.24639","longitude":"-4.31639","population":"833","region":"53","departement":"29","arrondissement":"292","commune":"29001"},
{"name":"Landévennec","latitude":"48.29222","longitude":"-4.26778","population":"351","region":"53","departement":"29","arrondissement":"292","commune":"29104"},
{"name":"Trégarvan","latitude":"48.25139","longitude":"-4.22528","population":"139","region":"53","departement":"29","arrondissement":"292","commune":"29289"}
]