[
{"name":"Bray-Dunes","latitude":"51.0714","longitude":"2.528","population":"4688","region":"32","departement":"59","arrondissement":"594","commune":"59107"},
{"name":"Hondschoote","latitude":"50.97944","longitude":"2.58528","population":"4033","region":"32","departement":"59","arrondissement":"594","commune":"59309"},
{"name":"Ghyvelde","latitude":"51.05167","longitude":"2.52722","population":"3292","region":"32","departement":"59","arrondissement":"594","commune":"59260"},
{"name":"Warhem","latitude":"50.97611","longitude":"2.49306","population":"2066","region":"32","departement":"59","arrondissement":"594","commune":"59641"},
{"name":"Zuydcoote","latitude":"51.06417","longitude":"2.48944","population":"1684","region":"32","departement":"59","arrondissement":"594","commune":"59668"},
{"name":"Uxem","latitude":"51.02167","longitude":"2.48333","population":"1305","region":"32","departement":"59","arrondissement":"594","commune":"59605"}
]