[
{"name":"Vitry-le-François","latitude":"48.72472","longitude":"4.58444","population":"13686","region":"44","departement":"51","arrondissement":"514","commune":"51649"},
{"name":"Sermaize-les-Bains","latitude":"48.78361","longitude":"4.91139","population":"2115","region":"44","departement":"51","arrondissement":"514","commune":"51531"},
{"name":"Pargny-sur-Saulx","latitude":"48.76917","longitude":"4.83778","population":"1966","region":"44","departement":"51","arrondissement":"514","commune":"51423"},
{"name":"Frignicourt","latitude":"48.70111","longitude":"4.58917","population":"1794","region":"44","departement":"51","arrondissement":"514","commune":"51262"},
{"name":"Saint-Amand-sur-Fion","latitude":"48.81056","longitude":"4.60917","population":"1050","region":"44","departement":"51","arrondissement":"514","commune":"51472"},
{"name":"Vitry-en-Perthois","latitude":"48.74694","longitude":"4.62528","population":"871","region":"44","departement":"51","arrondissement":"514","commune":"51647"},
{"name":"Marolles","latitude":"48.71806","longitude":"4.62528","population":"861","region":"44","departement":"51","arrondissement":"514","commune":"51352"},
{"name":"Couvrot","latitude":"48.75944","longitude":"4.57167","population":"847","region":"44","departement":"51","arrondissement":"514","commune":"51195"},
{"name":"Cheminon","latitude":"48.73694","longitude":"4.90306","population":"633","region":"44","departement":"51","arrondissement":"514","commune":"51144"},
{"name":"Maurupt-le-Montois","latitude":"48.74917","longitude":"4.84889","population":"569","region":"44","departement":"51","arrondissement":"514","commune":"51358"},
{"name":"Vauclerc","latitude":"48.70861","longitude":"4.65917","population":"473","region":"44","departement":"51","arrondissement":"514","commune":"51598"},
{"name":"Luxémont-et-Villotte","latitude":"48.69583","longitude":"4.63361","population":"467","region":"44","departement":"51","arrondissement":"514","commune":"51334"},
{"name":"Heiltz-le-Maurupt","latitude":"48.79306","longitude":"4.815","population":"395","region":"44","departement":"51","arrondissement":"514","commune":"51289"},
{"name":"Vanault-les-Dames","latitude":"48.8425","longitude":"4.76972","population":"386","region":"44","departement":"51","arrondissement":"514","commune":"51590"},
{"name":"Heiltz-l'Évêque","latitude":"48.78056","longitude":"4.74556","population":"291","region":"44","departement":"51","arrondissement":"514","commune":"51290"},
{"name":"Haussignémont","latitude":"48.71833","longitude":"4.74972","population":"291","region":"44","departement":"51","arrondissement":"514","commune":"51284"},
{"name":"Bassuet","latitude":"48.79778","longitude":"4.66778","population":"268","region":"44","departement":"51","arrondissement":"514","commune":"51040"},
{"name":"Merlaut","latitude":"48.76139","longitude":"4.66694","population":"254","region":"44","departement":"51","arrondissement":"514","commune":"51363"},
{"name":"Charmont","latitude":"48.8709","longitude":"4.868","population":"227","region":"44","departement":"51","arrondissement":"514","commune":"51130"},
{"name":"Saint-Lumier-en-Champagne","latitude":"48.79528","longitude":"4.62722","population":"225","region":"44","departement":"51","arrondissement":"514","commune":"51496"},
{"name":"Reims-la-Brûlée","latitude":"48.71861","longitude":"4.66889","population":"217","region":"44","departement":"51","arrondissement":"514","commune":"51455"},
{"name":"Brusson","latitude":"48.74917","longitude":"4.70333","population":"215","region":"44","departement":"51","arrondissement":"514","commune":"51094"},
{"name":"Rancourt-sur-Ornain","latitude":"48.82583","longitude":"4.91417","population":"209","region":"44","departement":"55","arrondissement":"551","commune":"55414"},
{"name":"Plichancourt","latitude":"48.74639","longitude":"4.675","population":"209","region":"44","departement":"51","arrondissement":"514","commune":"51433"},
{"name":"Saint-Vrain","latitude":"48.695","longitude":"4.80361","population":"208","region":"44","departement":"51","arrondissement":"514","commune":"51521"},
{"name":"Blesme","latitude":"48.72528","longitude":"4.77472","population":"202","region":"44","departement":"51","arrondissement":"514","commune":"51068"},
{"name":"Saint-Jean-sur-Moivre","latitude":"48.90389","longitude":"4.58333","population":"201","region":"44","departement":"51","arrondissement":"511","commune":"51490"},
{"name":"Jussecourt-Minecourt","latitude":"48.7899","longitude":"4.7888","population":"200","region":"44","departement":"51","arrondissement":"514","commune":"51311"},
{"name":"Possesse","latitude":"48.88833","longitude":"4.80472","population":"185","region":"44","departement":"51","arrondissement":"514","commune":"51442"},
{"name":"Vavray-le-Grand","latitude":"48.79861","longitude":"4.70694","population":"183","region":"44","departement":"51","arrondissement":"514","commune":"51601"},
{"name":"Vanault-le-Châtel","latitude":"48.86472","longitude":"4.72556","population":"182","region":"44","departement":"51","arrondissement":"514","commune":"51589"},
{"name":"Favresse","latitude":"48.71806","longitude":"4.73333","population":"179","region":"44","departement":"51","arrondissement":"514","commune":"51246"},
{"name":"Coupéville","latitude":"48.91083","longitude":"4.62583","population":"174","region":"44","departement":"51","arrondissement":"511","commune":"51179"},
{"name":"Bignicourt-sur-Saulx","latitude":"48.76556","longitude":"4.77472","population":"170","region":"44","departement":"51","arrondissement":"514","commune":"51060"},
{"name":"Écriennes","latitude":"48.69167","longitude":"4.68389","population":"150","region":"44","departement":"51","arrondissement":"514","commune":"51224"},
{"name":"Alliancelles","latitude":"48.81","longitude":"4.8825","population":"145","region":"44","departement":"51","arrondissement":"514","commune":"51006"},
{"name":"Étrepy","latitude":"48.765","longitude":"4.80611","population":"140","region":"44","departement":"51","arrondissement":"514","commune":"51240"},
{"name":"Saint-Quentin-les-Marais","latitude":"48.78111","longitude":"4.64306","population":"131","region":"44","departement":"51","arrondissement":"514","commune":"51510"},
{"name":"Bassu","latitude":"48.83278","longitude":"4.69306","population":"127","region":"44","departement":"51","arrondissement":"514","commune":"51039"},
{"name":"Scrupt","latitude":"48.71806","longitude":"4.78472","population":"127","region":"44","departement":"51","arrondissement":"514","commune":"51528"},
{"name":"Saint-Mard-sur-le-Mont","latitude":"48.92167","longitude":"4.84806","population":"125","region":"44","departement":"51","arrondissement":"515","commune":"51500"},
{"name":"Lisse-en-Champagne","latitude":"48.8133","longitude":"4.643","population":"124","region":"44","departement":"51","arrondissement":"514","commune":"51325"},
{"name":"Dompremy","latitude":"48.72833","longitude":"4.74056","population":"123","region":"44","departement":"51","arrondissement":"514","commune":"51215"},
{"name":"Val-de-Vière","latitude":"48.8124","longitude":"4.7339","population":"122","region":"44","departement":"51","arrondissement":"514","commune":"51218"},
{"name":"Vroil","latitude":"48.84222","longitude":"4.91278","population":"120","region":"44","departement":"51","arrondissement":"514","commune":"51658"},
{"name":"Bussy-le-Repos","latitude":"48.89889","longitude":"4.75861","population":"119","region":"44","departement":"51","arrondissement":"514","commune":"51098"},
{"name":"Changy","latitude":"48.77389","longitude":"4.67833","population":"115","region":"44","departement":"51","arrondissement":"514","commune":"51122"},
{"name":"Ponthion","latitude":"48.75833","longitude":"4.71139","population":"111","region":"44","departement":"51","arrondissement":"514","commune":"51441"},
{"name":"Outrepont","latitude":"48.76722","longitude":"4.68194","population":"105","region":"44","departement":"51","arrondissement":"514","commune":"51420"},
{"name":"Villers-le-Sec","latitude":"48.81361","longitude":"4.85417","population":"99","region":"44","departement":"51","arrondissement":"514","commune":"51635"},
{"name":"Le Buisson","latitude":"48.7611","longitude":"4.751","population":"90","region":"44","departement":"51","arrondissement":"514","commune":"51095"},
{"name":"Bettancourt-la-Longue","latitude":"48.82861","longitude":"4.88833","population":"88","region":"44","departement":"51","arrondissement":"514","commune":"51057"},
{"name":"Vernancourt","latitude":"48.85778","longitude":"4.8225","population":"76","region":"44","departement":"51","arrondissement":"514","commune":"51608"},
{"name":"Contault","latitude":"48.91389","longitude":"4.79278","population":"71","region":"44","departement":"51","arrondissement":"515","commune":"51166"},
{"name":"Vavray-le-Petit","latitude":"48.80556","longitude":"4.71361","population":"66","region":"44","departement":"51","arrondissement":"514","commune":"51602"},
{"name":"Le Fresne","latitude":"48.91111","longitude":"4.64222","population":"63","region":"44","departement":"51","arrondissement":"511","commune":"51260"},
{"name":"Remennecourt","latitude":"48.80167","longitude":"4.91944","population":"61","region":"44","departement":"55","arrondissement":"551","commune":"55424"},
{"name":"Saint-Jean-devant-Possesse","latitude":"48.8718","longitude":"4.7978","population":"47","region":"44","departement":"51","arrondissement":"514","commune":"51489"},
{"name":"Sogny-en-l'Angle","latitude":"48.81222","longitude":"4.80194","population":"42","region":"44","departement":"51","arrondissement":"514","commune":"51539"},
{"name":"Saint-Lumier-la-Populeuse","latitude":"48.72528","longitude":"4.79333","population":"35","region":"44","departement":"51","arrondissement":"514","commune":"51497"}
]