[
{"name":"Pradines","latitude":"44.47889","longitude":"1.40417","population":"3409","region":"76","departement":"46","arrondissement":"461","commune":"46224"},
{"name":"Prayssac","latitude":"44.5041","longitude":"1.1888","population":"2443","region":"76","departement":"46","arrondissement":"461","commune":"46225"},
{"name":"Puy-l'Évêque","latitude":"44.50444","longitude":"1.13833","population":"2159","region":"76","departement":"46","arrondissement":"461","commune":"46231"},
{"name":"Luzech","latitude":"44.47833","longitude":"1.28694","population":"1708","region":"76","departement":"46","arrondissement":"461","commune":"46182"},
{"name":"Labastide-Marnhac","latitude":"44.3889","longitude":"1.4003","population":"1121","region":"76","departement":"46","arrondissement":"461","commune":"46137"},
{"name":"Mercuès","latitude":"44.49722","longitude":"1.38556","population":"1064","region":"76","departement":"46","arrondissement":"461","commune":"46191"},
{"name":"Espère","latitude":"44.5122","longitude":"1.3769","population":"1005","region":"76","departement":"46","arrondissement":"461","commune":"46095"},
{"name":"Duravel","latitude":"44.51639","longitude":"1.07972","population":"957","region":"76","departement":"46","arrondissement":"461","commune":"46089"},
{"name":"Catus","latitude":"44.55639","longitude":"1.33694","population":"923","region":"76","departement":"46","arrondissement":"461","commune":"46064"},
{"name":"Douelle","latitude":"44.46889","longitude":"1.35972","population":"794","region":"76","departement":"46","arrondissement":"461","commune":"46088"},
{"name":"Trespoux-Rassiels","latitude":"44.41389","longitude":"1.37056","population":"746","region":"76","departement":"46","arrondissement":"461","commune":"46322"},
{"name":"Crayssac","latitude":"44.50972","longitude":"1.3275","population":"729","region":"76","departement":"46","arrondissement":"461","commune":"46080"},
{"name":"Caillac","latitude":"44.48694","longitude":"1.35778","population":"581","region":"76","departement":"46","arrondissement":"461","commune":"46044"},
{"name":"Albas","latitude":"44.46833","longitude":"1.23667","population":"511","region":"76","departement":"46","arrondissement":"461","commune":"46001"},
{"name":"Sauzet","latitude":"44.41806","longitude":"1.25528","population":"508","region":"76","departement":"46","arrondissement":"461","commune":"46301"},
{"name":"Saint-Vincent-Rive-d'Olt","latitude":"44.46528","longitude":"1.3","population":"484","region":"76","departement":"46","arrondissement":"461","commune":"46296"},
{"name":"Calamane","latitude":"44.52583","longitude":"1.39083","population":"453","region":"76","departement":"46","arrondissement":"461","commune":"46046"},
{"name":"Castelfranc","latitude":"44.50111","longitude":"1.22278","population":"427","region":"76","departement":"46","arrondissement":"461","commune":"46062"},
{"name":"Frayssinet-le-Gélat","latitude":"44.5825","longitude":"1.16389","population":"396","region":"76","departement":"46","arrondissement":"461","commune":"46114"},
{"name":"Villesèque","latitude":"44.39111","longitude":"1.31806","population":"384","region":"76","departement":"46","arrondissement":"461","commune":"46335"},
{"name":"Parnac","latitude":"44.4897","longitude":"1.3157","population":"382","region":"76","departement":"46","arrondissement":"461","commune":"46214"},
{"name":"Vire-sur-Lot","latitude":"44.4906","longitude":"1.088","population":"372","region":"76","departement":"46","arrondissement":"461","commune":"46336"},
{"name":"Montcabrier","latitude":"44.5419","longitude":"1.0745","population":"367","region":"76","departement":"46","arrondissement":"461","commune":"46199"},
{"name":"Boissières","latitude":"44.5437","longitude":"1.4012","population":"365","region":"76","departement":"46","arrondissement":"461","commune":"46032"},
{"name":"Touzac","latitude":"44.49722","longitude":"1.05528","population":"352","region":"76","departement":"46","arrondissement":"461","commune":"46321"},
{"name":"Anglars-Juillac","latitude":"44.48917","longitude":"1.19917","population":"349","region":"76","departement":"46","arrondissement":"461","commune":"46005"},
{"name":"Nuzéjouls","latitude":"44.53889","longitude":"1.37972","population":"333","region":"76","departement":"46","arrondissement":"461","commune":"46211"},
{"name":"Sérignac","latitude":"44.4339","longitude":"1.1051","population":"303","region":"76","departement":"46","arrondissement":"461","commune":"46305"},
{"name":"Montgesty","latitude":"44.5788","longitude":"1.2977","population":"297","region":"76","departement":"46","arrondissement":"461","commune":"46205"},
{"name":"Les Junies","latitude":"44.53833","longitude":"1.23528","population":"253","region":"76","departement":"46","arrondissement":"461","commune":"46134"},
{"name":"Carnac-Rouffiac","latitude":"44.41389","longitude":"1.23167","population":"247","region":"76","departement":"46","arrondissement":"461","commune":"46060"},
{"name":"Lherm","latitude":"44.5671","longitude":"1.2464","population":"241","region":"76","departement":"46","arrondissement":"461","commune":"46171"},
{"name":"Saint-Pantaléon","latitude":"44.36806","longitude":"1.26583","population":"239","region":"76","departement":"46","arrondissement":"461","commune":"46285"},
{"name":"Labastide-du-Vert","latitude":"44.51167","longitude":"1.26222","population":"230","region":"76","departement":"46","arrondissement":"461","commune":"46136"},
{"name":"Grézels","latitude":"44.475","longitude":"1.1525","population":"229","region":"76","departement":"46","arrondissement":"461","commune":"46130"},
{"name":"Saint-Daunès","latitude":"44.3565","longitude":"1.2311","population":"222","region":"76","departement":"46","arrondissement":"461","commune":"46263"},
{"name":"Goujounac","latitude":"44.57639","longitude":"1.19667","population":"219","region":"76","departement":"46","arrondissement":"461","commune":"46126"},
{"name":"Bélaye","latitude":"44.46528","longitude":"1.19306","population":"216","region":"76","departement":"46","arrondissement":"461","commune":"46022"},
{"name":"Saint-Denis-Catus","latitude":"44.565","longitude":"1.39222","population":"211","region":"76","departement":"46","arrondissement":"461","commune":"46264"},
{"name":"Cassagnes","latitude":"44.55917","longitude":"1.13889","population":"209","region":"76","departement":"46","arrondissement":"461","commune":"46061"},
{"name":"Pomarède","latitude":"44.56472","longitude":"1.17083","population":"194","region":"76","departement":"46","arrondissement":"461","commune":"46222"},
{"name":"Bagat-en-Quercy","latitude":"44.3718","longitude":"1.2428","population":"194","region":"76","departement":"46","arrondissement":"461","commune":"46014"},
{"name":"Le Boulvé","latitude":"44.4195","longitude":"1.1483","population":"186","region":"76","departement":"46","arrondissement":"461","commune":"46033"},
{"name":"Cézac","latitude":"44.33972","longitude":"1.33667","population":"171","region":"76","departement":"46","arrondissement":"461","commune":"46069"},
{"name":"Saint-Médard","latitude":"44.5383","longitude":"1.295","population":"166","region":"76","departement":"46","arrondissement":"461","commune":"46280"},
{"name":"Fargues","latitude":"44.3988","longitude":"1.1825","population":"162","region":"76","departement":"46","arrondissement":"461","commune":"46099"},
{"name":"Pontcirq","latitude":"44.54806","longitude":"1.2625","population":"160","region":"76","departement":"46","arrondissement":"461","commune":"46223"},
{"name":"Lacapelle-Cabanac","latitude":"44.46528","longitude":"1.06917","population":"158","region":"76","departement":"46","arrondissement":"461","commune":"46142"},
{"name":"Floressas","latitude":"44.44389","longitude":"1.12139","population":"151","region":"76","departement":"46","arrondissement":"461","commune":"46107"},
{"name":"Cambayrac","latitude":"44.4275","longitude":"1.285","population":"141","region":"76","departement":"46","arrondissement":"461","commune":"46050"},
{"name":"Lagardelle","latitude":"44.49278","longitude":"1.16944","population":"139","region":"76","departement":"46","arrondissement":"461","commune":"46147"},
{"name":"Pescadoires","latitude":"44.50444","longitude":"1.15722","population":"134","region":"76","departement":"46","arrondissement":"461","commune":"46218"},
{"name":"Saint-Matré","latitude":"44.40056","longitude":"1.11944","population":"123","region":"76","departement":"46","arrondissement":"461","commune":"46278"},
{"name":"Saux","latitude":"44.39","longitude":"1.08528","population":"122","region":"76","departement":"46","arrondissement":"461","commune":"46300"}
]