[
{"name":"Saint-Gaudens","latitude":"43.10806","longitude":"0.72333","population":"11225","region":"76","departement":"31","arrondissement":"312","commune":"31483"},
{"name":"Martres-Tolosane","latitude":"43.19861","longitude":"1.01083","population":"2236","region":"76","departement":"31","arrondissement":"311","commune":"31324"},
{"name":"Salies-du-Salat","latitude":"43.1037","longitude":"0.9593","population":"1998","region":"76","departement":"31","arrondissement":"312","commune":"31523"},
{"name":"Aurignac","latitude":"43.21861","longitude":"0.87944","population":"1187","region":"76","departement":"31","arrondissement":"312","commune":"31028"},
{"name":"Boussens","latitude":"43.17583","longitude":"0.97278","population":"1088","region":"76","departement":"31","arrondissement":"311","commune":"31084"},
{"name":"Mane","latitude":"43.08194","longitude":"0.95167","population":"998","region":"76","departement":"31","arrondissement":"312","commune":"31315"},
{"name":"Landorthe","latitude":"43.13139","longitude":"0.78389","population":"942","region":"76","departement":"31","arrondissement":"312","commune":"31270"},
{"name":"Valentine","latitude":"43.09528","longitude":"0.70472","population":"901","region":"76","departement":"31","arrondissement":"312","commune":"31565"},
{"name":"Saint-Martory","latitude":"43.14278","longitude":"0.92944","population":"881","region":"76","departement":"31","arrondissement":"312","commune":"31503"},
{"name":"Labarthe-Inard","latitude":"43.10756","longitude":"0.83779","population":"860","region":"76","departement":"31","arrondissement":"312","commune":"31246"},
{"name":"Miramont-de-Comminges","latitude":"43.0938","longitude":"0.7478","population":"817","region":"76","departement":"31","arrondissement":"312","commune":"31344"},
{"name":"Pointis-Inard","latitude":"43.08611","longitude":"0.81167","population":"816","region":"76","departement":"31","arrondissement":"312","commune":"31427"},
{"name":"Mondavezan","latitude":"43.23917","longitude":"1.03444","population":"786","region":"76","departement":"31","arrondissement":"311","commune":"31349"},
{"name":"Roquefort-sur-Garonne","latitude":"43.16444","longitude":"0.97389","population":"780","region":"76","departement":"31","arrondissement":"312","commune":"31457"},
{"name":"Cassagne","latitude":"43.12333","longitude":"0.98861","population":"644","region":"76","departement":"31","arrondissement":"312","commune":"31110"},
{"name":"Mazères-sur-Salat","latitude":"43.1334","longitude":"0.9737","population":"604","region":"76","departement":"31","arrondissement":"312","commune":"31336"},
{"name":"Estancarbon","latitude":"43.10444","longitude":"0.78583","population":"551","region":"76","departement":"31","arrondissement":"312","commune":"31175"},
{"name":"Beauchalot","latitude":"43.10722","longitude":"0.86889","population":"500","region":"76","departement":"31","arrondissement":"312","commune":"31050"},
{"name":"Montespan","latitude":"43.085","longitude":"0.85417","population":"440","region":"76","departement":"31","arrondissement":"312","commune":"31372"},
{"name":"Lestelle-de-Saint-Martory","latitude":"43.1208","longitude":"0.9116","population":"424","region":"76","departement":"31","arrondissement":"312","commune":"31296"},
{"name":"Mancioux","latitude":"43.15778","longitude":"0.95139","population":"423","region":"76","departement":"31","arrondissement":"312","commune":"31314"},
{"name":"Cassagnabère-Tournas","latitude":"43.22778","longitude":"0.79083","population":"415","region":"76","departement":"31","arrondissement":"312","commune":"31109"},
{"name":"Montsaunès","latitude":"43.11139","longitude":"0.93667","population":"404","region":"76","departement":"31","arrondissement":"312","commune":"31391"},
{"name":"Saint-Marcet","latitude":"43.19639","longitude":"0.73861","population":"392","region":"76","departement":"31","arrondissement":"312","commune":"31502"},
{"name":"Betchat","latitude":"43.09194","longitude":"1.01222","population":"362","region":"76","departement":"09","arrondissement":"093","commune":"09054"},
{"name":"Aulon","latitude":"43.19139","longitude":"0.81972","population":"356","region":"76","departement":"31","arrondissement":"312","commune":"31023"},
{"name":"Castillon-de-Saint-Martory","latitude":"43.13444","longitude":"0.85917","population":"331","region":"76","departement":"31","arrondissement":"312","commune":"31124"},
{"name":"Latoue","latitude":"43.16889","longitude":"0.78556","population":"316","region":"76","departement":"31","arrondissement":"312","commune":"31278"},
{"name":"Alan","latitude":"43.2297","longitude":"0.9404","population":"304","region":"76","departement":"31","arrondissement":"312","commune":"31005"},
{"name":"Figarol","latitude":"43.085","longitude":"0.89778","population":"278","region":"76","departement":"31","arrondissement":"312","commune":"31183"},
{"name":"Saux-et-Pomarède","latitude":"43.15306","longitude":"0.7175","population":"269","region":"76","departement":"31","arrondissement":"312","commune":"31536"},
{"name":"Touille","latitude":"43.08028","longitude":"0.97361","population":"263","region":"76","departement":"31","arrondissement":"312","commune":"31554"},
{"name":"Ciadoux","latitude":"43.25889","longitude":"0.73722","population":"256","region":"76","departement":"31","arrondissement":"312","commune":"31141"},
{"name":"Péguilhan","latitude":"43.31472","longitude":"0.70722","population":"249","region":"76","departement":"31","arrondissement":"312","commune":"31412"},
{"name":"Escanecrabe","latitude":"43.2729","longitude":"0.7496","population":"239","region":"76","departement":"31","arrondissement":"312","commune":"31170"},
{"name":"Lussan-Adeilhac","latitude":"43.299","longitude":"0.9413","population":"224","region":"76","departement":"31","arrondissement":"311","commune":"31309"},
{"name":"Sana","latitude":"43.22806","longitude":"1.01139","population":"216","region":"76","departement":"31","arrondissement":"311","commune":"31530"},
{"name":"Montbernard","latitude":"43.30111","longitude":"0.77194","population":"212","region":"76","departement":"31","arrondissement":"312","commune":"31363"},
{"name":"Saint-André","latitude":"43.27333","longitude":"0.85222","population":"211","region":"76","departement":"31","arrondissement":"312","commune":"31468"},
{"name":"Fabas","latitude":"43.3143","longitude":"0.8954","population":"210","region":"76","departement":"31","arrondissement":"312","commune":"31178"},
{"name":"Boussan","latitude":"43.2441","longitude":"0.8891","population":"209","region":"76","departement":"31","arrondissement":"312","commune":"31083"},
{"name":"Francon","latitude":"43.26","longitude":"0.97306","population":"209","region":"76","departement":"31","arrondissement":"311","commune":"31196"},
{"name":"Saint-Médard","latitude":"43.12799","longitude":"0.83453","population":"207","region":"76","departement":"31","arrondissement":"312","commune":"31504"},
{"name":"Arnaud-Guilhem","latitude":"43.14278","longitude":"0.89778","population":"207","region":"76","departement":"31","arrondissement":"312","commune":"31018"},
{"name":"Sepx","latitude":"43.15472","longitude":"0.84028","population":"200","region":"76","departement":"31","arrondissement":"312","commune":"31545"},
{"name":"Castelnau-Picampeau","latitude":"43.30639","longitude":"1.01833","population":"191","region":"76","departement":"31","arrondissement":"311","commune":"31119"},
{"name":"Auzas","latitude":"43.16944","longitude":"0.88361","population":"187","region":"76","departement":"31","arrondissement":"312","commune":"31034"},
{"name":"Marignac-Laspeyres","latitude":"43.215","longitude":"0.96528","population":"184","region":"76","departement":"31","arrondissement":"311","commune":"31318"},
{"name":"Larcan","latitude":"43.17556","longitude":"0.72056","population":"179","region":"76","departement":"31","arrondissement":"312","commune":"31274"},
{"name":"Mauran","latitude":"43.18861","longitude":"1.03139","population":"175","region":"76","departement":"31","arrondissement":"311","commune":"31327"},
{"name":"Montoulieu-Saint-Bernard","latitude":"43.23417","longitude":"0.90833","population":"174","region":"76","departement":"31","arrondissement":"312","commune":"31386"},
{"name":"Benque","latitude":"43.26028","longitude":"0.91972","population":"160","region":"76","departement":"31","arrondissement":"312","commune":"31063"},
{"name":"Saman","latitude":"43.23694","longitude":"0.72","population":"154","region":"76","departement":"31","arrondissement":"312","commune":"31528"},
{"name":"Savarthès","latitude":"43.12056","longitude":"0.80611","population":"145","region":"76","departement":"31","arrondissement":"312","commune":"31537"},
{"name":"Terrebasse","latitude":"43.2387","longitude":"0.9647","population":"144","region":"76","departement":"31","arrondissement":"312","commune":"31552"},
{"name":"Marsoulas","latitude":"43.10583","longitude":"0.99861","population":"136","region":"76","departement":"31","arrondissement":"312","commune":"31321"},
{"name":"Lalouret-Laffiteau","latitude":"43.1847","longitude":"0.7046","population":"134","region":"76","departement":"31","arrondissement":"312","commune":"31268"},
{"name":"Lilhac","latitude":"43.285","longitude":"0.80917","population":"134","region":"76","departement":"31","arrondissement":"312","commune":"31301"},
{"name":"Saint-Lary-Boujean","latitude":"43.22889","longitude":"0.73583","population":"125","region":"76","departement":"31","arrondissement":"312","commune":"31493"},
{"name":"Samouillan","latitude":"43.26361","longitude":"0.94528","population":"123","region":"76","departement":"31","arrondissement":"312","commune":"31529"},
{"name":"Lieoux","latitude":"43.155","longitude":"0.76944","population":"120","region":"76","departement":"31","arrondissement":"312","commune":"31300"},
{"name":"Montoussin","latitude":"43.27556","longitude":"1.01111","population":"119","region":"76","departement":"31","arrondissement":"311","commune":"31387"},
{"name":"Montégut-Bourjac","latitude":"43.28139","longitude":"0.99","population":"116","region":"76","departement":"31","arrondissement":"311","commune":"31370"},
{"name":"Eoux","latitude":"43.2725","longitude":"0.88639","population":"116","region":"76","departement":"31","arrondissement":"312","commune":"31168"},
{"name":"Le Fréchet","latitude":"43.18778","longitude":"0.93806","population":"115","region":"76","departement":"31","arrondissement":"312","commune":"31198"},
{"name":"Belbèze-en-Comminges","latitude":"43.13278","longitude":"1.02639","population":"106","region":"76","departement":"31","arrondissement":"312","commune":"31059"},
{"name":"Peyrissas","latitude":"43.28583","longitude":"0.90944","population":"99","region":"76","departement":"31","arrondissement":"312","commune":"31414"},
{"name":"Peyrouzet","latitude":"43.20139","longitude":"0.83111","population":"93","region":"76","departement":"31","arrondissement":"312","commune":"31415"},
{"name":"Mondilhan","latitude":"43.2936","longitude":"0.7091","population":"91","region":"76","departement":"31","arrondissement":"312","commune":"31350"},
{"name":"Laffite-Toupière","latitude":"43.1649","longitude":"0.9062","population":"86","region":"76","departement":"31","arrondissement":"312","commune":"31260"},
{"name":"Bouzin","latitude":"43.19167","longitude":"0.88444","population":"82","region":"76","departement":"31","arrondissement":"312","commune":"31086"},
{"name":"Escoulis","latitude":"43.1118","longitude":"1.0313","population":"80","region":"76","departement":"31","arrondissement":"312","commune":"31591"},
{"name":"Montgaillard-sur-Save","latitude":"43.25389","longitude":"0.72917","population":"78","region":"76","departement":"31","arrondissement":"312","commune":"31378"},
{"name":"Fustignac","latitude":"43.29861","longitude":"0.98278","population":"75","region":"76","departement":"31","arrondissement":"311","commune":"31204"},
{"name":"Montclar-de-Comminges","latitude":"43.1775","longitude":"1.0223","population":"75","region":"76","departement":"31","arrondissement":"311","commune":"31367"},
{"name":"Ausseing","latitude":"43.15222","longitude":"1.01778","population":"70","region":"76","departement":"31","arrondissement":"312","commune":"31030"},
{"name":"Proupiary","latitude":"43.1604","longitude":"0.863","population":"69","region":"76","departement":"31","arrondissement":"312","commune":"31440"},
{"name":"Castéra-Vignoles","latitude":"43.27389","longitude":"0.77889","population":"66","region":"76","departement":"31","arrondissement":"312","commune":"31121"},
{"name":"Cazeneuve-Montaut","latitude":"43.18278","longitude":"0.85778","population":"63","region":"76","departement":"31","arrondissement":"312","commune":"31134"},
{"name":"Bachas","latitude":"43.24444","longitude":"0.93806","population":"62","region":"76","departement":"31","arrondissement":"312","commune":"31039"},
{"name":"Polastron","latitude":"43.3233","longitude":"0.9575","population":"58","region":"76","departement":"31","arrondissement":"311","commune":"31428"},
{"name":"Esparron","latitude":"43.26472","longitude":"0.80583","population":"56","region":"76","departement":"31","arrondissement":"312","commune":"31172"},
{"name":"Salerm","latitude":"43.30194","longitude":"0.81639","population":"55","region":"76","departement":"31","arrondissement":"312","commune":"31522"},
{"name":"Lescuns","latitude":"43.24527","longitude":"1.00464","population":"54","region":"76","departement":"31","arrondissement":"311","commune":"31292"},
{"name":"Rieucazé","latitude":"43.07667","longitude":"0.75833","population":"46","region":"76","departement":"31","arrondissement":"312","commune":"31452"},
{"name":"Saint-Élix-Séglan","latitude":"43.19556","longitude":"0.85417","population":"42","region":"76","departement":"31","arrondissement":"312","commune":"31477"}
]