[
{"name":"Champagnole","latitude":"46.74722","longitude":"5.90722","population":"8088","region":"27","departement":"39","arrondissement":"392","commune":"39097"},
{"name":"Saint-Laurent-en-Grandvaux","latitude":"46.5759","longitude":"5.957","population":"1779","region":"27","departement":"39","arrondissement":"393","commune":"39487"},
{"name":"Clairvaux-les-Lacs","latitude":"46.575","longitude":"5.74917","population":"1454","region":"27","departement":"39","arrondissement":"392","commune":"39154"},
{"name":"Cize","latitude":"46.73167","longitude":"5.91","population":"820","region":"27","departement":"39","arrondissement":"392","commune":"39153"},
{"name":"Crotenay","latitude":"46.75222","longitude":"5.81361","population":"663","region":"27","departement":"39","arrondissement":"392","commune":"39183"},
{"name":"Pont-de-Poitte","latitude":"46.58361","longitude":"5.695","population":"650","region":"27","departement":"39","arrondissement":"392","commune":"39435"},
{"name":"Équevillon","latitude":"46.75917","longitude":"5.93806","population":"618","region":"27","departement":"39","arrondissement":"392","commune":"39210"},
{"name":"Ney","latitude":"46.73583","longitude":"5.88667","population":"571","region":"27","departement":"39","arrondissement":"392","commune":"39389"},
{"name":"La Chaux-du-Dombief","latitude":"46.6025","longitude":"5.90111","population":"528","region":"27","departement":"39","arrondissement":"393","commune":"39131"},
{"name":"Hauteroche","latitude":"46.68611","longitude":"5.66","population":"525","region":"27","departement":"39","arrondissement":"392","commune":"39177"},
{"name":"Montrond","latitude":"46.79778","longitude":"5.83222","population":"481","region":"27","departement":"39","arrondissement":"392","commune":"39364"},
{"name":"Chaux-des-Crotenay","latitude":"46.6575","longitude":"5.96722","population":"412","region":"27","departement":"39","arrondissement":"392","commune":"39129"},
{"name":"Saint-Germain-en-Montagne","latitude":"46.77722","longitude":"5.93972","population":"411","region":"27","departement":"39","arrondissement":"392","commune":"39481"},
{"name":"Monnet-la-Ville","latitude":"46.72","longitude":"5.79611","population":"372","region":"27","departement":"39","arrondissement":"392","commune":"39344"},
{"name":"La Chaumusse","latitude":"46.59361","longitude":"5.95611","population":"358","region":"27","departement":"39","arrondissement":"393","commune":"39126"},
{"name":"Sapois","latitude":"46.75028","longitude":"5.94306","population":"337","region":"27","departement":"39","arrondissement":"392","commune":"39503"},
{"name":"La Marre","latitude":"46.73472","longitude":"5.69889","population":"333","region":"27","departement":"39","arrondissement":"392","commune":"39317"},
{"name":"Saint-Pierre","latitude":"46.56806","longitude":"5.91889","population":"321","region":"27","departement":"39","arrondissement":"393","commune":"39494"},
{"name":"Poids-de-Fiole","latitude":"46.59583","longitude":"5.63","population":"302","region":"27","departement":"39","arrondissement":"392","commune":"39431"},
{"name":"Doucier","latitude":"46.65472","longitude":"5.77889","population":"296","region":"27","departement":"39","arrondissement":"392","commune":"39201"},
{"name":"Publy","latitude":"46.6325","longitude":"5.6425","population":"284","region":"27","departement":"39","arrondissement":"392","commune":"39445"},
{"name":"Cogna","latitude":"46.58083","longitude":"5.75778","population":"256","region":"27","departement":"39","arrondissement":"392","commune":"39156"},
{"name":"Bonlieu","latitude":"46.60111","longitude":"5.85361","population":"253","region":"27","departement":"39","arrondissement":"393","commune":"39063"},
{"name":"Vevy","latitude":"46.665","longitude":"5.64944","population":"243","region":"27","departement":"39","arrondissement":"392","commune":"39558"},
{"name":"Pont-du-Navoy","latitude":"46.72417","longitude":"5.77778","population":"243","region":"27","departement":"39","arrondissement":"392","commune":"39437"},
{"name":"Nogna","latitude":"46.59917","longitude":"5.64278","population":"238","region":"27","departement":"39","arrondissement":"392","commune":"39390"},
{"name":"Nevy-sur-Seille","latitude":"46.74167","longitude":"5.63028","population":"235","region":"27","departement":"39","arrondissement":"392","commune":"39388"},
{"name":"Vannoz","latitude":"46.77278","longitude":"5.91694","population":"226","region":"27","departement":"39","arrondissement":"392","commune":"39543"},
{"name":"Mont-sur-Monnet","latitude":"46.70889","longitude":"5.83694","population":"210","region":"27","departement":"39","arrondissement":"392","commune":"39366"},
{"name":"Saint-Maurice-Crillat","latitude":"46.5696","longitude":"5.8328","population":"202","region":"27","departement":"39","arrondissement":"393","commune":"39493"},
{"name":"Mesnois","latitude":"46.60111","longitude":"5.68972","population":"202","region":"27","departement":"39","arrondissement":"392","commune":"39326"},
{"name":"Syam","latitude":"46.7","longitude":"5.95","population":"197","region":"27","departement":"39","arrondissement":"392","commune":"39523"},
{"name":"Montigny-sur-l'Ain","latitude":"46.71","longitude":"5.78528","population":"196","region":"27","departement":"39","arrondissement":"392","commune":"39356"},
{"name":"Le Fied","latitude":"46.77056","longitude":"5.71667","population":"196","region":"27","departement":"39","arrondissement":"392","commune":"39225"},
{"name":"Baume-les-Messieurs","latitude":"46.70778","longitude":"5.64833","population":"194","region":"27","departement":"39","arrondissement":"392","commune":"39041"},
{"name":"Marigny","latitude":"46.68194","longitude":"5.78333","population":"177","region":"27","departement":"39","arrondissement":"392","commune":"39313"},
{"name":"Verges","latitude":"46.65333","longitude":"5.68278","population":"174","region":"27","departement":"39","arrondissement":"392","commune":"39550"},
{"name":"Hautecour","latitude":"46.56833","longitude":"5.76556","population":"172","region":"27","departement":"39","arrondissement":"392","commune":"39265"},
{"name":"Loulle","latitude":"46.70833","longitude":"5.88194","population":"171","region":"27","departement":"39","arrondissement":"392","commune":"39301"},
{"name":"Château-Chalon","latitude":"46.75472","longitude":"5.62611","population":"170","region":"27","departement":"39","arrondissement":"392","commune":"39114"},
{"name":"Besain","latitude":"46.78556","longitude":"5.79389","population":"162","region":"27","departement":"39","arrondissement":"392","commune":"39050"},
{"name":"Le Vaudioux","latitude":"46.69306","longitude":"5.92417","population":"161","region":"27","departement":"39","arrondissement":"392","commune":"39545"},
{"name":"Entre-deux-Monts","latitude":"46.64278","longitude":"5.97083","population":"160","region":"27","departement":"39","arrondissement":"392","commune":"39208"},
{"name":"Le Frasnois","latitude":"46.63556","longitude":"5.8975","population":"154","region":"27","departement":"39","arrondissement":"392","commune":"39240"},
{"name":"Charézier","latitude":"46.61083","longitude":"5.7275","population":"153","region":"27","departement":"39","arrondissement":"392","commune":"39109"},
{"name":"Blye","latitude":"46.62222","longitude":"5.70361","population":"146","region":"27","departement":"39","arrondissement":"392","commune":"39058"},
{"name":"Boissia","latitude":"46.5921","longitude":"5.7356","population":"140","region":"27","departement":"39","arrondissement":"392","commune":"39061"},
{"name":"Patornay","latitude":"46.58639","longitude":"5.70417","population":"138","region":"27","departement":"39","arrondissement":"392","commune":"39408"},
{"name":"Châtelneuf","latitude":"46.675","longitude":"5.91667","population":"138","region":"27","departement":"39","arrondissement":"392","commune":"39120"},
{"name":"Ardon","latitude":"46.77389","longitude":"5.88806","population":"131","region":"27","departement":"39","arrondissement":"392","commune":"39015"},
{"name":"Châtillon","latitude":"46.65861","longitude":"5.73028","population":"131","region":"27","departement":"39","arrondissement":"392","commune":"39122"},
{"name":"Charcier","latitude":"46.62722","longitude":"5.75083","population":"121","region":"27","departement":"39","arrondissement":"392","commune":"39107"},
{"name":"Saffloz","latitude":"46.66917","longitude":"5.84806","population":"105","region":"27","departement":"39","arrondissement":"392","commune":"39473"},
{"name":"Blois-sur-Seille","latitude":"46.74917","longitude":"5.67028","population":"98","region":"27","departement":"39","arrondissement":"392","commune":"39057"},
{"name":"Bourg-de-Sirod","latitude":"46.7289","longitude":"5.9579","population":"98","region":"27","departement":"39","arrondissement":"392","commune":"39070"},
{"name":"Bonnefontaine","latitude":"46.72833","longitude":"5.74694","population":"97","region":"27","departement":"39","arrondissement":"392","commune":"39065"},
{"name":"Vertamboz","latitude":"46.59583","longitude":"5.74139","population":"95","region":"27","departement":"39","arrondissement":"392","commune":"39556"},
{"name":"Marnézia","latitude":"46.57472","longitude":"5.64056","population":"90","region":"27","departement":"39","arrondissement":"392","commune":"39314"},
{"name":"Les Nans","latitude":"46.79083","longitude":"5.97444","population":"89","region":"27","departement":"39","arrondissement":"392","commune":"39381"},
{"name":"Picarreau","latitude":"46.75389","longitude":"5.745","population":"86","region":"27","departement":"39","arrondissement":"392","commune":"39418"},
{"name":"Denezières","latitude":"46.61056","longitude":"5.80778","population":"83","region":"27","departement":"39","arrondissement":"393","commune":"39192"},
{"name":"Fay-en-Montagne","latitude":"46.75194","longitude":"5.72528","population":"73","region":"27","departement":"39","arrondissement":"392","commune":"39222"},
{"name":"Songeson","latitude":"46.65083","longitude":"5.82028","population":"72","region":"27","departement":"39","arrondissement":"392","commune":"39518"},
{"name":"Crans","latitude":"46.70444","longitude":"5.9725","population":"69","region":"27","departement":"39","arrondissement":"392","commune":"39178"},
{"name":"Pillemoine","latitude":"46.70028","longitude":"5.90694","population":"62","region":"27","departement":"39","arrondissement":"392","commune":"39419"},
{"name":"Ladoye-sur-Seille","latitude":"46.76167","longitude":"5.68361","population":"62","region":"27","departement":"39","arrondissement":"392","commune":"39272"},
{"name":"Fontenu","latitude":"46.66806","longitude":"5.82222","population":"61","region":"27","departement":"39","arrondissement":"392","commune":"39230"},
{"name":"Moutoux","latitude":"46.79111","longitude":"5.94","population":"57","region":"27","departement":"39","arrondissement":"392","commune":"39376"},
{"name":"Saugeot","latitude":"46.60056","longitude":"5.82833","population":"55","region":"27","departement":"39","arrondissement":"393","commune":"39505"},
{"name":"Menétrux-en-Joux","latitude":"46.62417","longitude":"5.82861","population":"52","region":"27","departement":"39","arrondissement":"392","commune":"39322"},
{"name":"Uxelles","latitude":"46.60278","longitude":"5.79139","population":"49","region":"27","departement":"39","arrondissement":"392","commune":"39538"},
{"name":"Chevrotaine","latitude":"46.65694","longitude":"5.85278","population":"36","region":"27","departement":"39","arrondissement":"392","commune":"39143"}
]