[
{"name":"Charolles","latitude":"46.43444","longitude":"4.27528","population":"2807","region":"27","departement":"71","arrondissement":"713","commune":"71106"},
{"name":"Palinges","latitude":"46.55417","longitude":"4.21972","population":"1512","region":"27","departement":"71","arrondissement":"713","commune":"71340"},
{"name":"Dompierre-les-Ormes","latitude":"46.3617","longitude":"4.4819","population":"922","region":"27","departement":"71","arrondissement":"715","commune":"71178"},
{"name":"Saint-Bonnet-de-Joux","latitude":"46.4825","longitude":"4.43944","population":"799","region":"27","departement":"71","arrondissement":"713","commune":"71394"},
{"name":"Vendenesse-lès-Charolles","latitude":"46.44194","longitude":"4.3375","population":"790","region":"27","departement":"71","arrondissement":"713","commune":"71564"},
{"name":"Gibles","latitude":"46.32444","longitude":"4.37889","population":"633","region":"27","departement":"71","arrondissement":"713","commune":"71218"},
{"name":"La Guiche","latitude":"46.54472","longitude":"4.45111","population":"626","region":"27","departement":"71","arrondissement":"713","commune":"71231"},
{"name":"Saint-Julien-de-Civry","latitude":"46.36556","longitude":"4.23278","population":"502","region":"27","departement":"71","arrondissement":"713","commune":"71433"},
{"name":"Verosvres","latitude":"46.40056","longitude":"4.44306","population":"439","region":"27","departement":"71","arrondissement":"713","commune":"71571"},
{"name":"Changy","latitude":"46.40222","longitude":"4.25222","population":"438","region":"27","departement":"71","arrondissement":"713","commune":"71086"},
{"name":"Ozolles","latitude":"46.38194","longitude":"4.35028","population":"434","region":"27","departement":"71","arrondissement":"713","commune":"71339"},
{"name":"Martigny-le-Comte","latitude":"46.52889","longitude":"4.33306","population":"426","region":"27","departement":"71","arrondissement":"713","commune":"71285"},
{"name":"Saint-Symphorien-des-Bois","latitude":"46.33333","longitude":"4.28333","population":"411","region":"27","departement":"71","arrondissement":"713","commune":"71483"},
{"name":"Trambly","latitude":"46.3275","longitude":"4.5341","population":"400","region":"27","departement":"71","arrondissement":"715","commune":"71546"},
{"name":"Beaubery","latitude":"46.40306","longitude":"4.39806","population":"365","region":"27","departement":"71","arrondissement":"713","commune":"71025"},
{"name":"Dyo","latitude":"46.36","longitude":"4.27639","population":"342","region":"27","departement":"71","arrondissement":"713","commune":"71185"},
{"name":"Montmelard","latitude":"46.33028","longitude":"4.41028","population":"315","region":"27","departement":"71","arrondissement":"715","commune":"71316"},
{"name":"Colombier-en-Brionnais","latitude":"46.35611","longitude":"4.33389","population":"302","region":"27","departement":"71","arrondissement":"713","commune":"71141"},
{"name":"Brandon","latitude":"46.36833","longitude":"4.5675","population":"294","region":"27","departement":"71","arrondissement":"715","commune":"71055"},
{"name":"Suin","latitude":"46.43361","longitude":"4.47028","population":"286","region":"27","departement":"71","arrondissement":"713","commune":"71529"},
{"name":"Baron","latitude":"46.49278","longitude":"4.27861","population":"283","region":"27","departement":"71","arrondissement":"713","commune":"71021"},
{"name":"Trivy","latitude":"46.38639","longitude":"4.49222","population":"278","region":"27","departement":"71","arrondissement":"715","commune":"71547"},
{"name":"Buffières","latitude":"46.43","longitude":"4.53861","population":"263","region":"27","departement":"71","arrondissement":"715","commune":"71065"},
{"name":"Saint-André-le-Désert","latitude":"46.49444","longitude":"4.53111","population":"261","region":"27","departement":"71","arrondissement":"715","commune":"71387"},
{"name":"Viry","latitude":"46.4724","longitude":"4.3343","population":"246","region":"27","departement":"71","arrondissement":"713","commune":"71586"},
{"name":"Bergesserin","latitude":"46.40167","longitude":"4.56139","population":"238","region":"27","departement":"71","arrondissement":"715","commune":"71030"},
{"name":"Champlecy","latitude":"46.46972","longitude":"4.24389","population":"237","region":"27","departement":"71","arrondissement":"713","commune":"71082"},
{"name":"Vaudebarrier","latitude":"46.41361","longitude":"4.31","population":"232","region":"27","departement":"71","arrondissement":"713","commune":"71562"},
{"name":"Bois-Sainte-Marie","latitude":"46.3293","longitude":"4.3559","population":"197","region":"27","departement":"71","arrondissement":"713","commune":"71041"},
{"name":"Saint-Bonnet-de-Vieille-Vigne","latitude":"46.52556","longitude":"4.25806","population":"193","region":"27","departement":"71","arrondissement":"713","commune":"71395"},
{"name":"Amanzé","latitude":"46.33194","longitude":"4.24139","population":"187","region":"27","departement":"71","arrondissement":"713","commune":"71006"},
{"name":"Donzy-le-National","latitude":"46.45361","longitude":"4.56583","population":"186","region":"27","departement":"71","arrondissement":"715","commune":"71180"},
{"name":"Saint-Germain-en-Brionnais","latitude":"46.34889","longitude":"4.25611","population":"183","region":"27","departement":"71","arrondissement":"713","commune":"71421"},
{"name":"Sivignon","latitude":"46.42667","longitude":"4.49944","population":"173","region":"27","departement":"71","arrondissement":"713","commune":"71524"},
{"name":"La Chapelle-du-Mont-de-France","latitude":"46.38194","longitude":"4.53583","population":"171","region":"27","departement":"71","arrondissement":"715","commune":"71091"},
{"name":"Marcilly-la-Gueurce","latitude":"46.40111","longitude":"4.29972","population":"128","region":"27","departement":"71","arrondissement":"713","commune":"71276"},
{"name":"Mornay","latitude":"46.50639","longitude":"4.37833","population":"125","region":"27","departement":"71","arrondissement":"713","commune":"71323"},
{"name":"Saint-Vincent-des-Prés","latitude":"46.47444","longitude":"4.5625","population":"117","region":"27","departement":"71","arrondissement":"715","commune":"71488"},
{"name":"Saint-Martin-de-Salencey","latitude":"46.52222","longitude":"4.50306","population":"99","region":"27","departement":"71","arrondissement":"713","commune":"71452"},
{"name":"Pressy-sous-Dondin","latitude":"46.475","longitude":"4.51083","population":"98","region":"27","departement":"71","arrondissement":"713","commune":"71358"},
{"name":"Montagny-sur-Grosne","latitude":"46.35583","longitude":"4.55","population":"88","region":"27","departement":"71","arrondissement":"715","commune":"71304"},
{"name":"Grandvaux","latitude":"46.5102","longitude":"4.2641","population":"82","region":"27","departement":"71","arrondissement":"713","commune":"71224"},
{"name":"Ballore","latitude":"46.535","longitude":"4.36833","population":"82","region":"27","departement":"71","arrondissement":"713","commune":"71017"},
{"name":"Sailly","latitude":"46.53611","longitude":"4.56639","population":"77","region":"27","departement":"71","arrondissement":"715","commune":"71381"},
{"name":"Chiddes","latitude":"46.45694","longitude":"4.51444","population":"76","region":"27","departement":"71","arrondissement":"713","commune":"71128"},
{"name":"Chevagny-sur-Guye","latitude":"46.53889","longitude":"4.5075","population":"75","region":"27","departement":"71","arrondissement":"713","commune":"71127"},
{"name":"Curtil-sous-Buffières","latitude":"46.40111","longitude":"4.52583","population":"73","region":"27","departement":"71","arrondissement":"715","commune":"71163"},
{"name":"Ouroux-sous-le-Bois-Sainte-Marie","latitude":"46.35917","longitude":"4.31083","population":"70","region":"27","departement":"71","arrondissement":"713","commune":"71335"},
{"name":"Prizy","latitude":"46.35611","longitude":"4.22139","population":"66","region":"27","departement":"71","arrondissement":"713","commune":"71361"},
{"name":"Passy","latitude":"46.54111","longitude":"4.535","population":"64","region":"27","departement":"71","arrondissement":"715","commune":"71344"},
{"name":"Fontenay","latitude":"46.47528","longitude":"4.29806","population":"44","region":"27","departement":"71","arrondissement":"713","commune":"71203"}
]