[
{"name":"Thonon-les-Bains","latitude":"46.37056","longitude":"6.47972","population":"33516","region":"84","departement":"74","arrondissement":"744","commune":"74281"},
{"name":"Évian-les-Bains","latitude":"46.4004","longitude":"6.5906","population":"8139","region":"84","departement":"74","arrondissement":"744","commune":"74119"},
{"name":"Publier","latitude":"46.38778","longitude":"6.54417","population":"6191","region":"84","departement":"74","arrondissement":"744","commune":"74218"},
{"name":"Sciez","latitude":"46.33194","longitude":"6.37389","population":"5269","region":"84","departement":"74","arrondissement":"744","commune":"74263"},
{"name":"Allinges","latitude":"46.335","longitude":"6.46333","population":"3872","region":"84","departement":"74","arrondissement":"744","commune":"74005"},
{"name":"Neuvecelle","latitude":"46.39537","longitude":"6.61368","population":"2563","region":"84","departement":"74","arrondissement":"744","commune":"74200"},
{"name":"Lugrin","latitude":"46.4025","longitude":"6.66528","population":"2260","region":"84","departement":"74","arrondissement":"744","commune":"74154"},
{"name":"Saint-Paul-en-Chablais","latitude":"46.37861","longitude":"6.63028","population":"2142","region":"84","departement":"74","arrondissement":"744","commune":"74249"},
{"name":"Anthy-sur-Léman","latitude":"46.3554","longitude":"6.4277","population":"1966","region":"84","departement":"74","arrondissement":"744","commune":"74013"},
{"name":"Margencel","latitude":"46.33806","longitude":"6.43222","population":"1758","region":"84","departement":"74","arrondissement":"744","commune":"74163"},
{"name":"Marin","latitude":"46.37639","longitude":"6.52917","population":"1542","region":"84","departement":"74","arrondissement":"744","commune":"74166"},
{"name":"Lyaud","latitude":"46.33722","longitude":"6.52194","population":"1476","region":"84","departement":"74","arrondissement":"744","commune":"74157"},
{"name":"Massongy","latitude":"46.31667","longitude":"6.33333","population":"1347","region":"84","departement":"74","arrondissement":"744","commune":"74171"},
{"name":"Féternes","latitude":"46.35333","longitude":"6.56306","population":"1304","region":"84","departement":"74","arrondissement":"744","commune":"74127"},
{"name":"Maxilly-sur-Léman","latitude":"46.39944","longitude":"6.63306","population":"1254","region":"84","departement":"74","arrondissement":"744","commune":"74172"},
{"name":"Bernex","latitude":"46.36139","longitude":"6.675","population":"1236","region":"84","departement":"74","arrondissement":"744","commune":"74033"},
{"name":"Larringes","latitude":"46.36861","longitude":"6.57278","population":"1231","region":"84","departement":"74","arrondissement":"744","commune":"74146"},
{"name":"Armoy","latitude":"46.34833","longitude":"6.52","population":"1173","region":"84","departement":"74","arrondissement":"744","commune":"74020"},
{"name":"Excenevex","latitude":"46.35361","longitude":"6.35389","population":"988","region":"84","departement":"74","arrondissement":"744","commune":"74121"},
{"name":"Champanges","latitude":"46.37111","longitude":"6.55306","population":"853","region":"84","departement":"74","arrondissement":"744","commune":"74057"},
{"name":"Vacheresse","latitude":"46.32444","longitude":"6.67361","population":"772","region":"84","departement":"74","arrondissement":"744","commune":"74286"},
{"name":"Vinzier","latitude":"46.35","longitude":"6.61917","population":"769","region":"84","departement":"74","arrondissement":"744","commune":"74308"},
{"name":"Chevenoz","latitude":"46.33972","longitude":"6.63861","population":"554","region":"84","departement":"74","arrondissement":"744","commune":"74073"},
{"name":"Reyvroz","latitude":"46.32583","longitude":"6.56","population":"472","region":"84","departement":"74","arrondissement":"744","commune":"74222"},
{"name":"La Forclaz","latitude":"46.32194","longitude":"6.61361","population":"215","region":"84","departement":"74","arrondissement":"744","commune":"74129"}
]