[
{"name":"Fismes","latitude":"49.30722","longitude":"3.68056","population":"5377","region":"44","departement":"51","arrondissement":"513","commune":"51250"},
{"name":"Fère-en-Tardenois","latitude":"49.2","longitude":"3.51667","population":"3311","region":"32","departement":"02","arrondissement":"021","commune":"02305"},
{"name":"Braine","latitude":"49.34167","longitude":"3.53194","population":"2127","region":"32","departement":"02","arrondissement":"024","commune":"02110"},
{"name":"Jonchery-sur-Vesle","latitude":"49.28639","longitude":"3.81472","population":"1977","region":"44","departement":"51","arrondissement":"513","commune":"51308"},
{"name":"Mont-Notre-Dame","latitude":"49.29361","longitude":"3.58361","population":"663","region":"32","departement":"02","arrondissement":"024","commune":"02520"},
{"name":"Crugny","latitude":"49.25417","longitude":"3.73889","population":"600","region":"44","departement":"51","arrondissement":"513","commune":"51198"},
{"name":"Prouilly","latitude":"49.3","longitude":"3.85","population":"575","region":"44","departement":"51","arrondissement":"513","commune":"51448"},
{"name":"Ville-en-Tardenois","latitude":"49.18111","longitude":"3.79972","population":"565","region":"44","departement":"51","arrondissement":"513","commune":"51624"},
{"name":"Faverolles-et-Coëmy","latitude":"49.235","longitude":"3.79278","population":"515","region":"44","departement":"51","arrondissement":"513","commune":"51245"},
{"name":"Villers-sur-Fère","latitude":"49.18167","longitude":"3.53361","population":"480","region":"32","departement":"02","arrondissement":"021","commune":"02816"},
{"name":"Les Septvallons","latitude":"49.3596","longitude":"3.653","population":"479","region":"32","departement":"02","arrondissement":"024","commune":"02439"},
{"name":"Montigny-sur-Vesle","latitude":"49.31278","longitude":"3.80139","population":"467","region":"44","departement":"51","arrondissement":"513","commune":"51379"},
{"name":"Courville","latitude":"49.26778","longitude":"3.69722","population":"466","region":"44","departement":"51","arrondissement":"513","commune":"51194"},
{"name":"Bazoches-sur-Vesles","latitude":"49.3074","longitude":"3.6197","population":"450","region":"32","departement":"02","arrondissement":"024","commune":"02054"},
{"name":"Coulonges-Cohan","latitude":"49.2012","longitude":"3.6368","population":"428","region":"32","departement":"02","arrondissement":"021","commune":"02220"},
{"name":"Maizy","latitude":"49.37694","longitude":"3.73417","population":"417","region":"32","departement":"02","arrondissement":"022","commune":"02453"},
{"name":"Roucy","latitude":"49.37194","longitude":"3.81528","population":"411","region":"32","departement":"02","arrondissement":"022","commune":"02656"},
{"name":"Chaumuzy","latitude":"49.17528","longitude":"3.86417","population":"338","region":"44","departement":"51","arrondissement":"513","commune":"51140"},
{"name":"Courcelles-sur-Vesle","latitude":"49.338","longitude":"3.5729","population":"337","region":"32","departement":"02","arrondissement":"024","commune":"02224"},
{"name":"Chéry-Chartreuve","latitude":"49.26278","longitude":"3.61361","population":"335","region":"32","departement":"02","arrondissement":"024","commune":"02179"},
{"name":"Breuil","latitude":"49.311","longitude":"3.7673","population":"318","region":"44","departement":"51","arrondissement":"513","commune":"51086"},
{"name":"Romain","latitude":"49.33028","longitude":"3.77056","population":"317","region":"44","departement":"51","arrondissement":"513","commune":"51464"},
{"name":"Courcelles-Sapicourt","latitude":"49.26167","longitude":"3.84417","population":"315","region":"44","departement":"51","arrondissement":"513","commune":"51181"},
{"name":"Baslieux-lès-Fismes","latitude":"49.32472","longitude":"3.71361","population":"296","region":"44","departement":"51","arrondissement":"513","commune":"51037"},
{"name":"Rosnay","latitude":"49.25361","longitude":"3.86083","population":"290","region":"44","departement":"51","arrondissement":"513","commune":"51468"},
{"name":"Seringes-et-Nesles","latitude":"49.20528","longitude":"3.54083","population":"290","region":"32","departement":"02","arrondissement":"021","commune":"02713"},
{"name":"Courlandon","latitude":"49.31361","longitude":"3.735","population":"287","region":"44","departement":"51","arrondissement":"513","commune":"51187"},
{"name":"Paars","latitude":"49.32833","longitude":"3.60056","population":"273","region":"32","departement":"02","arrondissement":"024","commune":"02581"},
{"name":"Arcis-le-Ponsart","latitude":"49.235","longitude":"3.69361","population":"270","region":"44","departement":"51","arrondissement":"513","commune":"51014"},
{"name":"Saint-Gilles","latitude":"49.28","longitude":"3.67583","population":"263","region":"44","departement":"51","arrondissement":"513","commune":"51484"},
{"name":"Savigny-sur-Ardres","latitude":"49.2444","longitude":"3.7817","population":"262","region":"44","departement":"51","arrondissement":"513","commune":"51527"},
{"name":"Concevreux","latitude":"49.37667","longitude":"3.78917","population":"262","region":"32","departement":"02","arrondissement":"022","commune":"02208"},
{"name":"Ventelay","latitude":"49.34111","longitude":"3.79861","population":"260","region":"44","departement":"51","arrondissement":"513","commune":"51604"},
{"name":"Magneux","latitude":"49.3065","longitude":"3.7214","population":"252","region":"44","departement":"51","arrondissement":"513","commune":"51337"},
{"name":"Sarcy","latitude":"49.20694","longitude":"3.82472","population":"252","region":"44","departement":"51","arrondissement":"513","commune":"51523"},
{"name":"Branscourt","latitude":"49.27","longitude":"3.82139","population":"245","region":"44","departement":"51","arrondissement":"513","commune":"51081"},
{"name":"Mareuil-en-Dôle","latitude":"49.24083","longitude":"3.55667","population":"235","region":"32","departement":"02","arrondissement":"021","commune":"02462"},
{"name":"Guyencourt","latitude":"49.35722","longitude":"3.83694","population":"230","region":"32","departement":"02","arrondissement":"022","commune":"02364"},
{"name":"Pévy","latitude":"49.31056","longitude":"3.84333","population":"199","region":"44","departement":"51","arrondissement":"513","commune":"51429"},
{"name":"Romigny","latitude":"49.1725","longitude":"3.76889","population":"199","region":"44","departement":"51","arrondissement":"513","commune":"51466"},
{"name":"Vandeuil","latitude":"49.27972","longitude":"3.7925","population":"198","region":"44","departement":"51","arrondissement":"513","commune":"51591"},
{"name":"Brenelle","latitude":"49.36583","longitude":"3.54306","population":"194","region":"32","departement":"02","arrondissement":"024","commune":"02120"},
{"name":"Lagery","latitude":"49.20944","longitude":"3.745","population":"192","region":"44","departement":"51","arrondissement":"513","commune":"51314"},
{"name":"Germigny","latitude":"49.24444","longitude":"3.86583","population":"191","region":"44","departement":"51","arrondissement":"513","commune":"51267"},
{"name":"Limé","latitude":"49.32167","longitude":"3.54806","population":"188","region":"32","departement":"02","arrondissement":"024","commune":"02432"},
{"name":"Bouvancourt","latitude":"49.33806","longitude":"3.83444","population":"186","region":"44","departement":"51","arrondissement":"513","commune":"51077"},
{"name":"Treslon","latitude":"49.24028","longitude":"3.82222","population":"186","region":"44","departement":"51","arrondissement":"513","commune":"51581"},
{"name":"Serzy-et-Prin","latitude":"49.25","longitude":"3.76667","population":"182","region":"44","departement":"51","arrondissement":"513","commune":"51534"},
{"name":"Viel-Arcy","latitude":"49.37972","longitude":"3.62417","population":"181","region":"32","departement":"02","arrondissement":"024","commune":"02797"},
{"name":"Bouleuse","latitude":"49.225","longitude":"3.84083","population":"169","region":"44","departement":"51","arrondissement":"513","commune":"51073"},
{"name":"Vézilly","latitude":"49.18083","longitude":"3.69111","population":"169","region":"32","departement":"02","arrondissement":"021","commune":"02794"},
{"name":"Jouaignes","latitude":"49.29861","longitude":"3.53583","population":"168","region":"32","departement":"02","arrondissement":"024","commune":"02393"},
{"name":"Sergy","latitude":"49.1825","longitude":"3.57","population":"163","region":"32","departement":"02","arrondissement":"021","commune":"02712"},
{"name":"Unchair","latitude":"49.29056","longitude":"3.7475","population":"157","region":"44","departement":"51","arrondissement":"513","commune":"51586"},
{"name":"Tramery","latitude":"49.22444","longitude":"3.80472","population":"148","region":"44","departement":"51","arrondissement":"513","commune":"51577"},
{"name":"Lhuys","latitude":"49.28056","longitude":"3.555","population":"146","region":"32","departement":"02","arrondissement":"024","commune":"02427"},
{"name":"Champlat-et-Boujacourt","latitude":"49.15361","longitude":"3.83361","population":"145","region":"44","departement":"51","arrondissement":"513","commune":"51120"},
{"name":"Dravegny","latitude":"49.23028","longitude":"3.63806","population":"142","region":"32","departement":"02","arrondissement":"021","commune":"02271"},
{"name":"Chambrecy","latitude":"49.1832","longitude":"3.8231","population":"142","region":"44","departement":"51","arrondissement":"513","commune":"51111"},
{"name":"Mont-sur-Courville","latitude":"49.26","longitude":"3.68111","population":"129","region":"44","departement":"51","arrondissement":"513","commune":"51382"},
{"name":"Dhuizel","latitude":"49.36556","longitude":"3.61833","population":"111","region":"32","departement":"02","arrondissement":"024","commune":"02263"},
{"name":"Bligny","latitude":"49.1949","longitude":"3.8609","population":"107","region":"44","departement":"51","arrondissement":"513","commune":"51069"},
{"name":"Goussancourt","latitude":"49.16667","longitude":"3.66667","population":"106","region":"32","departement":"02","arrondissement":"021","commune":"02351"},
{"name":"Bouffignereux","latitude":"49.37361","longitude":"3.84528","population":"105","region":"32","departement":"02","arrondissement":"022","commune":"02104"},
{"name":"Aougny","latitude":"49.18056","longitude":"3.72556","population":"99","region":"44","departement":"51","arrondissement":"513","commune":"51013"},
{"name":"Villers-Agron-Aiguizy","latitude":"49.1616","longitude":"3.698","population":"98","region":"32","departement":"02","arrondissement":"021","commune":"02809"},
{"name":"Blanzy-lès-Fismes","latitude":"49.33833","longitude":"3.67306","population":"92","region":"32","departement":"02","arrondissement":"024","commune":"02091"},
{"name":"Hourges","latitude":"49.28167","longitude":"3.76944","population":"91","region":"44","departement":"51","arrondissement":"513","commune":"51294"},
{"name":"Brouillet","latitude":"49.22583","longitude":"3.73889","population":"91","region":"44","departement":"51","arrondissement":"513","commune":"51089"},
{"name":"Poilly","latitude":"49.21611","longitude":"3.82056","population":"90","region":"44","departement":"51","arrondissement":"513","commune":"51437"},
{"name":"Cerseuil","latitude":"49.32361","longitude":"3.52139","population":"89","region":"32","departement":"02","arrondissement":"024","commune":"02152"},
{"name":"Loupeigne","latitude":"49.24722","longitude":"3.535","population":"80","region":"32","departement":"02","arrondissement":"021","commune":"02442"},
{"name":"Mont-Saint-Martin","latitude":"49.2825","longitude":"3.64028","population":"80","region":"32","departement":"02","arrondissement":"024","commune":"02523"},
{"name":"Lhéry","latitude":"49.20972","longitude":"3.7625","population":"80","region":"44","departement":"51","arrondissement":"513","commune":"51321"},
{"name":"Cierges","latitude":"49.16806","longitude":"3.59861","population":"74","region":"32","departement":"02","arrondissement":"021","commune":"02193"},
{"name":"Quincy-sous-le-Mont","latitude":"49.30611","longitude":"3.55194","population":"67","region":"32","departement":"02","arrondissement":"024","commune":"02633"},
{"name":"Saint-Thibaut","latitude":"49.3","longitude":"3.61667","population":"63","region":"32","departement":"02","arrondissement":"024","commune":"02695"},
{"name":"Méry-Prémecy","latitude":"49.22583","longitude":"3.86167","population":"62","region":"44","departement":"51","arrondissement":"513","commune":"51364"},
{"name":"Ville-Savoye","latitude":"49.29361","longitude":"3.64","population":"58","region":"32","departement":"02","arrondissement":"024","commune":"02817"},
{"name":"Meurival","latitude":"49.3575","longitude":"3.76111","population":"53","region":"32","departement":"02","arrondissement":"022","commune":"02482"},
{"name":"Aubilly","latitude":"49.21306","longitude":"3.85889","population":"51","region":"44","departement":"51","arrondissement":"513","commune":"51020"},
{"name":"Vauxtin","latitude":"49.35028","longitude":"3.60333","population":"50","region":"32","departement":"02","arrondissement":"024","commune":"02773"},
{"name":"Muscourt","latitude":"49.3632","longitude":"3.7484","population":"44","region":"32","departement":"02","arrondissement":"022","commune":"02534"},
{"name":"Serval","latitude":"49.35306","longitude":"3.68556","population":"43","region":"32","departement":"02","arrondissement":"024","commune":"02715"},
{"name":"Bruys","latitude":"49.27056","longitude":"3.56306","population":"20","region":"32","departement":"02","arrondissement":"024","commune":"02129"},
{"name":"Tannières","latitude":"49.29083","longitude":"3.5525","population":"13","region":"32","departement":"02","arrondissement":"024","commune":"02735"}
]