[
{"name":"Chaumont","latitude":"48.11083","longitude":"5.13861","population":"23411","region":"44","departement":"52","arrondissement":"521","commune":"52121"},
{"name":"Bologne","latitude":"48.20194","longitude":"5.14083","population":"1871","region":"44","departement":"52","arrondissement":"521","commune":"52058"},
{"name":"Chamarandes-Choignes","latitude":"48.1077","longitude":"5.1713","population":"1047","region":"44","departement":"52","arrondissement":"521","commune":"52125"},
{"name":"Jonchery","latitude":"48.13583","longitude":"5.08639","population":"995","region":"44","departement":"52","arrondissement":"521","commune":"52251"},
{"name":"Semoutiers-Montsaon","latitude":"48.0591","longitude":"5.0579","population":"897","region":"44","departement":"52","arrondissement":"521","commune":"52469"},
{"name":"Foulain","latitude":"48.03917","longitude":"5.21333","population":"755","region":"44","departement":"52","arrondissement":"521","commune":"52205"},
{"name":"Villiers-le-Sec","latitude":"48.10583","longitude":"5.06306","population":"684","region":"44","departement":"52","arrondissement":"521","commune":"52535"},
{"name":"Autreville-sur-la-Renne","latitude":"48.11722","longitude":"4.97917","population":"489","region":"44","departement":"52","arrondissement":"521","commune":"52031"},
{"name":"Riaucourt","latitude":"48.17639","longitude":"5.15167","population":"467","region":"44","departement":"52","arrondissement":"521","commune":"52421"},
{"name":"Bricon","latitude":"48.08083","longitude":"4.97806","population":"449","region":"44","departement":"52","arrondissement":"521","commune":"52076"},
{"name":"Orges","latitude":"48.08083","longitude":"4.92778","population":"399","region":"44","departement":"52","arrondissement":"521","commune":"52365"},
{"name":"Poulangy","latitude":"48.04167","longitude":"5.25444","population":"391","region":"44","departement":"52","arrondissement":"521","commune":"52401"},
{"name":"Brethenay","latitude":"48.155","longitude":"5.13528","population":"386","region":"44","departement":"52","arrondissement":"521","commune":"52072"},
{"name":"Neuilly-sur-Suize","latitude":"48.05056","longitude":"5.14889","population":"339","region":"44","departement":"52","arrondissement":"521","commune":"52349"},
{"name":"Marnay-sur-Marne","latitude":"48.0105","longitude":"5.237","population":"291","region":"44","departement":"52","arrondissement":"521","commune":"52315"},
{"name":"Euffigneix","latitude":"48.12972","longitude":"5.045","population":"286","region":"44","departement":"52","arrondissement":"521","commune":"52193"},
{"name":"Verbiesles","latitude":"48.06944","longitude":"5.18556","population":"284","region":"44","departement":"52","arrondissement":"521","commune":"52514"},
{"name":"Condes","latitude":"48.14361","longitude":"5.14528","population":"281","region":"44","departement":"52","arrondissement":"521","commune":"52141"},
{"name":"Richebourg","latitude":"48.02139","longitude":"5.05972","population":"273","region":"44","departement":"52","arrondissement":"521","commune":"52422"},
{"name":"Darmannes","latitude":"48.16833","longitude":"5.21583","population":"268","region":"44","departement":"52","arrondissement":"521","commune":"52167"},
{"name":"Luzy-sur-Marne","latitude":"48.05694","longitude":"5.18528","population":"266","region":"44","departement":"52","arrondissement":"521","commune":"52297"},
{"name":"Treix","latitude":"48.14667","longitude":"5.18694","population":"246","region":"44","departement":"52","arrondissement":"521","commune":"52494"},
{"name":"Buxières-lès-Villiers","latitude":"48.10556","longitude":"5.03639","population":"229","region":"44","departement":"52","arrondissement":"521","commune":"52087"},
{"name":"Chantraines","latitude":"48.21889","longitude":"5.24722","population":"228","region":"44","departement":"52","arrondissement":"521","commune":"52107"},
{"name":"Blessonville","latitude":"48.05861","longitude":"5.00833","population":"222","region":"44","departement":"52","arrondissement":"521","commune":"52056"},
{"name":"Laville-aux-Bois","latitude":"48.09528","longitude":"5.22694","population":"222","region":"44","departement":"52","arrondissement":"521","commune":"52276"},
{"name":"Juzennecourt","latitude":"48.18389","longitude":"4.97917","population":"204","region":"44","departement":"52","arrondissement":"521","commune":"52253"},
{"name":"Briaucourt","latitude":"48.20806","longitude":"5.18833","population":"196","region":"44","departement":"52","arrondissement":"521","commune":"52075"},
{"name":"Braux-le-Châtel","latitude":"48.09972","longitude":"4.94444","population":"142","region":"44","departement":"52","arrondissement":"521","commune":"52069"},
{"name":"Mareilles","latitude":"48.18417","longitude":"5.26361","population":"141","region":"44","departement":"52","arrondissement":"521","commune":"52313"},
{"name":"Sexfontaines","latitude":"48.20111","longitude":"5.03944","population":"125","region":"44","departement":"52","arrondissement":"521","commune":"52472"},
{"name":"Gillancourt","latitude":"48.16111","longitude":"4.99222","population":"124","region":"44","departement":"52","arrondissement":"521","commune":"52221"},
{"name":"Vesaignes-sur-Marne","latitude":"48.00167","longitude":"5.26333","population":"121","region":"44","departement":"52","arrondissement":"521","commune":"52518"},
{"name":"Lamancine","latitude":"48.20917","longitude":"5.11583","population":"120","region":"44","departement":"52","arrondissement":"521","commune":"52260"},
{"name":"Meures","latitude":"48.19306","longitude":"5.06556","population":"111","region":"44","departement":"52","arrondissement":"521","commune":"52322"},
{"name":"Lachapelle-en-Blaisy","latitude":"48.20083","longitude":"4.96722","population":"78","region":"44","departement":"52","arrondissement":"521","commune":"52254"},
{"name":"Blaisy","latitude":"48.17333","longitude":"4.99639","population":"76","region":"44","departement":"52","arrondissement":"521","commune":"52053"},
{"name":"Annéville-la-Prairie","latitude":"48.19722","longitude":"5.08389","population":"68","region":"44","departement":"52","arrondissement":"521","commune":"52011"},
{"name":"Rochefort-sur-la-Côte","latitude":"48.22056","longitude":"5.20389","population":"67","region":"44","departement":"52","arrondissement":"521","commune":"52428"},
{"name":"Ormoy-lès-Sexfontaines","latitude":"48.22028","longitude":"5.06722","population":"39","region":"44","departement":"52","arrondissement":"521","commune":"52367"},
{"name":"Lavilleneuve-au-Roi","latitude":"48.16065","longitude":"4.92213","population":"0","region":"44","departement":"52","arrondissement":"521","commune":"52278"}
]