[
{"name":"Pithiviers","latitude":"48.17194","longitude":"2.25194","population":"8761","region":"24","departement":"45","arrondissement":"453","commune":"45252"},
{"name":"Dadonville","latitude":"48.14222","longitude":"2.2525","population":"2157","region":"24","departement":"45","arrondissement":"453","commune":"45119"},
{"name":"Beaune-la-Rolande","latitude":"48.06972","longitude":"2.42917","population":"2039","region":"24","departement":"45","arrondissement":"453","commune":"45030"},
{"name":"Chilleurs-aux-Bois","latitude":"48.07222","longitude":"2.13472","population":"1860","region":"24","departement":"45","arrondissement":"453","commune":"45095"},
{"name":"Pithiviers-le-Vieil","latitude":"48.1625","longitude":"2.20917","population":"1854","region":"24","departement":"45","arrondissement":"453","commune":"45253"},
{"name":"Boynes","latitude":"48.12028","longitude":"2.36","population":"1237","region":"24","departement":"45","arrondissement":"453","commune":"45050"},
{"name":"Quiers-sur-Bézonde","latitude":"47.99861","longitude":"2.43694","population":"1178","region":"24","departement":"45","arrondissement":"451","commune":"45259"},
{"name":"Boiscommun","latitude":"48.03667","longitude":"2.38306","population":"1155","region":"24","departement":"45","arrondissement":"453","commune":"45035"},
{"name":"Nibelle","latitude":"48.02278","longitude":"2.32722","population":"1005","region":"24","departement":"45","arrondissement":"453","commune":"45228"},
{"name":"Ascoux","latitude":"48.1284","longitude":"2.2481","population":"891","region":"24","departement":"45","arrondissement":"453","commune":"45010"},
{"name":"Chambon-la-Forêt","latitude":"48.05639","longitude":"2.29528","population":"784","region":"24","departement":"45","arrondissement":"453","commune":"45069"},
{"name":"Vrigny","latitude":"48.08083","longitude":"2.24333","population":"769","region":"24","departement":"45","arrondissement":"453","commune":"45347"},
{"name":"Escrennes","latitude":"48.13306","longitude":"2.18861","population":"689","region":"24","departement":"45","arrondissement":"453","commune":"45137"},
{"name":"Yèvre-la-Ville","latitude":"48.1455","longitude":"2.3273","population":"688","region":"24","departement":"45","arrondissement":"453","commune":"45348"},
{"name":"Greneville-en-Beauce","latitude":"48.18167","longitude":"2.11278","population":"660","region":"24","departement":"45","arrondissement":"453","commune":"45160"},
{"name":"Mareau-aux-Bois","latitude":"48.10167","longitude":"2.18917","population":"605","region":"24","departement":"45","arrondissement":"453","commune":"45195"},
{"name":"Nancray-sur-Rimarde","latitude":"48.06889","longitude":"2.33361","population":"545","region":"24","departement":"45","arrondissement":"453","commune":"45220"},
{"name":"Ingrannes","latitude":"47.99111","longitude":"2.21333","population":"519","region":"24","departement":"45","arrondissement":"452","commune":"45168"},
{"name":"Guigneville","latitude":"48.20611","longitude":"2.17722","population":"517","region":"24","departement":"45","arrondissement":"453","commune":"45162"},
{"name":"Estouy","latitude":"48.18667","longitude":"2.32639","population":"514","region":"24","departement":"45","arrondissement":"453","commune":"45139"},
{"name":"Aulnay-la-Rivière","latitude":"48.19556","longitude":"2.37889","population":"511","region":"24","departement":"45","arrondissement":"453","commune":"45014"},
{"name":"Saint-Loup-des-Vignes","latitude":"48.04111","longitude":"2.42111","population":"440","region":"24","departement":"45","arrondissement":"453","commune":"45288"},
{"name":"Courcy-aux-Loges","latitude":"48.06444","longitude":"2.2125","population":"438","region":"24","departement":"45","arrondissement":"453","commune":"45111"},
{"name":"Bouzonville-aux-Bois","latitude":"48.1032","longitude":"2.2355","population":"420","region":"24","departement":"45","arrondissement":"453","commune":"45047"},
{"name":"Batilly-en-Gâtinais","latitude":"48.07361","longitude":"2.38111","population":"402","region":"24","departement":"45","arrondissement":"453","commune":"45022"},
{"name":"Bondaroy","latitude":"48.17611","longitude":"2.27583","population":"391","region":"24","departement":"45","arrondissement":"453","commune":"45038"},
{"name":"Boësses","latitude":"48.15083","longitude":"2.4475","population":"380","region":"24","departement":"45","arrondissement":"453","commune":"45033"},
{"name":"Ondreville-sur-Essonne","latitude":"48.20056","longitude":"2.4075","population":"379","region":"24","departement":"45","arrondissement":"453","commune":"45233"},
{"name":"Nesploy","latitude":"47.99639","longitude":"2.36139","population":"368","region":"24","departement":"45","arrondissement":"451","commune":"45223"},
{"name":"La Neuville-sur-Essonne","latitude":"48.18694","longitude":"2.37583","population":"363","region":"24","departement":"45","arrondissement":"453","commune":"45225"},
{"name":"Échilleuses","latitude":"48.16472","longitude":"2.44306","population":"363","region":"24","departement":"45","arrondissement":"453","commune":"45131"},
{"name":"Givraines","latitude":"48.14833","longitude":"2.36806","population":"359","region":"24","departement":"45","arrondissement":"453","commune":"45157"},
{"name":"Santeau","latitude":"48.1059","longitude":"2.1464","population":"354","region":"24","departement":"45","arrondissement":"453","commune":"45301"},
{"name":"Bouilly-en-Gâtinais","latitude":"48.096","longitude":"2.285","population":"335","region":"24","departement":"45","arrondissement":"453","commune":"45045"},
{"name":"Égry","latitude":"48.10306","longitude":"2.43639","population":"333","region":"24","departement":"45","arrondissement":"453","commune":"45132"},
{"name":"Barville-en-Gâtinais","latitude":"48.11194","longitude":"2.4025","population":"294","region":"24","departement":"45","arrondissement":"453","commune":"45021"},
{"name":"Marsainvilliers","latitude":"48.22139","longitude":"2.28444","population":"283","region":"24","departement":"45","arrondissement":"453","commune":"45198"},
{"name":"Courcelles","latitude":"48.0969","longitude":"2.3183","population":"280","region":"24","departement":"45","arrondissement":"453","commune":"45110"},
{"name":"Gaubertin","latitude":"48.12167","longitude":"2.4225","population":"265","region":"24","departement":"45","arrondissement":"453","commune":"45151"},
{"name":"Montbarrois","latitude":"48.04528","longitude":"2.39778","population":"265","region":"24","departement":"45","arrondissement":"453","commune":"45209"},
{"name":"Montigny","latitude":"48.1125","longitude":"2.11222","population":"250","region":"24","departement":"45","arrondissement":"453","commune":"45214"},
{"name":"Jouy-en-Pithiverais","latitude":"48.14139","longitude":"2.11306","population":"249","region":"24","departement":"45","arrondissement":"453","commune":"45174"},
{"name":"Montliard","latitude":"48.01972","longitude":"2.39722","population":"225","region":"24","departement":"45","arrondissement":"453","commune":"45215"},
{"name":"Attray","latitude":"48.12222","longitude":"2.11194","population":"211","region":"24","departement":"45","arrondissement":"453","commune":"45011"},
{"name":"Grangermont","latitude":"48.18944","longitude":"2.42639","population":"211","region":"24","departement":"45","arrondissement":"453","commune":"45159"},
{"name":"Laas","latitude":"48.12028","longitude":"2.21722","population":"202","region":"24","departement":"45","arrondissement":"453","commune":"45177"},
{"name":"Fréville-du-Gâtinais","latitude":"48.02361","longitude":"2.44444","population":"180","region":"24","departement":"45","arrondissement":"451","commune":"45150"},
{"name":"Saint-Michel","latitude":"48.06861","longitude":"2.37889","population":"122","region":"24","departement":"45","arrondissement":"453","commune":"45294"}
]