[
{"name":"Bourgoin-Jallieu","latitude":"45.5913","longitude":"5.2802","population":"25540","region":"84","departement":"38","arrondissement":"382","commune":"38053"},
{"name":"Les Avenières Veyrins-Thuellin","latitude":"45.63583","longitude":"5.56333","population":"5324","region":"84","departement":"38","arrondissement":"382","commune":"38022"},
{"name":"Morestel","latitude":"45.6777","longitude":"5.4701","population":"4147","region":"84","departement":"38","arrondissement":"382","commune":"38261"},
{"name":"Ruy-Montceau","latitude":"45.58833","longitude":"5.31778","population":"4142","region":"84","departement":"38","arrondissement":"382","commune":"38348"},
{"name":"Saint-Savin","latitude":"45.62861","longitude":"5.30611","population":"3494","region":"84","departement":"38","arrondissement":"382","commune":"38455"},
{"name":"Saint-Chef","latitude":"45.63333","longitude":"5.36667","population":"3449","region":"84","departement":"38","arrondissement":"382","commune":"38374"},
{"name":"Montalieu-Vercieu","latitude":"45.81417","longitude":"5.40361","population":"3021","region":"84","departement":"38","arrondissement":"382","commune":"38247"},
{"name":"Dolomieu","latitude":"45.61083","longitude":"5.49917","population":"2922","region":"84","departement":"38","arrondissement":"382","commune":"38148"},
{"name":"Aoste","latitude":"45.58833","longitude":"5.60889","population":"2463","region":"84","departement":"38","arrondissement":"382","commune":"38012"},
{"name":"Corbelin","latitude":"45.6075","longitude":"5.54472","population":"2089","region":"84","departement":"38","arrondissement":"382","commune":"38124"},
{"name":"Trept","latitude":"45.68667","longitude":"5.32","population":"1741","region":"84","departement":"38","arrondissement":"382","commune":"38515"},
{"name":"Vézeronce-Curtin","latitude":"45.6507","longitude":"5.471","population":"1722","region":"84","departement":"38","arrondissement":"382","commune":"38543"},
{"name":"La Chapelle-de-la-Tour","latitude":"45.58528","longitude":"5.46306","population":"1641","region":"84","departement":"38","arrondissement":"382","commune":"38076"},
{"name":"Sermérieu","latitude":"45.67139","longitude":"5.40972","population":"1482","region":"84","departement":"38","arrondissement":"382","commune":"38483"},
{"name":"Bouvesse-Quirieu","latitude":"45.79528","longitude":"5.41472","population":"1390","region":"84","departement":"38","arrondissement":"382","commune":"38054"},
{"name":"Creys-Mépieu","latitude":"45.7281","longitude":"5.4881","population":"1358","region":"84","departement":"38","arrondissement":"382","commune":"38139"},
{"name":"Faverges-de-la-Tour","latitude":"45.59111","longitude":"5.52361","population":"1302","region":"84","departement":"38","arrondissement":"382","commune":"38162"},
{"name":"Salagnon","latitude":"45.66694","longitude":"5.355","population":"1198","region":"84","departement":"38","arrondissement":"382","commune":"38467"},
{"name":"Courtenay","latitude":"45.72917","longitude":"5.37917","population":"1151","region":"84","departement":"38","arrondissement":"382","commune":"38135"},
{"name":"Hières-sur-Amby","latitude":"45.7975","longitude":"5.29389","population":"1148","region":"84","departement":"38","arrondissement":"382","commune":"38190"},
{"name":"Serrières-de-Briord","latitude":"45.8082","longitude":"5.4548","population":"1143","region":"84","departement":"01","arrondissement":"011","commune":"01403"},
{"name":"Saint-Victor-de-Morestel","latitude":"45.69639","longitude":"5.50333","population":"1135","region":"84","departement":"38","arrondissement":"382","commune":"38465"},
{"name":"Passins","latitude":"45.68778","longitude":"5.42944","population":"1063","region":"84","departement":"38","arrondissement":"382","commune":"38297"},
{"name":"Vignieu","latitude":"45.62806","longitude":"5.42472","population":"897","region":"84","departement":"38","arrondissement":"382","commune":"38546"},
{"name":"Briord","latitude":"45.7825","longitude":"5.45944","population":"875","region":"84","departement":"01","arrondissement":"011","commune":"01064"},
{"name":"Lhuis","latitude":"45.74667","longitude":"5.53333","population":"835","region":"84","departement":"01","arrondissement":"011","commune":"01216"},
{"name":"Brégnier-Cordon","latitude":"45.64889","longitude":"5.61972","population":"789","region":"84","departement":"01","arrondissement":"011","commune":"01058"},
{"name":"Groslée-Saint-Benoit","latitude":"45.69444","longitude":"5.58861","population":"754","region":"84","departement":"01","arrondissement":"011","commune":"01338"},
{"name":"Optevoz","latitude":"45.7525","longitude":"5.33139","population":"728","region":"84","departement":"38","arrondissement":"382","commune":"38282"},
{"name":"Saint-Baudille-de-la-Tour","latitude":"45.78972","longitude":"5.33833","population":"723","region":"84","departement":"38","arrondissement":"382","commune":"38365"},
{"name":"Soleymieu","latitude":"45.70972","longitude":"5.34972","population":"690","region":"84","departement":"38","arrondissement":"382","commune":"38494"},
{"name":"Annoisin-Chatelans","latitude":"45.75694","longitude":"5.29333","population":"623","region":"84","departement":"38","arrondissement":"382","commune":"38010"},
{"name":"Dizimieu","latitude":"45.71833","longitude":"5.29861","population":"606","region":"84","departement":"38","arrondissement":"382","commune":"38146"},
{"name":"Le Bouchage","latitude":"45.67028","longitude":"5.52583","population":"582","region":"84","departement":"38","arrondissement":"382","commune":"38050"},
{"name":"Brangues","latitude":"45.69306","longitude":"5.53111","population":"578","region":"84","departement":"38","arrondissement":"382","commune":"38055"},
{"name":"Vénérieu","latitude":"45.65917","longitude":"5.2775","population":"575","region":"84","departement":"38","arrondissement":"382","commune":"38532"},
{"name":"Siccieu-Saint-Julien-et-Carisieu","latitude":"45.735","longitude":"5.31611","population":"565","region":"84","departement":"38","arrondissement":"382","commune":"38488"},
{"name":"Arandon","latitude":"45.71083","longitude":"5.42917","population":"557","region":"84","departement":"38","arrondissement":"382","commune":"38014"},
{"name":"Saint-Sorlin-de-Morestel","latitude":"45.63722","longitude":"5.47667","population":"546","region":"84","departement":"38","arrondissement":"382","commune":"38458"},
{"name":"Saint-Hilaire-de-Brens","latitude":"45.67222","longitude":"5.29111","population":"512","region":"84","departement":"38","arrondissement":"382","commune":"38392"},
{"name":"Montagnieu","latitude":"45.7938","longitude":"5.4683","population":"495","region":"84","departement":"01","arrondissement":"011","commune":"01255"},
{"name":"Montcarra","latitude":"45.61306","longitude":"5.39139","population":"465","region":"84","departement":"38","arrondissement":"382","commune":"38250"},
{"name":"Granieu","latitude":"45.59944","longitude":"5.58861","population":"440","region":"84","departement":"38","arrondissement":"382","commune":"38183"},
{"name":"Charette","latitude":"45.81028","longitude":"5.37056","population":"436","region":"84","departement":"38","arrondissement":"382","commune":"38083"},
{"name":"Vasselin","latitude":"45.63083","longitude":"5.45417","population":"407","region":"84","departement":"38","arrondissement":"382","commune":"38525"},
{"name":"Saint-Germain-les-Paroisses","latitude":"45.77361","longitude":"5.61806","population":"377","region":"84","departement":"01","arrondissement":"011","commune":"01358"},
{"name":"Bénonces","latitude":"45.82778","longitude":"5.47528","population":"278","region":"84","departement":"01","arrondissement":"011","commune":"01037"},
{"name":"Vernas","latitude":"45.7776","longitude":"5.282","population":"221","region":"84","departement":"38","arrondissement":"382","commune":"38535"},
{"name":"Cheignieu-la-Balme","latitude":"45.8271","longitude":"5.6078","population":"156","region":"84","departement":"01","arrondissement":"011","commune":"01100"},
{"name":"Lompnas","latitude":"45.80306","longitude":"5.52028","population":"148","region":"84","departement":"01","arrondissement":"011","commune":"01219"},
{"name":"Seillonnaz","latitude":"45.80667","longitude":"5.49028","population":"136","region":"84","departement":"01","arrondissement":"011","commune":"01400"},
{"name":"Conzieu","latitude":"45.72611","longitude":"5.60722","population":"128","region":"84","departement":"01","arrondissement":"011","commune":"01117"},
{"name":"Ambléon","latitude":"45.74944","longitude":"5.60139","population":"120","region":"84","departement":"01","arrondissement":"011","commune":"01006"},
{"name":"Colomieu","latitude":"45.73306","longitude":"5.62194","population":"114","region":"84","departement":"01","arrondissement":"011","commune":"01110"},
{"name":"Marchamp","latitude":"45.78667","longitude":"5.54167","population":"113","region":"84","departement":"01","arrondissement":"011","commune":"01233"},
{"name":"Innimond","latitude":"45.78278","longitude":"5.5725","population":"113","region":"84","departement":"01","arrondissement":"011","commune":"01190"}
]