[
{"name":"Reims","latitude":"49.2651","longitude":"4.0292","population":"180842","region":"44","departement":"51","arrondissement":"513","commune":"51454"},
{"name":"Tinqueux","latitude":"49.25","longitude":"3.99083","population":"10326","region":"44","departement":"51","arrondissement":"513","commune":"51573"},
{"name":"Bétheny","latitude":"49.28472","longitude":"4.05694","population":"6439","region":"44","departement":"51","arrondissement":"513","commune":"51055"},
{"name":"Cormontreuil","latitude":"49.22278","longitude":"4.05194","population":"6165","region":"44","departement":"51","arrondissement":"513","commune":"51172"},
{"name":"Witry-lès-Reims","latitude":"49.29306","longitude":"4.12083","population":"4717","region":"44","departement":"51","arrondissement":"513","commune":"51662"},
{"name":"Saint-Brice-Courcelles","latitude":"49.2615","longitude":"3.986","population":"3390","region":"44","departement":"51","arrondissement":"513","commune":"51474"},
{"name":"Taissy","latitude":"49.21472","longitude":"4.09472","population":"2314","region":"44","departement":"51","arrondissement":"513","commune":"51562"},
{"name":"Muizon","latitude":"49.27389","longitude":"3.89083","population":"2215","region":"44","departement":"51","arrondissement":"513","commune":"51391"},
{"name":"Bazancourt","latitude":"49.36333","longitude":"4.17028","population":"1964","region":"44","departement":"51","arrondissement":"513","commune":"51043"},
{"name":"Gueux","latitude":"49.25","longitude":"3.90806","population":"1760","region":"44","departement":"51","arrondissement":"513","commune":"51282"},
{"name":"Boult-sur-Suippe","latitude":"49.37083","longitude":"4.14556","population":"1612","region":"44","departement":"51","arrondissement":"513","commune":"51074"},
{"name":"Sillery","latitude":"49.19806","longitude":"4.13222","population":"1590","region":"44","departement":"51","arrondissement":"513","commune":"51536"},
{"name":"Cormicy","latitude":"49.37139","longitude":"3.89583","population":"1415","region":"44","departement":"51","arrondissement":"513","commune":"51171"},
{"name":"Bezannes","latitude":"49.22333","longitude":"3.98861","population":"1378","region":"44","departement":"51","arrondissement":"513","commune":"51058"},
{"name":"Cernay-lès-Reims","latitude":"49.26361","longitude":"4.10333","population":"1335","region":"44","departement":"51","arrondissement":"513","commune":"51105"},
{"name":"Hermonville","latitude":"49.33528","longitude":"3.90861","population":"1309","region":"44","departement":"51","arrondissement":"513","commune":"51291"},
{"name":"Champigny","latitude":"49.26722","longitude":"3.97139","population":"1301","region":"44","departement":"51","arrondissement":"513","commune":"51118"},
{"name":"Courcy","latitude":"49.32333","longitude":"4.0025","population":"1288","region":"44","departement":"51","arrondissement":"513","commune":"51183"},
{"name":"Loivre","latitude":"49.34611","longitude":"3.97972","population":"1129","region":"44","departement":"51","arrondissement":"513","commune":"51329"},
{"name":"Verzenay","latitude":"49.15861","longitude":"4.14528","population":"1069","region":"44","departement":"51","arrondissement":"513","commune":"51613"},
{"name":"Beine-Nauroy","latitude":"49.25","longitude":"4.21667","population":"1046","region":"44","departement":"51","arrondissement":"513","commune":"51046"},
{"name":"Rilly-la-Montagne","latitude":"49.16528","longitude":"4.04556","population":"1042","region":"44","departement":"51","arrondissement":"513","commune":"51461"},
{"name":"Bourgogne","latitude":"49.34944","longitude":"4.07139","population":"1026","region":"44","departement":"51","arrondissement":"513","commune":"51075"},
{"name":"Prunay","latitude":"49.1967","longitude":"4.1849","population":"965","region":"44","departement":"51","arrondissement":"513","commune":"51449"},
{"name":"Les Mesneux","latitude":"49.21861","longitude":"3.96111","population":"846","region":"44","departement":"51","arrondissement":"513","commune":"51365"},
{"name":"Villers-Allerand","latitude":"49.16611","longitude":"4.025","population":"839","region":"44","departement":"51","arrondissement":"513","commune":"51629"},
{"name":"Isles-sur-Suippe","latitude":"49.35667","longitude":"4.20083","population":"797","region":"44","departement":"51","arrondissement":"513","commune":"51299"},
{"name":"Mailly-Champagne","latitude":"49.15583","longitude":"4.11222","population":"734","region":"44","departement":"51","arrondissement":"513","commune":"51338"},
{"name":"Beaumont-sur-Vesle","latitude":"49.17444","longitude":"4.18611","population":"713","region":"44","departement":"51","arrondissement":"513","commune":"51044"},
{"name":"Caurel","latitude":"49.30417","longitude":"4.15278","population":"650","region":"44","departement":"51","arrondissement":"513","commune":"51101"},
{"name":"Merfy","latitude":"49.29639","longitude":"3.94833","population":"648","region":"44","departement":"51","arrondissement":"513","commune":"51362"},
{"name":"Ludes","latitude":"49.15472","longitude":"4.07889","population":"631","region":"44","departement":"51","arrondissement":"513","commune":"51333"},
{"name":"Saint-Thierry","latitude":"49.30361","longitude":"3.96361","population":"624","region":"44","departement":"51","arrondissement":"513","commune":"51518"},
{"name":"Lavannes","latitude":"49.31361","longitude":"4.17111","population":"592","region":"44","departement":"51","arrondissement":"513","commune":"51318"},
{"name":"Nogent-l'Abbesse","latitude":"49.25333","longitude":"4.15694","population":"567","region":"44","departement":"51","arrondissement":"513","commune":"51403"},
{"name":"Sermiers","latitude":"49.15833","longitude":"3.985","population":"567","region":"44","departement":"51","arrondissement":"513","commune":"51532"},
{"name":"Trigny","latitude":"49.3025","longitude":"3.89556","population":"544","region":"44","departement":"51","arrondissement":"513","commune":"51582"},
{"name":"Champfleury","latitude":"49.1985","longitude":"4.0175","population":"537","region":"44","departement":"51","arrondissement":"513","commune":"51115"},
{"name":"Chigny-les-Roses","latitude":"49.15611","longitude":"4.06278","population":"517","region":"44","departement":"51","arrondissement":"513","commune":"51152"},
{"name":"Berru","latitude":"49.27194","longitude":"4.15167","population":"503","region":"44","departement":"51","arrondissement":"513","commune":"51052"},
{"name":"Orainville","latitude":"49.38056","longitude":"4.02111","population":"494","region":"32","departement":"02","arrondissement":"022","commune":"02572"},
{"name":"Cauroy-lès-Hermonville","latitude":"49.34889","longitude":"3.92472","population":"474","region":"44","departement":"51","arrondissement":"513","commune":"51102"},
{"name":"Pouillon","latitude":"49.31417","longitude":"3.94778","population":"459","region":"44","departement":"51","arrondissement":"513","commune":"51444"},
{"name":"Ormes","latitude":"49.23806","longitude":"3.95861","population":"450","region":"44","departement":"51","arrondissement":"513","commune":"51418"},
{"name":"Brimont","latitude":"49.34083","longitude":"4.025","population":"443","region":"44","departement":"51","arrondissement":"513","commune":"51088"},
{"name":"Fresne-lès-Reims","latitude":"49.33806","longitude":"4.09833","population":"432","region":"44","departement":"51","arrondissement":"513","commune":"51261"},
{"name":"Ville-Dommange","latitude":"49.2","longitude":"3.93333","population":"415","region":"44","departement":"51","arrondissement":"513","commune":"51622"},
{"name":"Chamery","latitude":"49.17194","longitude":"3.955","population":"391","region":"44","departement":"51","arrondissement":"513","commune":"51112"},
{"name":"Sacy","latitude":"49.19722","longitude":"3.94833","population":"379","region":"44","departement":"51","arrondissement":"513","commune":"51471"},
{"name":"Pomacle","latitude":"49.335","longitude":"4.14722","population":"366","region":"44","departement":"51","arrondissement":"513","commune":"51439"},
{"name":"Pargny-lès-Reims","latitude":"49.21944","longitude":"3.92611","population":"358","region":"44","departement":"51","arrondissement":"513","commune":"51422"},
{"name":"Thillois","latitude":"49.25583","longitude":"3.95417","population":"353","region":"44","departement":"51","arrondissement":"513","commune":"51569"},
{"name":"Puisieulx","latitude":"49.19306","longitude":"4.11333","population":"350","region":"44","departement":"51","arrondissement":"513","commune":"51450"},
{"name":"Écueil","latitude":"49.18611","longitude":"3.95278","population":"315","region":"44","departement":"51","arrondissement":"513","commune":"51225"},
{"name":"Villers-Franqueux","latitude":"49.32806","longitude":"3.94361","population":"308","region":"44","departement":"51","arrondissement":"513","commune":"51633"},
{"name":"Thil","latitude":"49.31528","longitude":"3.9625","population":"288","region":"44","departement":"51","arrondissement":"513","commune":"51568"},
{"name":"Chenay","latitude":"49.29806","longitude":"3.92861","population":"274","region":"44","departement":"51","arrondissement":"513","commune":"51145"},
{"name":"Montbré","latitude":"49.19278","longitude":"4.04139","population":"262","region":"44","departement":"51","arrondissement":"513","commune":"51375"},
{"name":"Vrigny","latitude":"49.23389","longitude":"3.91333","population":"221","region":"44","departement":"51","arrondissement":"513","commune":"51657"},
{"name":"Coulommes-la-Montagne","latitude":"49.22556","longitude":"3.91056","population":"219","region":"44","departement":"51","arrondissement":"513","commune":"51177"},
{"name":"Saint-Euphraise-et-Clairizet","latitude":"49.2129","longitude":"3.887","population":"211","region":"44","departement":"51","arrondissement":"513","commune":"51479"},
{"name":"Jouy-lès-Reims","latitude":"49.2156","longitude":"3.9293","population":"195","region":"44","departement":"51","arrondissement":"513","commune":"51310"},
{"name":"Pourcy","latitude":"49.15694","longitude":"3.915","population":"179","region":"44","departement":"51","arrondissement":"513","commune":"51445"},
{"name":"Villers-aux-Nœuds","latitude":"49.194","longitude":"3.9968","population":"174","region":"44","departement":"51","arrondissement":"513","commune":"51631"},
{"name":"Courmas","latitude":"49.18917","longitude":"3.90861","population":"173","region":"44","departement":"51","arrondissement":"513","commune":"51188"},
{"name":"Bouilly","latitude":"49.19861","longitude":"3.88917","population":"163","region":"44","departement":"51","arrondissement":"513","commune":"51072"},
{"name":"Châlons-sur-Vesle","latitude":"49.28944","longitude":"3.91667","population":"163","region":"44","departement":"51","arrondissement":"513","commune":"51109"},
{"name":"Marfaux","latitude":"49.16667","longitude":"3.89333","population":"154","region":"44","departement":"51","arrondissement":"513","commune":"51348"},
{"name":"Trois-Puits","latitude":"49.20639","longitude":"4.03944","population":"147","region":"44","departement":"51","arrondissement":"513","commune":"51584"},
{"name":"Berméricourt","latitude":"49.35778","longitude":"3.99222","population":"145","region":"44","departement":"51","arrondissement":"513","commune":"51051"},
{"name":"Janvry","latitude":"49.245","longitude":"3.87611","population":"123","region":"44","departement":"51","arrondissement":"513","commune":"51305"},
{"name":"Saint-Léonard","latitude":"49.22056","longitude":"4.09639","population":"90","region":"44","departement":"51","arrondissement":"513","commune":"51493"}
]