[
{"name":"Ambérieu-en-Bugey","latitude":"45.9585","longitude":"5.3585","population":"13350","region":"84","departement":"01","arrondissement":"011","commune":"01004"},
{"name":"Lagnieu","latitude":"45.90361","longitude":"5.34917","population":"6726","region":"84","departement":"01","arrondissement":"011","commune":"01202"},
{"name":"Hauteville-Lompnes","latitude":"45.9792","longitude":"5.5997","population":"4116","region":"84","departement":"01","arrondissement":"011","commune":"01185"},
{"name":"Pont-d'Ain","latitude":"46.04833","longitude":"5.33639","population":"2571","region":"84","departement":"01","arrondissement":"012","commune":"01304"},
{"name":"Ambronay","latitude":"46.00556","longitude":"5.36056","population":"2328","region":"84","departement":"01","arrondissement":"011","commune":"01007"},
{"name":"Saint-Rambert-en-Bugey","latitude":"45.94861","longitude":"5.43806","population":"2166","region":"84","departement":"01","arrondissement":"011","commune":"01384"},
{"name":"Saint-Denis-en-Bugey","latitude":"45.95194","longitude":"5.32917","population":"2135","region":"84","departement":"01","arrondissement":"011","commune":"01345"},
{"name":"Jujurieux","latitude":"46.04","longitude":"5.40889","population":"2035","region":"84","departement":"01","arrondissement":"014","commune":"01199"},
{"name":"Château-Gaillard","latitude":"45.97333","longitude":"5.30417","population":"1760","region":"84","departement":"01","arrondissement":"011","commune":"01089"},
{"name":"Saint-Jean-le-Vieux","latitude":"46.0287","longitude":"5.39","population":"1601","region":"84","departement":"01","arrondissement":"014","commune":"01363"},
{"name":"Porcieu-Amblagnieu","latitude":"45.83417","longitude":"5.40111","population":"1556","region":"84","departement":"38","arrondissement":"382","commune":"38320"},
{"name":"Priay","latitude":"46.00333","longitude":"5.29","population":"1459","region":"84","departement":"01","arrondissement":"012","commune":"01314"},
{"name":"Leyment","latitude":"45.92333","longitude":"5.295","population":"1273","region":"84","departement":"01","arrondissement":"011","commune":"01213"},
{"name":"Vaux-en-Bugey","latitude":"45.9279","longitude":"5.354","population":"1148","region":"84","departement":"01","arrondissement":"011","commune":"01431"},
{"name":"Druillat","latitude":"46.06","longitude":"5.31722","population":"1130","region":"84","departement":"01","arrondissement":"012","commune":"01151"},
{"name":"Villebois","latitude":"45.84778","longitude":"5.435","population":"1124","region":"84","departement":"01","arrondissement":"011","commune":"01444"},
{"name":"Tenay","latitude":"45.92","longitude":"5.50833","population":"1117","region":"84","departement":"01","arrondissement":"011","commune":"01416"},
{"name":"Saint-Sorlin-en-Bugey","latitude":"45.885","longitude":"5.37056","population":"1064","region":"84","departement":"01","arrondissement":"011","commune":"01386"},
{"name":"Sault-Brénaz","latitude":"45.85528","longitude":"5.41","population":"1047","region":"84","departement":"01","arrondissement":"011","commune":"01396"},
{"name":"Saint-Vulbas","latitude":"45.83389","longitude":"5.29083","population":"949","region":"84","departement":"01","arrondissement":"011","commune":"01390"},
{"name":"Douvres","latitude":"45.98889","longitude":"5.37306","population":"948","region":"84","departement":"01","arrondissement":"011","commune":"01149"},
{"name":"La Balme-les-Grottes","latitude":"45.8525","longitude":"5.33667","population":"909","region":"84","departement":"38","arrondissement":"382","commune":"38026"},
{"name":"Sainte-Julie","latitude":"45.89","longitude":"5.27833","population":"867","region":"84","departement":"01","arrondissement":"011","commune":"01366"},
{"name":"Cormaranche-en-Bugey","latitude":"45.95306","longitude":"5.61111","population":"855","region":"84","departement":"01","arrondissement":"011","commune":"01122"},
{"name":"Bettant","latitude":"45.94361","longitude":"5.36278","population":"727","region":"84","departement":"01","arrondissement":"011","commune":"01041"},
{"name":"Saint-Maurice-de-Rémens","latitude":"45.95861","longitude":"5.27556","population":"696","region":"84","departement":"01","arrondissement":"011","commune":"01379"},
{"name":"Torcieu","latitude":"45.9225","longitude":"5.39528","population":"696","region":"84","departement":"01","arrondissement":"011","commune":"01421"},
{"name":"Vertrieu","latitude":"45.87333","longitude":"5.36694","population":"661","region":"84","departement":"38","arrondissement":"382","commune":"38539"},
{"name":"Ambutrix","latitude":"45.93917","longitude":"5.33806","population":"660","region":"84","departement":"01","arrondissement":"011","commune":"01008"},
{"name":"Parmilieu","latitude":"45.84028","longitude":"5.355","population":"643","region":"84","departement":"38","arrondissement":"382","commune":"38295"},
{"name":"Brénod","latitude":"46.06083","longitude":"5.60611","population":"544","region":"84","departement":"01","arrondissement":"014","commune":"01060"},
{"name":"Varambon","latitude":"46.04028","longitude":"5.31639","population":"529","region":"84","departement":"01","arrondissement":"012","commune":"01430"},
{"name":"Champdor-Corcelles","latitude":"46.01722","longitude":"5.59722","population":"462","region":"84","departement":"01","arrondissement":"014","commune":"01080"},
{"name":"Argis","latitude":"45.93389","longitude":"5.49111","population":"421","region":"84","departement":"01","arrondissement":"011","commune":"01017"},
{"name":"Thézillieu","latitude":"45.89278","longitude":"5.60083","population":"319","region":"84","departement":"01","arrondissement":"011","commune":"01417"},
{"name":"Boyeux-Saint-Jérôme","latitude":"46.03","longitude":"5.45667","population":"302","region":"84","departement":"01","arrondissement":"014","commune":"01056"},
{"name":"Aranc","latitude":"46.00444","longitude":"5.50917","population":"297","region":"84","departement":"01","arrondissement":"011","commune":"01012"},
{"name":"Souclin","latitude":"45.87611","longitude":"5.41833","population":"259","region":"84","departement":"01","arrondissement":"011","commune":"01411"},
{"name":"Outriaz","latitude":"46.06722","longitude":"5.54694","population":"256","region":"84","departement":"01","arrondissement":"014","commune":"01282"},
{"name":"Lantenay","latitude":"46.0575","longitude":"5.54167","population":"254","region":"84","departement":"01","arrondissement":"014","commune":"01206"},
{"name":"L'Abergement-de-Varey","latitude":"46.0071","longitude":"5.4251","population":"207","region":"84","departement":"01","arrondissement":"011","commune":"01002"},
{"name":"Arandas","latitude":"45.895","longitude":"5.48639","population":"165","region":"84","departement":"01","arrondissement":"011","commune":"01013"},
{"name":"Izenave","latitude":"46.03806","longitude":"5.525","population":"161","region":"84","departement":"01","arrondissement":"014","commune":"01191"},
{"name":"Rossillon","latitude":"45.83194","longitude":"5.59361","population":"147","region":"84","departement":"01","arrondissement":"011","commune":"01329"},
{"name":"Nivollet-Montgriffon","latitude":"46.0035","longitude":"5.471","population":"140","region":"84","departement":"01","arrondissement":"011","commune":"01277"},
{"name":"Mérignat","latitude":"46.06944","longitude":"5.43667","population":"136","region":"84","departement":"01","arrondissement":"014","commune":"01242"},
{"name":"Évosges","latitude":"45.9612","longitude":"5.4989","population":"135","region":"84","departement":"01","arrondissement":"011","commune":"01155"},
{"name":"Ordonnaz","latitude":"45.83722","longitude":"5.53833","population":"135","region":"84","departement":"01","arrondissement":"011","commune":"01280"},
{"name":"Cleyzieu","latitude":"45.90778","longitude":"5.43056","population":"133","region":"84","departement":"01","arrondissement":"011","commune":"01107"},
{"name":"Corlier","latitude":"46.03028","longitude":"5.49917","population":"121","region":"84","departement":"01","arrondissement":"011","commune":"01121"},
{"name":"Chaley","latitude":"45.95528","longitude":"5.53167","population":"120","region":"84","departement":"01","arrondissement":"011","commune":"01076"},
{"name":"Conand","latitude":"45.8925","longitude":"5.47111","population":"103","region":"84","departement":"01","arrondissement":"011","commune":"01111"},
{"name":"Oncieu","latitude":"45.95917","longitude":"5.47333","population":"91","region":"84","departement":"01","arrondissement":"011","commune":"01279"},
{"name":"Hostiaz","latitude":"45.90167","longitude":"5.53444","population":"81","region":"84","departement":"01","arrondissement":"011","commune":"01186"},
{"name":"La Burbanche","latitude":"45.84667","longitude":"5.56056","population":"70","region":"84","departement":"01","arrondissement":"011","commune":"01066"},
{"name":"Prémillieu","latitude":"45.87417","longitude":"5.57139","population":"35","region":"84","departement":"01","arrondissement":"011","commune":"01311"},
{"name":"Armix","latitude":"45.84917","longitude":"5.58556","population":"22","region":"84","departement":"01","arrondissement":"011","commune":"01019"}
]