[
{"name":"Montpon-Ménestérol","latitude":"45.00917","longitude":"0.15917","population":"5535","region":"75","departement":"24","arrondissement":"243","commune":"24294"},
{"name":"Sainte-Foy-la-Grande","latitude":"44.84056","longitude":"0.21722","population":"2544","region":"75","departement":"33","arrondissement":"335","commune":"33402"},
{"name":"Port-Sainte-Foy-et-Ponchapt","latitude":"44.8434","longitude":"0.2114","population":"2505","region":"75","departement":"24","arrondissement":"241","commune":"24335"},
{"name":"Saint-Antoine-de-Breuilh","latitude":"44.8443","longitude":"0.1556","population":"2073","region":"75","departement":"24","arrondissement":"241","commune":"24370"},
{"name":"Saint-Médard-de-Mussidan","latitude":"45.0441","longitude":"0.3473","population":"1690","region":"75","departement":"24","arrondissement":"243","commune":"24462"},
{"name":"Saint-Pierre-d'Eyraud","latitude":"44.84833","longitude":"0.31861","population":"1652","region":"75","departement":"24","arrondissement":"241","commune":"24487"},
{"name":"Ménesplet","latitude":"45.01722","longitude":"0.10806","population":"1646","region":"75","departement":"24","arrondissement":"243","commune":"24264"},
{"name":"Saint-Avit-Saint-Nazaire","latitude":"44.8506","longitude":"0.2582","population":"1516","region":"75","departement":"33","arrondissement":"335","commune":"33378"},
{"name":"Le Fleix","latitude":"44.87472","longitude":"0.25139","population":"1428","region":"75","departement":"24","arrondissement":"241","commune":"24182"},
{"name":"Montcaret","latitude":"44.85861","longitude":"0.06361","population":"1419","region":"75","departement":"24","arrondissement":"241","commune":"24289"},
{"name":"Lamothe-Montravel","latitude":"44.85139","longitude":"0.02528","population":"1251","region":"75","departement":"24","arrondissement":"241","commune":"24226"},
{"name":"Le Pizou","latitude":"45.025","longitude":"0.06222","population":"1239","region":"75","departement":"24","arrondissement":"243","commune":"24329"},
{"name":"Vélines","latitude":"44.85889","longitude":"0.10861","population":"1104","region":"75","departement":"24","arrondissement":"241","commune":"24568"},
{"name":"Saint-Laurent-des-Hommes","latitude":"45.0375","longitude":"0.25333","population":"1034","region":"75","departement":"24","arrondissement":"243","commune":"24436"},
{"name":"Saint-Martial-d'Artenset","latitude":"45.01639","longitude":"0.20417","population":"960","region":"75","departement":"24","arrondissement":"243","commune":"24449"},
{"name":"Villefranche-de-Lonchat","latitude":"44.94833","longitude":"0.05722","population":"923","region":"75","departement":"24","arrondissement":"241","commune":"24584"},
{"name":"Porchères","latitude":"45.02944","longitude":"0.01028","population":"889","region":"75","departement":"33","arrondissement":"335","commune":"33332"},
{"name":"Moulin-Neuf","latitude":"45.01083","longitude":"0.05083","population":"869","region":"75","departement":"24","arrondissement":"241","commune":"24297"},
{"name":"Saint-Méard-de-Gurçon","latitude":"44.90917","longitude":"0.18361","population":"790","region":"75","departement":"24","arrondissement":"241","commune":"24461"},
{"name":"Saint-Christophe-de-Double","latitude":"45.081","longitude":"0.0161","population":"658","region":"75","departement":"33","arrondissement":"335","commune":"33385"},
{"name":"Saint-Martin-de-Gurson","latitude":"44.9523","longitude":"0.1079","population":"597","region":"75","departement":"24","arrondissement":"241","commune":"24454"},
{"name":"Saint-Antoine-sur-l'Isle","latitude":"45.02694","longitude":"0.03806","population":"535","region":"75","departement":"33","arrondissement":"335","commune":"33373"},
{"name":"Saint-Barthélemy-de-Bellegarde","latitude":"45.0774","longitude":"0.2114","population":"516","region":"75","departement":"24","arrondissement":"243","commune":"24380"},
{"name":"Fougueyrolles","latitude":"44.86556","longitude":"0.1875","population":"477","region":"75","departement":"24","arrondissement":"241","commune":"24189"},
{"name":"Beaupouyet","latitude":"44.99667","longitude":"0.27278","population":"472","region":"75","departement":"24","arrondissement":"243","commune":"24029"},
{"name":"Minzac","latitude":"44.97222","longitude":"0.03722","population":"440","region":"75","departement":"24","arrondissement":"241","commune":"24272"},
{"name":"Montpeyroux","latitude":"44.92","longitude":"0.05694","population":"432","region":"75","departement":"24","arrondissement":"241","commune":"24292"},
{"name":"Saint-Rémy","latitude":"44.94528","longitude":"0.18472","population":"432","region":"75","departement":"24","arrondissement":"241","commune":"24494"},
{"name":"Gours","latitude":"44.99361","longitude":"0.0225","population":"425","region":"75","departement":"33","arrondissement":"335","commune":"33191"},
{"name":"Eygurande-et-Gardedeuil","latitude":"45.06694","longitude":"0.12139","population":"370","region":"75","departement":"24","arrondissement":"243","commune":"24165"},
{"name":"Saint-Michel-de-Montaigne","latitude":"44.87417","longitude":"0.03","population":"367","region":"75","departement":"24","arrondissement":"241","commune":"24466"},
{"name":"Bonneville-et-Saint-Avit-de-Fumadières","latitude":"44.8825","longitude":"0.08","population":"313","region":"75","departement":"24","arrondissement":"241","commune":"24048"},
{"name":"Montazeau","latitude":"44.89278","longitude":"0.13","population":"311","region":"75","departement":"24","arrondissement":"241","commune":"24288"},
{"name":"Saint-Vivien","latitude":"44.8929","longitude":"0.1052","population":"286","region":"75","departement":"24","arrondissement":"241","commune":"24514"},
{"name":"Monfaucon","latitude":"44.91167","longitude":"0.23722","population":"271","region":"75","departement":"24","arrondissement":"241","commune":"24277"},
{"name":"Saint-Michel-de-Double","latitude":"45.07972","longitude":"0.28917","population":"265","region":"75","departement":"24","arrondissement":"243","commune":"24465"},
{"name":"Saint-Georges-Blancaneix","latitude":"44.9208","longitude":"0.35","population":"227","region":"75","departement":"24","arrondissement":"241","commune":"24413"},
{"name":"Saint-Géry","latitude":"44.98417","longitude":"0.32389","population":"212","region":"75","departement":"24","arrondissement":"241","commune":"24420"},
{"name":"Saint-Géraud-de-Corps","latitude":"44.95194","longitude":"0.22639","population":"195","region":"75","departement":"24","arrondissement":"241","commune":"24415"},
{"name":"Carsac-de-Gurson","latitude":"44.94694","longitude":"0.09028","population":"194","region":"75","departement":"24","arrondissement":"241","commune":"24083"},
{"name":"Fraisse","latitude":"44.92972","longitude":"0.30778","population":"148","region":"75","departement":"24","arrondissement":"241","commune":"24191"},
{"name":"Saint-Sauveur-Lalande","latitude":"44.98528","longitude":"0.25278","population":"131","region":"75","departement":"24","arrondissement":"243","commune":"24500"},
{"name":"Saint-Martin-l'Astier","latitude":"45.05611","longitude":"0.32917","population":"126","region":"75","departement":"24","arrondissement":"243","commune":"24457"},
{"name":"Nastringues","latitude":"44.875","longitude":"0.15389","population":"114","region":"75","departement":"24","arrondissement":"241","commune":"24306"}
]