[
{"name":"Parthenay","latitude":"46.64861","longitude":"-0.24694","population":"10338","region":"75","departement":"79","arrondissement":"793","commune":"79202"},
{"name":"Châtillon-sur-Thouet","latitude":"46.6614","longitude":"-0.2332","population":"2814","region":"75","departement":"79","arrondissement":"793","commune":"79080"},
{"name":"Le Tallud","latitude":"46.63083","longitude":"-0.29667","population":"1990","region":"75","departement":"79","arrondissement":"793","commune":"79322"},
{"name":"Pompaire","latitude":"46.60833","longitude":"-0.23333","population":"1947","region":"75","departement":"79","arrondissement":"793","commune":"79213"},
{"name":"Vasles","latitude":"46.57528","longitude":"-0.02528","population":"1693","region":"75","departement":"79","arrondissement":"793","commune":"79339"},
{"name":"Saint-Pardoux","latitude":"46.57139","longitude":"-0.30583","population":"1540","region":"75","departement":"79","arrondissement":"793","commune":"79285"},
{"name":"Thénezay","latitude":"46.71917","longitude":"-0.02694","population":"1460","region":"75","departement":"79","arrondissement":"793","commune":"79326"},
{"name":"La Peyratte","latitude":"46.67528","longitude":"-0.14778","population":"1149","region":"75","departement":"79","arrondissement":"793","commune":"79208"},
{"name":"Viennay","latitude":"46.69056","longitude":"-0.24333","population":"1111","region":"75","departement":"79","arrondissement":"793","commune":"79347"},
{"name":"Azay-sur-Thouet","latitude":"46.625","longitude":"-0.35028","population":"1085","region":"75","departement":"79","arrondissement":"793","commune":"79025"},
{"name":"Saint-Loup-Lamairé","latitude":"46.7883","longitude":"-0.1648","population":"948","region":"75","departement":"79","arrondissement":"793","commune":"79268"},
{"name":"Gourgé","latitude":"46.72833","longitude":"-0.16583","population":"921","region":"75","departement":"79","arrondissement":"793","commune":"79135"},
{"name":"Amailloux","latitude":"46.74667","longitude":"-0.31667","population":"849","region":"75","departement":"79","arrondissement":"793","commune":"79008"},
{"name":"La Ferrière-en-Parthenay","latitude":"46.65722","longitude":"-0.07583","population":"802","region":"75","departement":"79","arrondissement":"793","commune":"79120"},
{"name":"Assais-les-Jumeaux","latitude":"46.7883","longitude":"-0.0586","population":"765","region":"75","departement":"79","arrondissement":"793","commune":"79016"},
{"name":"Chalandray","latitude":"46.66083","longitude":"-0.00222","population":"763","region":"75","departement":"86","arrondissement":"863","commune":"86050"},
{"name":"Beaulieu-sous-Parthenay","latitude":"46.57583","longitude":"-0.23444","population":"657","region":"75","departement":"79","arrondissement":"793","commune":"79029"},
{"name":"La Chapelle-Bertrand","latitude":"46.62139","longitude":"-0.17111","population":"510","region":"75","departement":"79","arrondissement":"793","commune":"79071"},
{"name":"Saint-Germain-de-Longue-Chaume","latitude":"46.71667","longitude":"-0.34639","population":"394","region":"75","departement":"79","arrondissement":"793","commune":"79255"},
{"name":"Lageon","latitude":"46.73139","longitude":"-0.23472","population":"366","region":"75","departement":"79","arrondissement":"793","commune":"79145"},
{"name":"Adilly","latitude":"46.69","longitude":"-0.30861","population":"314","region":"75","departement":"79","arrondissement":"793","commune":"79002"},
{"name":"Soutiers","latitude":"46.56972","longitude":"-0.27889","population":"255","region":"75","departement":"79","arrondissement":"793","commune":"79318"},
{"name":"Saint-Martin-du-Fouilloux","latitude":"46.59","longitude":"-0.12083","population":"216","region":"75","departement":"79","arrondissement":"793","commune":"79278"},
{"name":"Pressigny","latitude":"46.74778","longitude":"-0.09194","population":"202","region":"75","departement":"79","arrondissement":"793","commune":"79218"},
{"name":"Le Chillou","latitude":"46.764","longitude":"-0.1378","population":"184","region":"75","departement":"79","arrondissement":"793","commune":"79089"},
{"name":"Saurais","latitude":"46.61917","longitude":"-0.14528","population":"183","region":"75","departement":"79","arrondissement":"793","commune":"79306"},
{"name":"Maisontiers","latitude":"46.77694","longitude":"-0.24917","population":"182","region":"75","departement":"79","arrondissement":"793","commune":"79165"},
{"name":"Aubigny","latitude":"46.74083","longitude":"-0.11972","population":"178","region":"75","departement":"79","arrondissement":"793","commune":"79019"},
{"name":"Lhoumois","latitude":"46.70556","longitude":"-0.12028","population":"141","region":"75","departement":"79","arrondissement":"793","commune":"79149"},
{"name":"Oroux","latitude":"46.69194","longitude":"-0.08944","population":"103","region":"75","departement":"79","arrondissement":"793","commune":"79197"}
]