[
{"name":"Paimpol","latitude":"48.7782","longitude":"-3.0457","population":"7828","region":"53","departement":"22","arrondissement":"224","commune":"22162"},
{"name":"Plouézec","latitude":"48.74833","longitude":"-2.985","population":"3368","region":"53","departement":"22","arrondissement":"224","commune":"22214"},
{"name":"Ploubazlanec","latitude":"48.8","longitude":"-3.03333","population":"3252","region":"53","departement":"22","arrondissement":"224","commune":"22210"},
{"name":"Pleubian","latitude":"48.84167","longitude":"-3.13972","population":"2577","region":"53","departement":"22","arrondissement":"223","commune":"22195"},
{"name":"Plourivo","latitude":"48.74389","longitude":"-3.07278","population":"2190","region":"53","departement":"22","arrondissement":"224","commune":"22233"},
{"name":"Lézardrieux","latitude":"48.7854","longitude":"-3.106","population":"1612","region":"53","departement":"22","arrondissement":"223","commune":"22127"},
{"name":"Pléhédel","latitude":"48.69444","longitude":"-3.00833","population":"1324","region":"53","departement":"22","arrondissement":"224","commune":"22178"},
{"name":"Pleumeur-Gautier","latitude":"48.80222","longitude":"-3.15722","population":"1153","region":"53","departement":"22","arrondissement":"223","commune":"22199"},
{"name":"Quemper-Guézennec","latitude":"48.70139","longitude":"-3.10556","population":"1096","region":"53","departement":"22","arrondissement":"222","commune":"22256"},
{"name":"Pontrieux","latitude":"48.69833","longitude":"-3.15944","population":"1053","region":"53","departement":"22","arrondissement":"222","commune":"22250"},
{"name":"Pleudaniel","latitude":"48.76611","longitude":"-3.14444","population":"1005","region":"53","departement":"22","arrondissement":"223","commune":"22196"},
{"name":"Yvias","latitude":"48.71333","longitude":"-3.0525","population":"717","region":"53","departement":"22","arrondissement":"224","commune":"22390"},
{"name":"Kerfot","latitude":"48.73639","longitude":"-3.03","population":"630","region":"53","departement":"22","arrondissement":"224","commune":"22086"},
{"name":"Lanmodez","latitude":"48.84111","longitude":"-3.10583","population":"454","region":"53","departement":"22","arrondissement":"223","commune":"22111"},
{"name":"Île-de-Bréhat","latitude":"48.8466","longitude":"-2.9989","population":"429","region":"53","departement":"22","arrondissement":"224","commune":"22016"},
{"name":"Lanloup","latitude":"48.71278","longitude":"-2.96556","population":"272","region":"53","departement":"22","arrondissement":"224","commune":"22109"},
{"name":"Lanleff","latitude":"48.69278","longitude":"-3.04444","population":"106","region":"53","departement":"22","arrondissement":"224","commune":"22108"}
]