[
{"name":"Saint-Maximin-la-Sainte-Baume","latitude":"43.45333","longitude":"5.86194","population":"14165","region":"93","departement":"83","arrondissement":"833","commune":"83116"},
{"name":"Auriol","latitude":"43.3692","longitude":"5.6321","population":"11685","region":"93","departement":"13","arrondissement":"133","commune":"13007"},
{"name":"Trets","latitude":"43.44694","longitude":"5.68583","population":"10311","region":"93","departement":"13","arrondissement":"131","commune":"13110"},
{"name":"Saint-Zacharie","latitude":"43.38417","longitude":"5.70667","population":"4856","region":"93","departement":"83","arrondissement":"833","commune":"83120"},
{"name":"Tourves","latitude":"43.40806","longitude":"5.92389","population":"4830","region":"93","departement":"83","arrondissement":"833","commune":"83140"},
{"name":"Pourrières","latitude":"43.50389","longitude":"5.73389","population":"4457","region":"93","departement":"83","arrondissement":"833","commune":"83097"},
{"name":"Nans-les-Pins","latitude":"43.37056","longitude":"5.78222","population":"4123","region":"93","departement":"83","arrondissement":"833","commune":"83087"},
{"name":"Peynier","latitude":"43.44694","longitude":"5.64139","population":"2975","region":"93","departement":"13","arrondissement":"131","commune":"13072"},
{"name":"Bras","latitude":"43.47194","longitude":"5.95361","population":"2424","region":"93","departement":"83","arrondissement":"833","commune":"83021"},
{"name":"La Roquebrussanne","latitude":"43.34028","longitude":"5.97639","population":"2324","region":"93","departement":"83","arrondissement":"833","commune":"83108"},
{"name":"Seillons-Source-d'Argens","latitude":"43.4961","longitude":"5.8841","population":"2126","region":"93","departement":"83","arrondissement":"833","commune":"83125"},
{"name":"Puyloubier","latitude":"43.525","longitude":"5.67694","population":"1798","region":"93","departement":"13","arrondissement":"131","commune":"13079"},
{"name":"Rougiers","latitude":"43.3925","longitude":"5.85111","population":"1479","region":"93","departement":"83","arrondissement":"833","commune":"83110"},
{"name":"Plan-d'Aups-Sainte-Baume","latitude":"43.3296","longitude":"5.7176","population":"1439","region":"93","departement":"83","arrondissement":"833","commune":"83093"},
{"name":"Brue-Auriac","latitude":"43.5275","longitude":"5.94444","population":"1186","region":"93","departement":"83","arrondissement":"833","commune":"83025"},
{"name":"Pourcieux","latitude":"43.47028","longitude":"5.78639","population":"1109","region":"93","departement":"83","arrondissement":"833","commune":"83096"},
{"name":"Mazaugues","latitude":"43.3476","longitude":"5.9219","population":"801","region":"93","departement":"83","arrondissement":"833","commune":"83076"},
{"name":"Ollières","latitude":"43.48278","longitude":"5.82972","population":"640","region":"93","departement":"83","arrondissement":"833","commune":"83089"}
]