[
{"name":"Roubaix","latitude":"50.6889","longitude":"3.1814","population":"95028","region":"32","departement":"59","arrondissement":"595","commune":"59512"},
{"name":"Wattrelos","latitude":"50.70111","longitude":"3.21333","population":"41750","region":"32","departement":"59","arrondissement":"595","commune":"59650"},
{"name":"Hem","latitude":"50.65528","longitude":"3.18778","population":"17150","region":"32","departement":"59","arrondissement":"595","commune":"59299"},
{"name":"Lys-lez-Lannoy","latitude":"50.6718","longitude":"3.2156","population":"12922","region":"32","departement":"59","arrondissement":"595","commune":"59367"},
{"name":"Leers","latitude":"50.68167","longitude":"3.24389","population":"9191","region":"32","departement":"59","arrondissement":"595","commune":"59339"},
{"name":"Templeuve-en-Pévèle","latitude":"50.52667","longitude":"3.175","population":"5767","region":"32","departement":"59","arrondissement":"595","commune":"59586"},
{"name":"Cysoing","latitude":"50.56833","longitude":"3.215","population":"4499","region":"32","departement":"59","arrondissement":"595","commune":"59168"},
{"name":"Baisieux","latitude":"50.60833","longitude":"3.2525","population":"4393","region":"32","departement":"59","arrondissement":"595","commune":"59044"},
{"name":"Toufflers","latitude":"50.66083","longitude":"3.22972","population":"3890","region":"32","departement":"59","arrondissement":"595","commune":"59598"},
{"name":"Chéreng","latitude":"50.61111","longitude":"3.20472","population":"3023","region":"32","departement":"59","arrondissement":"595","commune":"59146"},
{"name":"Willems","latitude":"50.63194","longitude":"3.23833","population":"3001","region":"32","departement":"59","arrondissement":"595","commune":"59660"},
{"name":"Genech","latitude":"50.53083","longitude":"3.21639","population":"2600","region":"32","departement":"59","arrondissement":"595","commune":"59258"},
{"name":"Sainghin-en-Mélantois","latitude":"50.58694","longitude":"3.1675","population":"2464","region":"32","departement":"59","arrondissement":"595","commune":"59523"},
{"name":"Camphin-en-Pévèle","latitude":"50.5953","longitude":"3.2606","population":"1840","region":"32","departement":"59","arrondissement":"595","commune":"59124"},
{"name":"Sailly-lez-Lannoy","latitude":"50.6466","longitude":"3.2246","population":"1791","region":"32","departement":"59","arrondissement":"595","commune":"59522"},
{"name":"Lannoy","latitude":"50.66611","longitude":"3.21056","population":"1713","region":"32","departement":"59","arrondissement":"595","commune":"59332"},
{"name":"Bourghelles","latitude":"50.56472","longitude":"3.24361","population":"1553","region":"32","departement":"59","arrondissement":"595","commune":"59096"},
{"name":"Forest-sur-Marque","latitude":"50.63417","longitude":"3.18917","population":"1457","region":"32","departement":"59","arrondissement":"595","commune":"59247"},
{"name":"Bachy","latitude":"50.55028","longitude":"3.26","population":"1436","region":"32","departement":"59","arrondissement":"595","commune":"59042"},
{"name":"Mouchin","latitude":"50.51806","longitude":"3.29167","population":"1355","region":"32","departement":"59","arrondissement":"595","commune":"59419"},
{"name":"Tressin","latitude":"50.6196","longitude":"3.1949","population":"1235","region":"32","departement":"59","arrondissement":"595","commune":"59602"},
{"name":"Anstaing","latitude":"50.60528","longitude":"3.19083","population":"1220","region":"32","departement":"59","arrondissement":"595","commune":"59013"},
{"name":"Gruson","latitude":"50.59472","longitude":"3.20611","population":"1143","region":"32","departement":"59","arrondissement":"595","commune":"59275"},
{"name":"Wannehain","latitude":"50.56861","longitude":"3.26556","population":"957","region":"32","departement":"59","arrondissement":"595","commune":"59638"},
{"name":"Péronne-en-Mélantois","latitude":"50.56778","longitude":"3.16861","population":"873","region":"32","departement":"59","arrondissement":"595","commune":"59458"},
{"name":"Louvil","latitude":"50.55889","longitude":"3.19417","population":"848","region":"32","departement":"59","arrondissement":"595","commune":"59364"},
{"name":"Bouvines","latitude":"50.57889","longitude":"3.18639","population":"713","region":"32","departement":"59","arrondissement":"595","commune":"59106"},
{"name":"Cobrieux","latitude":"50.54389","longitude":"3.22944","population":"529","region":"32","departement":"59","arrondissement":"595","commune":"59150"}
]