[
{"name":"Bar-sur-Aube","latitude":"48.23306","longitude":"4.70639","population":"5345","region":"44","departement":"10","arrondissement":"101","commune":"10033"},
{"name":"Sommevoire","latitude":"48.41139","longitude":"4.84167","population":"743","region":"44","departement":"52","arrondissement":"523","commune":"52479"},
{"name":"Arsonval","latitude":"48.26778","longitude":"4.65028","population":"342","region":"44","departement":"10","arrondissement":"101","commune":"10012"},
{"name":"Soulaines-Dhuys","latitude":"48.37417","longitude":"4.73333","population":"311","region":"44","departement":"10","arrondissement":"101","commune":"10372"},
{"name":"Morvilliers","latitude":"48.38056","longitude":"4.61917","population":"305","region":"44","departement":"10","arrondissement":"101","commune":"10258"},
{"name":"Dommartin-le-Saint-Père","latitude":"48.39417","longitude":"4.92167","population":"291","region":"44","departement":"52","arrondissement":"523","commune":"52172"},
{"name":"Jessains","latitude":"48.29639","longitude":"4.5775","population":"280","region":"44","departement":"10","arrondissement":"101","commune":"10178"},
{"name":"Ailleville","latitude":"48.25278","longitude":"4.68111","population":"273","region":"44","departement":"10","arrondissement":"101","commune":"10002"},
{"name":"Proverville","latitude":"48.23111","longitude":"4.69583","population":"262","region":"44","departement":"10","arrondissement":"101","commune":"10306"},
{"name":"Hampigny","latitude":"48.45583","longitude":"4.59","population":"259","region":"44","departement":"10","arrondissement":"101","commune":"10171"},
{"name":"Trannes","latitude":"48.30167","longitude":"4.58583","population":"257","region":"44","departement":"10","arrondissement":"101","commune":"10384"},
{"name":"Petit-Mesnil","latitude":"48.34861","longitude":"4.58722","population":"240","region":"44","departement":"10","arrondissement":"101","commune":"10286"},
{"name":"Colombé-la-Fosse","latitude":"48.26389","longitude":"4.7875","population":"215","region":"44","departement":"10","arrondissement":"101","commune":"10102"},
{"name":"Arrentières","latitude":"48.26333","longitude":"4.7425","population":"207","region":"44","departement":"10","arrondissement":"101","commune":"10011"},
{"name":"Mertrud","latitude":"48.42111","longitude":"4.88944","population":"203","region":"44","departement":"52","arrondissement":"523","commune":"52321"},
{"name":"Bossancourt","latitude":"48.28194","longitude":"4.60194","population":"202","region":"44","departement":"10","arrondissement":"101","commune":"10050"},
{"name":"Montier-en-l'Isle","latitude":"48.26083","longitude":"4.66278","population":"202","region":"44","departement":"10","arrondissement":"101","commune":"10250"},
{"name":"Vallentigny","latitude":"48.44667","longitude":"4.58056","population":"201","region":"44","departement":"10","arrondissement":"101","commune":"10393"},
{"name":"Voigny","latitude":"48.24083","longitude":"4.76806","population":"179","region":"44","departement":"10","arrondissement":"101","commune":"10440"},
{"name":"Maizières-lès-Brienne","latitude":"48.43694","longitude":"4.5875","population":"178","region":"44","departement":"10","arrondissement":"101","commune":"10221"},
{"name":"Jaucourt","latitude":"48.25917","longitude":"4.64694","population":"177","region":"44","departement":"10","arrondissement":"101","commune":"10176"},
{"name":"Nully","latitude":"48.36611","longitude":"4.80611","population":"176","region":"44","departement":"52","arrondissement":"523","commune":"52359"},
{"name":"Épothémont","latitude":"48.41778","longitude":"4.6575","population":"172","region":"44","departement":"10","arrondissement":"101","commune":"10139"},
{"name":"Thil","latitude":"48.348","longitude":"4.7861","population":"158","region":"44","departement":"10","arrondissement":"101","commune":"10377"},
{"name":"Crespy-le-Neuf","latitude":"48.39639","longitude":"4.59444","population":"147","region":"44","departement":"10","arrondissement":"101","commune":"10117"},
{"name":"Dolancourt","latitude":"48.26667","longitude":"4.61667","population":"146","region":"44","departement":"10","arrondissement":"101","commune":"10126"},
{"name":"Spoy","latitude":"48.22806","longitude":"4.62056","population":"142","region":"44","departement":"10","arrondissement":"101","commune":"10374"},
{"name":"Colombé-le-Sec","latitude":"48.25472","longitude":"4.79667","population":"135","region":"44","departement":"10","arrondissement":"101","commune":"10103"},
{"name":"Juzanvigny","latitude":"48.41472","longitude":"4.58889","population":"123","region":"44","departement":"10","arrondissement":"101","commune":"10184"},
{"name":"Ville-sur-Terre","latitude":"48.33194","longitude":"4.74778","population":"122","region":"44","departement":"10","arrondissement":"101","commune":"10428"},
{"name":"Rizaucourt-Buchey","latitude":"48.2787","longitude":"4.8662","population":"118","region":"44","departement":"52","arrondissement":"521","commune":"52426"},
{"name":"Rouvres-les-Vignes","latitude":"48.24083","longitude":"4.82278","population":"118","region":"44","departement":"10","arrondissement":"101","commune":"10330"},
{"name":"Éclance","latitude":"48.30611","longitude":"4.63444","population":"118","region":"44","departement":"10","arrondissement":"101","commune":"10135"},
{"name":"Arnancourt","latitude":"48.3525","longitude":"4.92083","population":"109","region":"44","departement":"52","arrondissement":"523","commune":"52019"},
{"name":"Lévigny","latitude":"48.30167","longitude":"4.7075","population":"105","region":"44","departement":"10","arrondissement":"101","commune":"10194"},
{"name":"Blumeray","latitude":"48.36528","longitude":"4.85861","population":"103","region":"44","departement":"52","arrondissement":"523","commune":"52057"},
{"name":"Beurville","latitude":"48.31917","longitude":"4.83333","population":"102","region":"44","departement":"52","arrondissement":"523","commune":"52047"},
{"name":"Argançon","latitude":"48.25306","longitude":"4.60361","population":"101","region":"44","departement":"10","arrondissement":"101","commune":"10008"},
{"name":"Trémilly","latitude":"48.36639","longitude":"4.78194","population":"88","region":"44","departement":"52","arrondissement":"523","commune":"52495"},
{"name":"Thilleux","latitude":"48.43917","longitude":"4.80167","population":"87","region":"44","departement":"52","arrondissement":"523","commune":"52487"},
{"name":"Saulcy","latitude":"48.27806","longitude":"4.83361","population":"86","region":"44","departement":"10","arrondissement":"101","commune":"10366"},
{"name":"Chaumesnil","latitude":"48.36028","longitude":"4.59528","population":"86","region":"44","departement":"10","arrondissement":"101","commune":"10093"},
{"name":"Vernonvilliers","latitude":"48.315","longitude":"4.68","population":"83","region":"44","departement":"10","arrondissement":"101","commune":"10403"},
{"name":"Maisons-lès-Soulaines","latitude":"48.28917","longitude":"4.78778","population":"81","region":"44","departement":"10","arrondissement":"101","commune":"10219"},
{"name":"Thors","latitude":"48.30417","longitude":"4.81139","population":"75","region":"44","departement":"10","arrondissement":"101","commune":"10378"},
{"name":"Fuligny","latitude":"48.33194","longitude":"4.70667","population":"51","region":"44","departement":"10","arrondissement":"101","commune":"10163"},
{"name":"Fravaux","latitude":"48.23778","longitude":"4.63833","population":"50","region":"44","departement":"10","arrondissement":"101","commune":"10160"},
{"name":"Engente","latitude":"48.26972","longitude":"4.75583","population":"43","region":"44","departement":"10","arrondissement":"101","commune":"10137"},
{"name":"Fresnay","latitude":"48.3147","longitude":"4.7519","population":"42","region":"44","departement":"10","arrondissement":"101","commune":"10161"},
{"name":"La Chaise","latitude":"48.3625","longitude":"4.65972","population":"35","region":"44","departement":"10","arrondissement":"101","commune":"10072"},
{"name":"La Ville-aux-Bois","latitude":"48.4074","longitude":"4.6907","population":"19","region":"44","departement":"10","arrondissement":"101","commune":"10411"}
]