[
{"name":"Bains-les-Bains","latitude":"48.0025","longitude":"6.26361","population":"1332","region":"44","departement":"88","arrondissement":"881","commune":"88029"},
{"name":"Darney","latitude":"48.085","longitude":"6.04583","population":"1221","region":"44","departement":"88","arrondissement":"881","commune":"88124"},
{"name":"Dompaire","latitude":"48.22167","longitude":"6.22222","population":"1076","region":"44","departement":"88","arrondissement":"881","commune":"88151"},
{"name":"Girancourt","latitude":"48.16361","longitude":"6.30806","population":"836","region":"44","departement":"88","arrondissement":"881","commune":"88201"},
{"name":"Charmois-l'Orgueilleux","latitude":"48.10333","longitude":"6.27056","population":"598","region":"44","departement":"88","arrondissement":"881","commune":"88092"},
{"name":"Harol","latitude":"48.15194","longitude":"6.24722","population":"585","region":"44","departement":"88","arrondissement":"881","commune":"88233"},
{"name":"Haréville","latitude":"48.20583","longitude":"6.00028","population":"535","region":"44","departement":"88","arrondissement":"882","commune":"88231"},
{"name":"Ville-sur-Illon","latitude":"48.17944","longitude":"6.21","population":"510","region":"44","departement":"88","arrondissement":"881","commune":"88508"},
{"name":"Lerrain","latitude":"48.14333","longitude":"6.14778","population":"472","region":"44","departement":"88","arrondissement":"881","commune":"88267"},
{"name":"Escles","latitude":"48.12889","longitude":"6.17778","population":"456","region":"44","departement":"88","arrondissement":"881","commune":"88161"},
{"name":"Hennezel","latitude":"48.05444","longitude":"6.1175","population":"424","region":"44","departement":"88","arrondissement":"881","commune":"88238"},
{"name":"Harsault","latitude":"48.05694","longitude":"6.23778","population":"424","region":"44","departement":"88","arrondissement":"881","commune":"88234"},
{"name":"Dommartin-aux-Bois","latitude":"48.15889","longitude":"6.27472","population":"410","region":"44","departement":"88","arrondissement":"881","commune":"88147"},
{"name":"Madonne-et-Lamerey","latitude":"48.222","longitude":"6.2378","population":"405","region":"44","departement":"88","arrondissement":"881","commune":"88281"},
{"name":"Damas-et-Bettegney","latitude":"48.21","longitude":"6.26306","population":"368","region":"44","departement":"88","arrondissement":"881","commune":"88122"},
{"name":"Hennecourt","latitude":"48.20667","longitude":"6.285","population":"347","region":"44","departement":"88","arrondissement":"881","commune":"88237"},
{"name":"Bonvillet","latitude":"48.0996","longitude":"6.0569","population":"345","region":"44","departement":"88","arrondissement":"881","commune":"88065"},
{"name":"Les Voivres","latitude":"48.03111","longitude":"6.29472","population":"335","region":"44","departement":"88","arrondissement":"881","commune":"88520"},
{"name":"Attigny","latitude":"48.06472","longitude":"6.03583","population":"259","region":"44","departement":"88","arrondissement":"881","commune":"88016"},
{"name":"Valfroicourt","latitude":"48.19778","longitude":"6.09472","population":"252","region":"44","departement":"88","arrondissement":"882","commune":"88488"},
{"name":"Gruey-lès-Surance","latitude":"48.03778","longitude":"6.18417","population":"249","region":"44","departement":"88","arrondissement":"881","commune":"88221"},
{"name":"Relanges","latitude":"48.11278","longitude":"6.01583","population":"216","region":"44","departement":"88","arrondissement":"881","commune":"88381"},
{"name":"Claudon","latitude":"48.03278","longitude":"6.03556","population":"202","region":"44","departement":"88","arrondissement":"881","commune":"88105"},
{"name":"Nonville","latitude":"48.08056","longitude":"5.99","population":"202","region":"44","departement":"88","arrondissement":"881","commune":"88330"},
{"name":"La Neuveville-sous-Montfort","latitude":"48.22444","longitude":"6.01833","population":"176","region":"44","departement":"88","arrondissement":"882","commune":"88325"},
{"name":"Esley","latitude":"48.16944","longitude":"6.05778","population":"175","region":"44","departement":"88","arrondissement":"881","commune":"88162"},
{"name":"Begnécourt","latitude":"48.20583","longitude":"6.15861","population":"171","region":"44","departement":"88","arrondissement":"881","commune":"88047"},
{"name":"Monthureux-le-Sec","latitude":"48.17139","longitude":"6.02556","population":"162","region":"44","departement":"88","arrondissement":"882","commune":"88309"},
{"name":"Valleroy-le-Sec","latitude":"48.18694","longitude":"6.01","population":"162","region":"44","departement":"88","arrondissement":"882","commune":"88490"},
{"name":"Gorhey","latitude":"48.195","longitude":"6.28389","population":"158","region":"44","departement":"88","arrondissement":"881","commune":"88210"},
{"name":"Hautmougey","latitude":"48.02833","longitude":"6.2325","population":"156","region":"44","departement":"88","arrondissement":"881","commune":"88235"},
{"name":"Senonges","latitude":"48.14667","longitude":"6.06194","population":"146","region":"44","departement":"88","arrondissement":"881","commune":"88452"},
{"name":"Thuillières","latitude":"48.155","longitude":"6.01083","population":"144","region":"44","departement":"88","arrondissement":"882","commune":"88472"},
{"name":"La Haye","latitude":"48.06444","longitude":"6.22389","population":"139","region":"44","departement":"88","arrondissement":"881","commune":"88236"},
{"name":"Vioménil","latitude":"48.09361","longitude":"6.18111","population":"137","region":"44","departement":"88","arrondissement":"881","commune":"88515"},
{"name":"Bocquegney","latitude":"48.22028","longitude":"6.30333","population":"132","region":"44","departement":"88","arrondissement":"881","commune":"88063"},
{"name":"Bainville-aux-Saules","latitude":"48.20639","longitude":"6.1375","population":"126","region":"44","departement":"88","arrondissement":"881","commune":"88030"},
{"name":"Jésonville","latitude":"48.12944","longitude":"6.10944","population":"125","region":"44","departement":"88","arrondissement":"881","commune":"88252"},
{"name":"Belmont-lès-Darney","latitude":"48.08583","longitude":"6.01139","population":"122","region":"44","departement":"88","arrondissement":"881","commune":"88049"},
{"name":"Sans-Vallois","latitude":"48.16028","longitude":"6.10639","population":"120","region":"44","departement":"88","arrondissement":"881","commune":"88441"},
{"name":"Belrupt","latitude":"48.08778","longitude":"6.09361","population":"107","region":"44","departement":"88","arrondissement":"881","commune":"88052"},
{"name":"Les Vallois","latitude":"48.1581","longitude":"6.1181","population":"106","region":"44","departement":"88","arrondissement":"881","commune":"88491"},
{"name":"Pierrefitte","latitude":"48.16861","longitude":"6.17611","population":"97","region":"44","departement":"88","arrondissement":"881","commune":"88347"},
{"name":"Dombasle-devant-Darney","latitude":"48.12694","longitude":"6.07667","population":"89","region":"44","departement":"88","arrondissement":"881","commune":"88138"},
{"name":"Saint-Baslemont","latitude":"48.15194","longitude":"5.99306","population":"89","region":"44","departement":"88","arrondissement":"881","commune":"88411"},
{"name":"Pont-lès-Bonfays","latitude":"48.16889","longitude":"6.13278","population":"86","region":"44","departement":"88","arrondissement":"881","commune":"88353"},
{"name":"Gelvécourt-et-Adompt","latitude":"48.20028","longitude":"6.16694","population":"85","region":"44","departement":"88","arrondissement":"881","commune":"88192"},
{"name":"Grandrupt-de-Bains","latitude":"48.06528","longitude":"6.18556","population":"85","region":"44","departement":"88","arrondissement":"881","commune":"88214"},
{"name":"Rancourt","latitude":"48.22083","longitude":"6.10833","population":"64","region":"44","departement":"88","arrondissement":"882","commune":"88370"},
{"name":"Les Ableuvenettes","latitude":"48.19028","longitude":"6.18611","population":"62","region":"44","departement":"88","arrondissement":"881","commune":"88001"},
{"name":"Légéville-et-Bonfays","latitude":"48.18639","longitude":"6.15056","population":"55","region":"44","departement":"88","arrondissement":"881","commune":"88264"},
{"name":"Dommartin-lès-Vallois","latitude":"48.15556","longitude":"6.08639","population":"53","region":"44","departement":"88","arrondissement":"881","commune":"88149"},
{"name":"Frénois","latitude":"48.18861","longitude":"6.12222","population":"43","region":"44","departement":"88","arrondissement":"881","commune":"88187"}
]