[
{"name":"Besançon","latitude":"47.24222","longitude":"6.02139","population":"117392","region":"27","departement":"25","arrondissement":"251","commune":"25056"},
{"name":"Ornans","latitude":"47.10528","longitude":"6.14306","population":"4152","region":"27","departement":"25","arrondissement":"251","commune":"25434"},
{"name":"Saône","latitude":"47.22472","longitude":"6.11778","population":"3225","region":"27","departement":"25","arrondissement":"251","commune":"25532"},
{"name":"École-Valentin","latitude":"47.2725","longitude":"5.9849","population":"2295","region":"27","departement":"25","arrondissement":"251","commune":"25212"},
{"name":"Roche-lez-Beaupré","latitude":"47.2761","longitude":"6.1145","population":"2054","region":"27","departement":"25","arrondissement":"251","commune":"25495"},
{"name":"Mamirolle","latitude":"47.19694","longitude":"6.16167","population":"1685","region":"27","departement":"25","arrondissement":"251","commune":"25364"},
{"name":"Montfaucon","latitude":"47.23444","longitude":"6.08","population":"1520","region":"27","departement":"25","arrondissement":"251","commune":"25395"},
{"name":"Beure","latitude":"47.20806","longitude":"6.00389","population":"1368","region":"27","departement":"25","arrondissement":"251","commune":"25058"},
{"name":"Morre","latitude":"47.22556","longitude":"6.06528","population":"1296","region":"27","departement":"25","arrondissement":"251","commune":"25410"},
{"name":"Nancray","latitude":"47.24528","longitude":"6.18139","population":"1247","region":"27","departement":"25","arrondissement":"251","commune":"25418"},
{"name":"Chalezeule","latitude":"47.25917","longitude":"6.075","population":"1180","region":"27","departement":"25","arrondissement":"251","commune":"25112"},
{"name":"Étalans","latitude":"47.15139","longitude":"6.26833","population":"1133","region":"27","departement":"25","arrondissement":"253","commune":"25222"},
{"name":"Bouclans","latitude":"47.2473","longitude":"6.2369","population":"970","region":"27","departement":"25","arrondissement":"251","commune":"25078"},
{"name":"Fontain","latitude":"47.19861","longitude":"6.02611","population":"949","region":"27","departement":"25","arrondissement":"251","commune":"25245"},
{"name":"Tarcenay","latitude":"47.15611","longitude":"6.1125","population":"932","region":"27","departement":"25","arrondissement":"251","commune":"25558"},
{"name":"Pugey","latitude":"47.18472","longitude":"5.99056","population":"762","region":"27","departement":"25","arrondissement":"251","commune":"25473"},
{"name":"Naisey-les-Granges","latitude":"47.2122","longitude":"6.2378","population":"722","region":"27","departement":"25","arrondissement":"251","commune":"25417"},
{"name":"Vuillafans","latitude":"47.06528","longitude":"6.21639","population":"703","region":"27","departement":"25","arrondissement":"251","commune":"25633"},
{"name":"Gennes","latitude":"47.245","longitude":"6.12111","population":"605","region":"27","departement":"25","arrondissement":"251","commune":"25267"},
{"name":"Montrond-le-Château","latitude":"47.1438","longitude":"6.047","population":"560","region":"27","departement":"25","arrondissement":"251","commune":"25406"},
{"name":"L'Hôpital-du-Grosbois","latitude":"47.17194","longitude":"6.21639","population":"541","region":"27","departement":"25","arrondissement":"251","commune":"25305"},
{"name":"Épeugney","latitude":"47.1175","longitude":"6.02444","population":"523","region":"27","departement":"25","arrondissement":"251","commune":"25220"},
{"name":"Gonsans","latitude":"47.23194","longitude":"6.30028","population":"513","region":"27","departement":"25","arrondissement":"251","commune":"25278"},
{"name":"Montgesoye","latitude":"47.08056","longitude":"6.19111","population":"503","region":"27","departement":"25","arrondissement":"251","commune":"25400"},
{"name":"Trépot","latitude":"47.16667","longitude":"6.15","population":"500","region":"27","departement":"25","arrondissement":"251","commune":"25569"},
{"name":"Mérey-sous-Montrond","latitude":"47.15139","longitude":"6.06861","population":"448","region":"27","departement":"25","arrondissement":"251","commune":"25375"},
{"name":"Foucherans","latitude":"47.1573","longitude":"6.137","population":"442","region":"27","departement":"25","arrondissement":"251","commune":"25250"},
{"name":"La Vèze","latitude":"47.21083","longitude":"6.0675","population":"437","region":"27","departement":"25","arrondissement":"251","commune":"25611"},
{"name":"Vernierfontaine","latitude":"47.10861","longitude":"6.29889","population":"414","region":"27","departement":"25","arrondissement":"253","commune":"25605"},
{"name":"Chantrans","latitude":"47.04333","longitude":"6.15","population":"406","region":"27","departement":"25","arrondissement":"251","commune":"25120"},
{"name":"Chalèze","latitude":"47.26694","longitude":"6.08861","population":"360","region":"27","departement":"25","arrondissement":"251","commune":"25111"},
{"name":"Osse","latitude":"47.26694","longitude":"6.21278","population":"323","region":"27","departement":"25","arrondissement":"251","commune":"25437"},
{"name":"Rurey","latitude":"47.09639","longitude":"6.00917","population":"322","region":"27","departement":"25","arrondissement":"251","commune":"25511"},
{"name":"Scey-Maisières","latitude":"47.1006","longitude":"6.0758","population":"312","region":"27","departement":"25","arrondissement":"251","commune":"25537"},
{"name":"Cléron","latitude":"47.08722","longitude":"6.06139","population":"311","region":"27","departement":"25","arrondissement":"251","commune":"25155"},
{"name":"Fallerans","latitude":"47.13222","longitude":"6.29","population":"255","region":"27","departement":"25","arrondissement":"253","commune":"25233"},
{"name":"Fertans","latitude":"47.05111","longitude":"6.06333","population":"248","region":"27","departement":"25","arrondissement":"251","commune":"25236"},
{"name":"Arguel","latitude":"47.1975","longitude":"6.00194","population":"244","region":"27","departement":"25","arrondissement":"251","commune":"25027"},
{"name":"Guyans-Durnes","latitude":"47.12278","longitude":"6.24361","population":"243","region":"27","departement":"25","arrondissement":"251","commune":"25300"},
{"name":"Lods","latitude":"47.045","longitude":"6.24806","population":"240","region":"27","departement":"25","arrondissement":"251","commune":"25339"},
{"name":"Saules","latitude":"47.12333","longitude":"6.19889","population":"225","region":"27","departement":"25","arrondissement":"251","commune":"25535"},
{"name":"Lavans-Vuillafans","latitude":"47.08639","longitude":"6.24417","population":"218","region":"27","departement":"25","arrondissement":"251","commune":"25331"},
{"name":"Glamondans","latitude":"47.26528","longitude":"6.27778","population":"202","region":"27","departement":"25","arrondissement":"251","commune":"25273"},
{"name":"Charbonnières-les-Sapins","latitude":"47.14694","longitude":"6.215","population":"192","region":"27","departement":"25","arrondissement":"251","commune":"25123"},
{"name":"Villers-sous-Montrond","latitude":"47.145","longitude":"6.08861","population":"174","region":"27","departement":"25","arrondissement":"251","commune":"25628"},
{"name":"Malans","latitude":"47.0475","longitude":"6.0317","population":"161","region":"27","departement":"25","arrondissement":"251","commune":"25359"},
{"name":"Le Gratteris","latitude":"47.18361","longitude":"6.13833","population":"157","region":"27","departement":"25","arrondissement":"251","commune":"25297"},
{"name":"Durnes","latitude":"47.10806","longitude":"6.23139","population":"156","region":"27","departement":"25","arrondissement":"251","commune":"25208"},
{"name":"Malbrans","latitude":"47.12028","longitude":"6.08139","population":"128","region":"27","departement":"25","arrondissement":"251","commune":"25360"},
{"name":"Vauchamps","latitude":"47.2725","longitude":"6.24028","population":"124","region":"27","departement":"25","arrondissement":"251","commune":"25587"},
{"name":"Chassagne-Saint-Denis","latitude":"47.08333","longitude":"6.11417","population":"114","region":"27","departement":"25","arrondissement":"251","commune":"25129"},
{"name":"Lizine","latitude":"47.05639","longitude":"5.99417","population":"97","region":"27","departement":"25","arrondissement":"251","commune":"25338"},
{"name":"Amondans","latitude":"47.06889","longitude":"6.04028","population":"94","region":"27","departement":"25","arrondissement":"251","commune":"25017"},
{"name":"Cademène","latitude":"47.10056","longitude":"6.0275","population":"91","region":"27","departement":"25","arrondissement":"251","commune":"25106"},
{"name":"La Chevillotte","latitude":"47.2203","longitude":"6.1667","population":"88","region":"27","departement":"25","arrondissement":"251","commune":"25152"},
{"name":"Échevannes","latitude":"47.0745","longitude":"6.2315","population":"84","region":"27","departement":"25","arrondissement":"251","commune":"25211"},
{"name":"Côtebrune","latitude":"47.25444","longitude":"6.31222","population":"72","region":"27","departement":"25","arrondissement":"251","commune":"25166"},
{"name":"Voires","latitude":"47.0975","longitude":"6.2475","population":"57","region":"27","departement":"25","arrondissement":"251","commune":"25630"},
{"name":"Magny-Châtelard","latitude":"47.2275","longitude":"6.3224","population":"42","region":"27","departement":"25","arrondissement":"253","commune":"25355"},
{"name":"Verrières-du-Grosbois","latitude":"47.2005","longitude":"6.2774","population":"21","region":"27","departement":"25","arrondissement":"253","commune":"25610"},
{"name":"Châtillon-sur-Lison","latitude":"47.06389","longitude":"5.98222","population":"13","region":"27","departement":"25","arrondissement":"251","commune":"25134"},
{"name":"Châteauvieux-les-Fossés","latitude":"47.0637","longitude":"6.2027","population":"10","region":"27","departement":"25","arrondissement":"251","commune":"25130"}
]