[
{"name":"Pfetterhouse","latitude":"47.5","longitude":"7.16667","population":"1050","region":"44","departement":"68","arrondissement":"681","commune":"68257"},
{"name":"Ferrette","latitude":"47.49389","longitude":"7.31583","population":"873","region":"44","departement":"68","arrondissement":"681","commune":"68090"},
{"name":"Réchésy","latitude":"47.50833","longitude":"7.11306","population":"815","region":"27","departement":"90","arrondissement":"901","commune":"90081"},
{"name":"Vieux-Ferrette","latitude":"47.5025","longitude":"7.29917","population":"598","region":"44","departement":"68","arrondissement":"681","commune":"68347"},
{"name":"Werentzhouse","latitude":"47.51694","longitude":"7.3575","population":"579","region":"44","departement":"68","arrondissement":"681","commune":"68363"},
{"name":"Mœrnach","latitude":"47.50361","longitude":"7.25528","population":"551","region":"44","departement":"68","arrondissement":"681","commune":"68212"},
{"name":"Mooslargue","latitude":"47.5101","longitude":"7.2188","population":"520","region":"44","departement":"68","arrondissement":"681","commune":"68216"},
{"name":"Kœstlach","latitude":"47.50611","longitude":"7.27111","population":"516","region":"44","departement":"68","arrondissement":"681","commune":"68169"},
{"name":"Raedersdorf","latitude":"47.475","longitude":"7.36667","population":"505","region":"44","departement":"68","arrondissement":"681","commune":"68259"},
{"name":"Durlinsdorf","latitude":"47.48583","longitude":"7.24083","population":"476","region":"44","departement":"68","arrondissement":"681","commune":"68074"},
{"name":"Bouxwiller","latitude":"47.505","longitude":"7.34583","population":"457","region":"44","departement":"68","arrondissement":"681","commune":"68049"},
{"name":"Fislis","latitude":"47.50444","longitude":"7.38167","population":"432","region":"44","departement":"68","arrondissement":"681","commune":"68092"},
{"name":"Florimont","latitude":"47.511","longitude":"7.0685","population":"423","region":"27","departement":"90","arrondissement":"901","commune":"90046"},
{"name":"Sondersdorf","latitude":"47.48306","longitude":"7.33528","population":"349","region":"44","departement":"68","arrondissement":"681","commune":"68312"},
{"name":"Winkel","latitude":"47.46111","longitude":"7.26361","population":"348","region":"44","departement":"68","arrondissement":"681","commune":"68373"},
{"name":"Ligsdorf","latitude":"47.4725","longitude":"7.30528","population":"337","region":"44","departement":"68","arrondissement":"681","commune":"68186"},
{"name":"Liebsdorf","latitude":"47.4795","longitude":"7.2314","population":"337","region":"44","departement":"68","arrondissement":"681","commune":"68184"},
{"name":"Courtavon","latitude":"47.4606","longitude":"7.1981","population":"333","region":"44","departement":"68","arrondissement":"681","commune":"68067"},
{"name":"Lutter","latitude":"47.46611","longitude":"7.38111","population":"299","region":"44","departement":"68","arrondissement":"681","commune":"68194"},
{"name":"Levoncourt","latitude":"47.44861","longitude":"7.20444","population":"255","region":"44","departement":"68","arrondissement":"681","commune":"68181"},
{"name":"Kiffis","latitude":"47.44028","longitude":"7.35694","population":"252","region":"44","departement":"68","arrondissement":"681","commune":"68165"},
{"name":"Bendorf","latitude":"47.4875","longitude":"7.28167","population":"231","region":"44","departement":"68","arrondissement":"681","commune":"68025"},
{"name":"Montancy","latitude":"47.3463","longitude":"7.0478","population":"160","region":"27","departement":"25","arrondissement":"252","commune":"25386"},
{"name":"Oberlarg","latitude":"47.4575","longitude":"7.23361","population":"154","region":"44","departement":"68","arrondissement":"681","commune":"68243"},
{"name":"Courcelles","latitude":"47.4984","longitude":"7.0766","population":"120","region":"27","departement":"90","arrondissement":"901","commune":"90027"},
{"name":"Lucelle","latitude":"47.4228","longitude":"7.2476","population":"42","region":"44","departement":"68","arrondissement":"681","commune":"68190"}
]