[
{"name":"Saint-Marcellin","latitude":"45.15167","longitude":"5.31972","population":"8041","region":"84","departement":"38","arrondissement":"381","commune":"38416"},
{"name":"Moirans","latitude":"45.325","longitude":"5.56444","population":"7754","region":"84","departement":"38","arrondissement":"381","commune":"38239"},
{"name":"Tullins","latitude":"45.2975","longitude":"5.48333","population":"7652","region":"84","departement":"38","arrondissement":"381","commune":"38517"},
{"name":"Vinay","latitude":"45.21","longitude":"5.40361","population":"4009","region":"84","departement":"38","arrondissement":"381","commune":"38559"},
{"name":"Renage","latitude":"45.33333","longitude":"5.48528","population":"3752","region":"84","departement":"38","arrondissement":"381","commune":"38332"},
{"name":"La Buisse","latitude":"45.335","longitude":"5.62167","population":"2743","region":"84","departement":"38","arrondissement":"381","commune":"38061"},
{"name":"Lans-en-Vercors","latitude":"45.1278","longitude":"5.5889","population":"2563","region":"84","departement":"38","arrondissement":"381","commune":"38205"},
{"name":"Chatte","latitude":"45.14361","longitude":"5.28306","population":"2431","region":"84","departement":"38","arrondissement":"381","commune":"38095"},
{"name":"Izeaux","latitude":"45.33444","longitude":"5.42417","population":"2106","region":"84","departement":"38","arrondissement":"381","commune":"38194"},
{"name":"Saint-Sauveur","latitude":"45.1525","longitude":"5.34194","population":"1915","region":"84","departement":"38","arrondissement":"381","commune":"38454"},
{"name":"Saint-Vérand","latitude":"45.1728","longitude":"5.3324","population":"1822","region":"84","departement":"38","arrondissement":"381","commune":"38463"},
{"name":"Saint-Romans","latitude":"45.11583","longitude":"5.32694","population":"1729","region":"84","departement":"38","arrondissement":"381","commune":"38453"},
{"name":"Vourey","latitude":"45.32083","longitude":"5.52","population":"1610","region":"84","departement":"38","arrondissement":"381","commune":"38566"},
{"name":"Veurey-Voroize","latitude":"45.27222","longitude":"5.61444","population":"1386","region":"84","departement":"38","arrondissement":"381","commune":"38540"},
{"name":"Autrans-Méaudre en Vercors","latitude":"45.12694","longitude":"5.52694","population":"1321","region":"84","departement":"38","arrondissement":"381","commune":"38225"},
{"name":"Saint-Quentin-sur-Isère","latitude":"45.27917","longitude":"5.54222","population":"1301","region":"84","departement":"38","arrondissement":"381","commune":"38450"},
{"name":"Poliénas","latitude":"45.24889","longitude":"5.47139","population":"1100","region":"84","departement":"38","arrondissement":"381","commune":"38310"},
{"name":"L'Albenc","latitude":"45.225","longitude":"5.44056","population":"1085","region":"84","departement":"38","arrondissement":"381","commune":"38004"},
{"name":"Varacieux","latitude":"45.23194","longitude":"5.3375","population":"795","region":"84","departement":"38","arrondissement":"381","commune":"38523"},
{"name":"Izeron","latitude":"45.14667","longitude":"5.37583","population":"755","region":"84","departement":"38","arrondissement":"381","commune":"38195"},
{"name":"Chevrières","latitude":"45.1875","longitude":"5.29028","population":"680","region":"84","departement":"38","arrondissement":"381","commune":"38099"},
{"name":"Saint-Pierre-de-Bressieux","latitude":"45.31556","longitude":"5.28528","population":"675","region":"84","departement":"38","arrondissement":"381","commune":"38440"},
{"name":"Cognin-les-Gorges","latitude":"45.17083","longitude":"5.41167","population":"648","region":"84","departement":"38","arrondissement":"381","commune":"38117"},
{"name":"La Sône","latitude":"45.11139","longitude":"5.27806","population":"623","region":"84","departement":"38","arrondissement":"381","commune":"38495"},
{"name":"Beaulieu","latitude":"45.1925","longitude":"5.39222","population":"619","region":"84","departement":"38","arrondissement":"381","commune":"38033"},
{"name":"Rovon","latitude":"45.2025","longitude":"5.46139","population":"596","region":"84","departement":"38","arrondissement":"381","commune":"38345"},
{"name":"La Rivière","latitude":"45.23694","longitude":"5.50806","population":"584","region":"84","departement":"38","arrondissement":"381","commune":"38338"},
{"name":"Saint-Gervais","latitude":"45.20167","longitude":"5.48194","population":"566","region":"84","departement":"38","arrondissement":"381","commune":"38390"},
{"name":"Têche","latitude":"45.18278","longitude":"5.38139","population":"549","region":"84","departement":"38","arrondissement":"381","commune":"38500"},
{"name":"Montaud","latitude":"45.26278","longitude":"5.56111","population":"528","region":"84","departement":"38","arrondissement":"381","commune":"38248"},
{"name":"Notre-Dame-de-l'Osier","latitude":"45.23833","longitude":"5.40528","population":"508","region":"84","departement":"38","arrondissement":"381","commune":"38278"},
{"name":"Engins","latitude":"45.18111","longitude":"5.61667","population":"491","region":"84","departement":"38","arrondissement":"381","commune":"38153"},
{"name":"Saint-Geoirs","latitude":"45.32222","longitude":"5.35472","population":"489","region":"84","departement":"38","arrondissement":"381","commune":"38387"},
{"name":"Saint-Pierre-de-Chérennes","latitude":"45.12083","longitude":"5.36222","population":"469","region":"84","departement":"38","arrondissement":"381","commune":"38443"},
{"name":"Cras","latitude":"45.26889","longitude":"5.45","population":"459","region":"84","departement":"38","arrondissement":"381","commune":"38137"},
{"name":"Chasselay","latitude":"45.25583","longitude":"5.33861","population":"434","region":"84","departement":"38","arrondissement":"381","commune":"38086"},
{"name":"Morette","latitude":"45.28556","longitude":"5.45194","population":"390","region":"84","departement":"38","arrondissement":"381","commune":"38263"},
{"name":"Murinais","latitude":"45.21306","longitude":"5.315","population":"385","region":"84","departement":"38","arrondissement":"381","commune":"38272"},
{"name":"Vatilieu","latitude":"45.25611","longitude":"5.41056","population":"377","region":"84","departement":"38","arrondissement":"381","commune":"38526"},
{"name":"Saint-Paul-d'Izeaux","latitude":"45.31667","longitude":"5.42944","population":"320","region":"84","departement":"38","arrondissement":"381","commune":"38437"},
{"name":"Rencurel","latitude":"45.1025","longitude":"5.47278","population":"310","region":"84","departement":"38","arrondissement":"381","commune":"38333"},
{"name":"Chantesse","latitude":"45.24278","longitude":"5.44444","population":"304","region":"84","departement":"38","arrondissement":"381","commune":"38074"},
{"name":"Serre-Nerpol","latitude":"45.2583","longitude":"5.3756","population":"293","region":"84","departement":"38","arrondissement":"381","commune":"38275"},
{"name":"Saint-Michel-de-Saint-Geoirs","latitude":"45.30528","longitude":"5.35583","population":"287","region":"84","departement":"38","arrondissement":"381","commune":"38427"},
{"name":"La Forteresse","latitude":"45.29472","longitude":"5.40361","population":"287","region":"84","departement":"38","arrondissement":"381","commune":"38171"},
{"name":"Plan","latitude":"45.31278","longitude":"5.3925","population":"234","region":"84","departement":"38","arrondissement":"381","commune":"38308"},
{"name":"Brion","latitude":"45.29278","longitude":"5.33833","population":"128","region":"84","departement":"38","arrondissement":"381","commune":"38060"},
{"name":"Presles","latitude":"45.09111","longitude":"5.38306","population":"100","region":"84","departement":"38","arrondissement":"381","commune":"38322"},
{"name":"Bressieux","latitude":"45.3225","longitude":"5.27667","population":"88","region":"84","departement":"38","arrondissement":"381","commune":"38056"},
{"name":"Quincieu","latitude":"45.27556","longitude":"5.38528","population":"72","region":"84","departement":"38","arrondissement":"381","commune":"38330"},
{"name":"Beauvoir-en-Royans","latitude":"45.1206","longitude":"5.3387","population":"71","region":"84","departement":"38","arrondissement":"381","commune":"38036"},
{"name":"Malleval-en-Vercors","latitude":"45.1476","longitude":"5.4377","population":"53","region":"84","departement":"38","arrondissement":"381","commune":"38216"}
]