[
{"name":"Vienne","latitude":"45.52556","longitude":"4.87472","population":"29619","region":"84","departement":"38","arrondissement":"383","commune":"38544"},
{"name":"Rive-de-Gier","latitude":"45.52944","longitude":"4.61694","population":"15295","region":"84","departement":"42","arrondissement":"423","commune":"42186"},
{"name":"Roussillon","latitude":"45.37194","longitude":"4.81167","population":"7961","region":"84","departement":"38","arrondissement":"383","commune":"38344"},
{"name":"Le Péage-de-Roussillon","latitude":"45.37306","longitude":"4.7975","population":"6688","region":"84","departement":"38","arrondissement":"383","commune":"38298"},
{"name":"Saint-Maurice-l'Exil","latitude":"45.39694","longitude":"4.77472","population":"5740","region":"84","departement":"38","arrondissement":"383","commune":"38425"},
{"name":"Chasse-sur-Rhône","latitude":"45.5805","longitude":"4.8005","population":"5153","region":"84","departement":"38","arrondissement":"383","commune":"38087"},
{"name":"Pont-Évêque","latitude":"45.53028","longitude":"4.91111","population":"5070","region":"84","departement":"38","arrondissement":"383","commune":"38318"},
{"name":"Lorette","latitude":"45.51194","longitude":"4.58111","population":"4403","region":"84","departement":"42","arrondissement":"423","commune":"42123"},
{"name":"Salaise-sur-Sanne","latitude":"45.3447","longitude":"4.8194","population":"4188","region":"84","departement":"38","arrondissement":"383","commune":"38468"},
{"name":"Saint-Paul-en-Jarez","latitude":"45.48306","longitude":"4.57444","population":"4090","region":"84","departement":"42","arrondissement":"423","commune":"42271"},
{"name":"Saint-Clair-du-Rhône","latitude":"45.44","longitude":"4.77306","population":"3886","region":"84","departement":"38","arrondissement":"383","commune":"38378"},
{"name":"Condrieu","latitude":"45.4626","longitude":"4.7681","population":"3830","region":"84","departement":"69","arrondissement":"691","commune":"69064"},
{"name":"Genilac","latitude":"45.5319","longitude":"4.5827","population":"3696","region":"84","departement":"42","arrondissement":"423","commune":"42225"},
{"name":"Saint-Martin-la-Plaine","latitude":"45.5454","longitude":"4.5935","population":"3667","region":"84","departement":"42","arrondissement":"423","commune":"42259"},
{"name":"Pélussin","latitude":"45.41833","longitude":"4.68083","population":"3494","region":"84","departement":"42","arrondissement":"423","commune":"42168"},
{"name":"Chavanay","latitude":"45.41472","longitude":"4.73111","population":"2796","region":"84","departement":"42","arrondissement":"423","commune":"42056"},
{"name":"Ampuis","latitude":"45.48917","longitude":"4.81","population":"2626","region":"84","departement":"69","arrondissement":"691","commune":"69007"},
{"name":"Loire-sur-Rhône","latitude":"45.5607","longitude":"4.8068","population":"2382","region":"84","departement":"69","arrondissement":"691","commune":"69118"},
{"name":"Jardin","latitude":"45.49639","longitude":"4.90833","population":"2228","region":"84","departement":"38","arrondissement":"383","commune":"38199"},
{"name":"Saint-Maurice-sur-Dargoire","latitude":"45.58222","longitude":"4.63111","population":"2157","region":"84","departement":"69","arrondissement":"691","commune":"69228"},
{"name":"Seyssuel","latitude":"45.56","longitude":"4.84556","population":"1980","region":"84","departement":"38","arrondissement":"383","commune":"38487"},
{"name":"Les Roches-de-Condrieu","latitude":"45.45306","longitude":"4.76778","population":"1949","region":"84","departement":"38","arrondissement":"383","commune":"38340"},
{"name":"Les Côtes-d'Arey","latitude":"45.4563","longitude":"4.868","population":"1927","region":"84","departement":"38","arrondissement":"383","commune":"38131"},
{"name":"Sainte-Colombe","latitude":"45.52528","longitude":"4.86667","population":"1917","region":"84","departement":"69","arrondissement":"691","commune":"69189"},
{"name":"Saint-Joseph","latitude":"45.55694","longitude":"4.61778","population":"1846","region":"84","departement":"42","arrondissement":"423","commune":"42242"},
{"name":"Reventin-Vaugris","latitude":"45.46806","longitude":"4.84083","population":"1738","region":"84","departement":"38","arrondissement":"383","commune":"38336"},
{"name":"Saint-Romain-en-Gal","latitude":"45.5325","longitude":"4.86194","population":"1681","region":"84","departement":"69","arrondissement":"691","commune":"69235"},
{"name":"Maclas","latitude":"45.3627","longitude":"4.6853","population":"1652","region":"84","departement":"42","arrondissement":"423","commune":"42129"},
{"name":"Saint-Pierre-de-Bœuf","latitude":"45.3825","longitude":"4.7501","population":"1609","region":"84","departement":"42","arrondissement":"423","commune":"42272"},
{"name":"Chonas-l'Amballan","latitude":"45.46083","longitude":"4.81167","population":"1534","region":"84","departement":"38","arrondissement":"383","commune":"38107"},
{"name":"Échalas","latitude":"45.55194","longitude":"4.71556","population":"1498","region":"84","departement":"69","arrondissement":"691","commune":"69080"},
{"name":"Clonas-sur-Varèze","latitude":"45.41417","longitude":"4.79083","population":"1470","region":"84","departement":"38","arrondissement":"383","commune":"38114"},
{"name":"Serpaize","latitude":"45.55889","longitude":"4.91806","population":"1464","region":"84","departement":"38","arrondissement":"383","commune":"38484"},
{"name":"Châteauneuf","latitude":"45.522","longitude":"4.625","population":"1462","region":"84","departement":"42","arrondissement":"423","commune":"42053"},
{"name":"Auberives-sur-Varèze","latitude":"45.42444","longitude":"4.81806","population":"1459","region":"84","departement":"38","arrondissement":"383","commune":"38019"},
{"name":"Farnay","latitude":"45.49361","longitude":"4.59778","population":"1314","region":"84","departement":"42","arrondissement":"423","commune":"42093"},
{"name":"Sonnay","latitude":"45.35472","longitude":"4.90694","population":"1303","region":"84","departement":"38","arrondissement":"383","commune":"38496"},
{"name":"Assieu","latitude":"45.40722","longitude":"4.86806","population":"1296","region":"84","departement":"38","arrondissement":"383","commune":"38017"},
{"name":"Saint-Cyr-sur-le-Rhône","latitude":"45.51583","longitude":"4.8525","population":"1196","region":"84","departement":"69","arrondissement":"691","commune":"69193"},
{"name":"Vernioz","latitude":"45.4221","longitude":"4.9058","population":"1182","region":"84","departement":"38","arrondissement":"383","commune":"38536"},
{"name":"Saint-Prim","latitude":"45.44361","longitude":"4.79333","population":"1179","region":"84","departement":"38","arrondissement":"383","commune":"38448"},
{"name":"Ville-sous-Anjou","latitude":"45.36194","longitude":"4.86361","population":"1133","region":"84","departement":"38","arrondissement":"383","commune":"38556"},
{"name":"Cheyssieu","latitude":"45.42889","longitude":"4.83972","population":"1035","region":"84","departement":"38","arrondissement":"383","commune":"38101"},
{"name":"Anjou","latitude":"45.34694","longitude":"4.88194","population":"973","region":"84","departement":"38","arrondissement":"383","commune":"38009"},
{"name":"Agnin","latitude":"45.34","longitude":"4.85722","population":"948","region":"84","departement":"38","arrondissement":"383","commune":"38003"},
{"name":"Saint-Alban-du-Rhône","latitude":"45.42667","longitude":"4.75528","population":"879","region":"84","departement":"38","arrondissement":"383","commune":"38353"},
{"name":"Roisey","latitude":"45.3879","longitude":"4.6727","population":"875","region":"84","departement":"42","arrondissement":"423","commune":"42191"},
{"name":"Longes","latitude":"45.50472","longitude":"4.68861","population":"849","region":"84","departement":"69","arrondissement":"691","commune":"69119"},
{"name":"Saint-Jean-de-Touslas","latitude":"45.57722","longitude":"4.66167","population":"825","region":"84","departement":"69","arrondissement":"691","commune":"69213"},
{"name":"Doizieux","latitude":"45.4275","longitude":"4.5863","population":"816","region":"84","departement":"42","arrondissement":"423","commune":"42085"},
{"name":"Limony","latitude":"45.35194","longitude":"4.75778","population":"786","region":"84","departement":"07","arrondissement":"073","commune":"07143"},
{"name":"Véranne","latitude":"45.36833","longitude":"4.66278","population":"770","region":"84","departement":"42","arrondissement":"423","commune":"42326"},
{"name":"Saint-Michel-sur-Rhône","latitude":"45.44611","longitude":"4.74472","population":"756","region":"84","departement":"42","arrondissement":"423","commune":"42265"},
{"name":"Tartaras","latitude":"45.55389","longitude":"4.66861","population":"753","region":"84","departement":"42","arrondissement":"423","commune":"42307"},
{"name":"Chuyer","latitude":"45.45722","longitude":"4.69361","population":"751","region":"84","departement":"42","arrondissement":"423","commune":"42064"},
{"name":"La Terrasse-sur-Dorlay","latitude":"45.44833","longitude":"4.58333","population":"749","region":"84","departement":"42","arrondissement":"423","commune":"42308"},
{"name":"Les Haies","latitude":"45.50417","longitude":"4.7475","population":"731","region":"84","departement":"69","arrondissement":"691","commune":"69097"},
{"name":"Vérin","latitude":"45.45417","longitude":"4.7525","population":"697","region":"84","departement":"42","arrondissement":"423","commune":"42327"},
{"name":"Trèves","latitude":"45.53944","longitude":"4.67611","population":"687","region":"84","departement":"69","arrondissement":"691","commune":"69252"},
{"name":"La Chapelle-de-Surieu","latitude":"45.39111","longitude":"4.91","population":"673","region":"84","departement":"38","arrondissement":"383","commune":"38077"},
{"name":"Tupin-et-Semons","latitude":"45.47833","longitude":"4.77611","population":"625","region":"84","departement":"69","arrondissement":"691","commune":"69253"},
{"name":"Saint-Appolinard","latitude":"45.34194","longitude":"4.65222","population":"607","region":"84","departement":"42","arrondissement":"423","commune":"42201"},
{"name":"La Chapelle-Villars","latitude":"45.4725","longitude":"4.71639","population":"554","region":"84","departement":"42","arrondissement":"423","commune":"42051"},
{"name":"Malleval","latitude":"45.38389","longitude":"4.72667","population":"544","region":"84","departement":"42","arrondissement":"423","commune":"42132"},
{"name":"Saint-Romain-en-Gier","latitude":"45.56528","longitude":"4.70694","population":"496","region":"84","departement":"69","arrondissement":"691","commune":"69236"},
{"name":"Dargoire","latitude":"45.56028","longitude":"4.66806","population":"436","region":"84","departement":"42","arrondissement":"423","commune":"42083"},
{"name":"Sainte-Croix-en-Jarez","latitude":"45.47944","longitude":"4.64722","population":"430","region":"84","departement":"42","arrondissement":"423","commune":"42210"},
{"name":"Bessey","latitude":"45.38583","longitude":"4.69528","population":"390","region":"84","departement":"42","arrondissement":"423","commune":"42018"},
{"name":"Pavezin","latitude":"45.46556","longitude":"4.67083","population":"315","region":"84","departement":"42","arrondissement":"423","commune":"42167"},
{"name":"Saint-Romain-de-Surieu","latitude":"45.38639","longitude":"4.88333","population":"314","region":"84","departement":"38","arrondissement":"383","commune":"38452"},
{"name":"Colombier","latitude":"45.3375","longitude":"4.6007","population":"313","region":"84","departement":"42","arrondissement":"423","commune":"42067"},
{"name":"Lupé","latitude":"45.37278","longitude":"4.70444","population":"312","region":"84","departement":"42","arrondissement":"423","commune":"42124"}
]