[
{"name":"Dieuze","latitude":"48.81218","longitude":"6.72071","population":"3832","region":"44","departement":"57","arrondissement":"572","commune":"57177"},
{"name":"Fénétrange","latitude":"48.84556","longitude":"7.01972","population":"724","region":"44","departement":"57","arrondissement":"575","commune":"57210"},
{"name":"Imling","latitude":"48.71944","longitude":"7.02389","population":"693","region":"44","departement":"57","arrondissement":"575","commune":"57344"},
{"name":"Val-de-Bride","latitude":"48.825","longitude":"6.6986","population":"631","region":"44","departement":"57","arrondissement":"572","commune":"57270"},
{"name":"Gosselming","latitude":"48.79228","longitude":"7.00172","population":"625","region":"44","departement":"57","arrondissement":"575","commune":"57255"},
{"name":"Mittersheim","latitude":"48.86111","longitude":"6.94194","population":"603","region":"44","departement":"57","arrondissement":"575","commune":"57469"},
{"name":"Vergaville","latitude":"48.83783","longitude":"6.74355","population":"564","region":"44","departement":"57","arrondissement":"572","commune":"57706"},
{"name":"Bénestroff","latitude":"48.9042","longitude":"6.7598","population":"518","region":"44","departement":"57","arrondissement":"572","commune":"57060"},
{"name":"Berthelming","latitude":"48.81611","longitude":"7.00583","population":"514","region":"44","departement":"57","arrondissement":"575","commune":"57066"},
{"name":"Langatte","latitude":"48.75583","longitude":"6.98083","population":"500","region":"44","departement":"57","arrondissement":"575","commune":"57382"},
{"name":"Héming","latitude":"48.69417","longitude":"6.96667","population":"494","region":"44","departement":"57","arrondissement":"575","commune":"57314"},
{"name":"Maizières-lès-Vic","latitude":"48.71917","longitude":"6.775","population":"483","region":"44","departement":"57","arrondissement":"572","commune":"57434"},
{"name":"Vibersviller","latitude":"48.9146","longitude":"6.94387","population":"450","region":"44","departement":"57","arrondissement":"572","commune":"57711"},
{"name":"Bettborn","latitude":"48.80083","longitude":"7.02139","population":"425","region":"44","departement":"57","arrondissement":"575","commune":"57071"},
{"name":"Nébing","latitude":"48.90444","longitude":"6.81056","population":"371","region":"44","departement":"57","arrondissement":"572","commune":"57496"},
{"name":"Dolving","latitude":"48.77531","longitude":"7.02129","population":"365","region":"44","departement":"57","arrondissement":"575","commune":"57180"},
{"name":"Romelfing","latitude":"48.83028","longitude":"7.025","population":"363","region":"44","departement":"57","arrondissement":"575","commune":"57592"},
{"name":"Xouaxange","latitude":"48.69667","longitude":"6.99722","population":"345","region":"44","departement":"57","arrondissement":"575","commune":"57756"},
{"name":"Saint-Jean-de-Bassel","latitude":"48.80361","longitude":"6.99056","population":"337","region":"44","departement":"57","arrondissement":"575","commune":"57613"},
{"name":"Haut-Clocher","latitude":"48.75861","longitude":"7.00056","population":"337","region":"44","departement":"57","arrondissement":"575","commune":"57304"},
{"name":"Loudrefing","latitude":"48.85194","longitude":"6.87917","population":"293","region":"44","departement":"57","arrondissement":"572","commune":"57418"},
{"name":"Bourgaltroff","latitude":"48.86861","longitude":"6.75889","population":"282","region":"44","departement":"57","arrondissement":"572","commune":"57098"},
{"name":"Bourdonnay","latitude":"48.72","longitude":"6.72889","population":"259","region":"44","departement":"57","arrondissement":"572","commune":"57099"},
{"name":"Belles-Forêts","latitude":"48.8052","longitude":"6.893","population":"253","region":"44","departement":"57","arrondissement":"575","commune":"57086"},
{"name":"Gelucourt","latitude":"48.76472","longitude":"6.72639","population":"237","region":"44","departement":"57","arrondissement":"572","commune":"57246"},
{"name":"Diane-Capelle","latitude":"48.72889","longitude":"6.93389","population":"220","region":"44","departement":"57","arrondissement":"575","commune":"57175"},
{"name":"Munster","latitude":"48.91556","longitude":"6.90583","population":"217","region":"44","departement":"57","arrondissement":"572","commune":"57494"},
{"name":"Lindre-Basse","latitude":"48.80222","longitude":"6.7475","population":"215","region":"44","departement":"57","arrondissement":"572","commune":"57404"},
{"name":"Donnelay","latitude":"48.75222","longitude":"6.68111","population":"201","region":"44","departement":"57","arrondissement":"572","commune":"57183"},
{"name":"Languimberg","latitude":"48.74611","longitude":"6.85944","population":"198","region":"44","departement":"57","arrondissement":"575","commune":"57383"},
{"name":"Rodalbe","latitude":"48.90833","longitude":"6.70278","population":"194","region":"44","departement":"57","arrondissement":"572","commune":"57587"},
{"name":"Lagarde","latitude":"48.69139","longitude":"6.705","population":"194","region":"44","departement":"57","arrondissement":"572","commune":"57375"},
{"name":"Insviller","latitude":"48.88806","longitude":"6.89639","population":"192","region":"44","departement":"57","arrondissement":"572","commune":"57347"},
{"name":"Fribourg","latitude":"48.76649","longitude":"6.85753","population":"171","region":"44","departement":"57","arrondissement":"575","commune":"57241"},
{"name":"Guéblange-lès-Dieuze","latitude":"48.775","longitude":"6.70028","population":"171","region":"44","departement":"57","arrondissement":"572","commune":"57266"},
{"name":"Bébing","latitude":"48.7125","longitude":"6.9965","population":"165","region":"44","departement":"57","arrondissement":"575","commune":"57056"},
{"name":"Torcheville","latitude":"48.90972","longitude":"6.84889","population":"147","region":"44","departement":"57","arrondissement":"572","commune":"57675"},
{"name":"Assenoncourt","latitude":"48.77139","longitude":"6.79583","population":"140","region":"44","departement":"57","arrondissement":"575","commune":"57035"},
{"name":"Guébling","latitude":"48.86257","longitude":"6.74543","population":"139","region":"44","departement":"57","arrondissement":"572","commune":"57268"},
{"name":"Lhor","latitude":"48.88917","longitude":"6.86944","population":"138","region":"44","departement":"57","arrondissement":"572","commune":"57410"},
{"name":"Kerprich-aux-Bois","latitude":"48.73889","longitude":"6.96028","population":"135","region":"44","departement":"57","arrondissement":"575","commune":"57362"},
{"name":"Bassing","latitude":"48.86889","longitude":"6.80167","population":"133","region":"44","departement":"57","arrondissement":"572","commune":"57053"},
{"name":"Bidestroff","latitude":"48.84889","longitude":"6.78694","population":"128","region":"44","departement":"57","arrondissement":"572","commune":"57081"},
{"name":"Vahl-lès-Bénestroff","latitude":"48.91306","longitude":"6.78611","population":"125","region":"44","departement":"57","arrondissement":"572","commune":"57685"},
{"name":"Cutting","latitude":"48.84889","longitude":"6.83444","population":"118","region":"44","departement":"57","arrondissement":"572","commune":"57161"},
{"name":"Azoudange","latitude":"48.73917","longitude":"6.81194","population":"113","region":"44","departement":"57","arrondissement":"575","commune":"57044"},
{"name":"Barchain","latitude":"48.70722","longitude":"6.96222","population":"108","region":"44","departement":"57","arrondissement":"575","commune":"57050"},
{"name":"Ommeray","latitude":"48.72333","longitude":"6.68722","population":"106","region":"44","departement":"57","arrondissement":"572","commune":"57524"},
{"name":"Desseling","latitude":"48.78472","longitude":"6.84417","population":"104","region":"44","departement":"57","arrondissement":"575","commune":"57173"},
{"name":"Domnom-lès-Dieuze","latitude":"48.861","longitude":"6.8228","population":"100","region":"44","departement":"57","arrondissement":"572","commune":"57181"},
{"name":"Rhodes","latitude":"48.75924","longitude":"6.8977","population":"94","region":"44","departement":"57","arrondissement":"575","commune":"57579"},
{"name":"Guermange","latitude":"48.79444","longitude":"6.81139","population":"91","region":"44","departement":"57","arrondissement":"575","commune":"57272"},
{"name":"Lidrezing","latitude":"48.88361","longitude":"6.69778","population":"89","region":"44","departement":"57","arrondissement":"572","commune":"57401"},
{"name":"Guinzeling","latitude":"48.87917","longitude":"6.8425","population":"79","region":"44","departement":"57","arrondissement":"572","commune":"57278"},
{"name":"Lostroff","latitude":"48.85889","longitude":"6.85306","population":"74","region":"44","departement":"57","arrondissement":"572","commune":"57417"},
{"name":"Zarbeling","latitude":"48.89083","longitude":"6.68778","population":"67","region":"44","departement":"57","arrondissement":"572","commune":"57759"},
{"name":"Tarquimpol","latitude":"48.78472","longitude":"6.75833","population":"67","region":"44","departement":"57","arrondissement":"572","commune":"57664"},
{"name":"Guébestroff","latitude":"48.83037","longitude":"6.71797","population":"64","region":"44","departement":"57","arrondissement":"572","commune":"57265"},
{"name":"Lindre-Haute","latitude":"48.81361","longitude":"6.75056","population":"63","region":"44","departement":"57","arrondissement":"572","commune":"57405"},
{"name":"Rorbach-lès-Dieuze","latitude":"48.83","longitude":"6.84278","population":"57","region":"44","departement":"57","arrondissement":"572","commune":"57595"},
{"name":"Marimont-lès-Bénestroff","latitude":"48.8889","longitude":"6.7841","population":"47","region":"44","departement":"57","arrondissement":"572","commune":"57446"},
{"name":"Zommange","latitude":"48.82393","longitude":"6.80569","population":"36","region":"44","departement":"57","arrondissement":"572","commune":"57763"},
{"name":"Molring","latitude":"48.88639","longitude":"6.82139","population":"9","region":"44","departement":"57","arrondissement":"572","commune":"57470"}
]