[
{"name":"Landiras","latitude":"44.5675","longitude":"-0.41528","population":"2061","region":"75","departement":"33","arrondissement":"333","commune":"33225"},
{"name":"Saint-Symphorien","latitude":"44.42806","longitude":"-0.49","population":"1729","region":"75","departement":"33","arrondissement":"333","commune":"33484"},
{"name":"Noaillan","latitude":"44.47944","longitude":"-0.36639","population":"1497","region":"75","departement":"33","arrondissement":"333","commune":"33307"},
{"name":"Hostens","latitude":"44.49306","longitude":"-0.63917","population":"1284","region":"75","departement":"33","arrondissement":"333","commune":"33202"},
{"name":"Préchac","latitude":"44.39972","longitude":"-0.35333","population":"1028","region":"75","departement":"33","arrondissement":"333","commune":"33336"},
{"name":"Saint-Magne","latitude":"44.52694","longitude":"-0.65778","population":"992","region":"75","departement":"33","arrondissement":"336","commune":"33436"},
{"name":"Villandraut","latitude":"44.45722","longitude":"-0.37222","population":"954","region":"75","departement":"33","arrondissement":"333","commune":"33547"},
{"name":"Pujols-sur-Ciron","latitude":"44.56194","longitude":"-0.35417","population":"726","region":"75","departement":"33","arrondissement":"333","commune":"33343"},
{"name":"Louchats","latitude":"44.5125","longitude":"-0.56722","population":"712","region":"75","departement":"33","arrondissement":"333","commune":"33251"},
{"name":"Budos","latitude":"44.53333","longitude":"-0.38556","population":"706","region":"75","departement":"33","arrondissement":"333","commune":"33076"},
{"name":"Léogeats","latitude":"44.51194","longitude":"-0.36667","population":"706","region":"75","departement":"33","arrondissement":"333","commune":"33237"},
{"name":"Bommes","latitude":"44.5464","longitude":"-0.3556","population":"475","region":"75","departement":"33","arrondissement":"333","commune":"33060"},
{"name":"Balizac","latitude":"44.48722","longitude":"-0.44417","population":"434","region":"75","departement":"33","arrondissement":"333","commune":"33026"},
{"name":"Guillos","latitude":"44.54806","longitude":"-0.5025","population":"408","region":"75","departement":"33","arrondissement":"333","commune":"33197"},
{"name":"Saint-Léger-de-Balson","latitude":"44.43194","longitude":"-0.46583","population":"317","region":"75","departement":"33","arrondissement":"333","commune":"33429"},
{"name":"Cazalis","latitude":"44.3421","longitude":"-0.379","population":"226","region":"75","departement":"33","arrondissement":"333","commune":"33115"},
{"name":"Le Tuzan","latitude":"44.45028","longitude":"-0.57667","population":"224","region":"75","departement":"33","arrondissement":"333","commune":"33536"},
{"name":"Belhade","latitude":"44.37806","longitude":"-0.68389","population":"181","region":"75","departement":"40","arrondissement":"402","commune":"40032"},
{"name":"Origne","latitude":"44.4925","longitude":"-0.50194","population":"174","region":"75","departement":"33","arrondissement":"333","commune":"33310"},
{"name":"Mano","latitude":"44.4177","longitude":"-0.6715","population":"106","region":"75","departement":"40","arrondissement":"402","commune":"40171"},
{"name":"Argelouse","latitude":"44.36611","longitude":"-0.64639","population":"94","region":"75","departement":"40","arrondissement":"402","commune":"40008"},
{"name":"Bourideys","latitude":"44.3682","longitude":"-0.4528","population":"90","region":"75","departement":"33","arrondissement":"333","commune":"33068"}
]