[
{"name":"Neufchâtel-en-Bray","latitude":"49.73389","longitude":"1.44056","population":"4872","region":"28","departement":"76","arrondissement":"761","commune":"76462"},
{"name":"Forges-les-Eaux","latitude":"49.6125","longitude":"1.54472","population":"3505","region":"28","departement":"76","arrondissement":"761","commune":"76276"},
{"name":"Aumale","latitude":"49.77083","longitude":"1.75194","population":"2405","region":"28","departement":"76","arrondissement":"761","commune":"76035"},
{"name":"Formerie","latitude":"49.65056","longitude":"1.72972","population":"2108","region":"32","departement":"60","arrondissement":"601","commune":"60245"},
{"name":"Gaillefontaine","latitude":"49.65361","longitude":"1.61611","population":"1348","region":"28","departement":"76","arrondissement":"761","commune":"76295"},
{"name":"Serqueux","latitude":"49.63167","longitude":"1.53806","population":"1031","region":"28","departement":"76","arrondissement":"761","commune":"76672"},
{"name":"Sommery","latitude":"49.63444","longitude":"1.44","population":"787","region":"28","departement":"76","arrondissement":"761","commune":"76678"},
{"name":"Criquiers","latitude":"49.67444","longitude":"1.70583","population":"667","region":"28","departement":"76","arrondissement":"761","commune":"76199"},
{"name":"Vieux-Rouen-sur-Bresle","latitude":"49.83389","longitude":"1.72028","population":"659","region":"28","departement":"76","arrondissement":"761","commune":"76739"},
{"name":"Saint-Saire","latitude":"49.69389","longitude":"1.49278","population":"612","region":"28","departement":"76","arrondissement":"761","commune":"76649"},
{"name":"Neuville-Ferrières","latitude":"49.71139","longitude":"1.45778","population":"596","region":"28","departement":"76","arrondissement":"761","commune":"76465"},
{"name":"Campeaux","latitude":"49.61944","longitude":"1.75639","population":"533","region":"32","departement":"60","arrondissement":"601","commune":"60122"},
{"name":"Conteville","latitude":"49.6944","longitude":"1.6352","population":"506","region":"28","departement":"76","arrondissement":"761","commune":"76186"},
{"name":"Saint-Léger-aux-Bois","latitude":"49.83389","longitude":"1.61083","population":"497","region":"28","departement":"76","arrondissement":"761","commune":"76598"},
{"name":"Callengeville","latitude":"49.8105","longitude":"1.5209","population":"482","region":"28","departement":"76","arrondissement":"761","commune":"76122"},
{"name":"Richemont","latitude":"49.80861","longitude":"1.64472","population":"482","region":"28","departement":"76","arrondissement":"761","commune":"76527"},
{"name":"Beaubec-la-Rosière","latitude":"49.64556","longitude":"1.53028","population":"466","region":"28","departement":"76","arrondissement":"761","commune":"76060"},
{"name":"Haudricourt","latitude":"49.73333","longitude":"1.705","population":"459","region":"28","departement":"76","arrondissement":"761","commune":"76344"},
{"name":"Roncherolles-en-Bray","latitude":"49.61583","longitude":"1.46722","population":"452","region":"28","departement":"76","arrondissement":"761","commune":"76535"},
{"name":"Le Caule-Sainte-Beuve","latitude":"49.77361","longitude":"1.58889","population":"448","region":"28","departement":"76","arrondissement":"761","commune":"76166"},
{"name":"Quièvrecourt","latitude":"49.73361","longitude":"1.42222","population":"446","region":"28","departement":"76","arrondissement":"761","commune":"76516"},
{"name":"Beaussault","latitude":"49.685","longitude":"1.5625","population":"390","region":"28","departement":"76","arrondissement":"761","commune":"76065"},
{"name":"Illois","latitude":"49.75","longitude":"1.65","population":"323","region":"28","departement":"76","arrondissement":"761","commune":"76372"},
{"name":"Nesle-Hodeng","latitude":"49.70611","longitude":"1.50389","population":"310","region":"28","departement":"76","arrondissement":"761","commune":"76459"},
{"name":"Sainte-Geneviève","latitude":"49.65851","longitude":"1.42294","population":"283","region":"28","departement":"76","arrondissement":"761","commune":"76578"},
{"name":"Haucourt","latitude":"49.64083","longitude":"1.65972","population":"259","region":"28","departement":"76","arrondissement":"761","commune":"76343"},
{"name":"Saint-Martin-l'Hortier","latitude":"49.74306","longitude":"1.4075","population":"247","region":"28","departement":"76","arrondissement":"761","commune":"76620"},
{"name":"Mesnil-Mauger","latitude":"49.6725","longitude":"1.51778","population":"240","region":"28","departement":"76","arrondissement":"761","commune":"76432"},
{"name":"Bouelles","latitude":"49.71361","longitude":"1.49556","population":"237","region":"28","departement":"76","arrondissement":"761","commune":"76130"},
{"name":"Lannoy-Cuillère","latitude":"49.70778","longitude":"1.74778","population":"223","region":"32","departement":"60","arrondissement":"601","commune":"60347"},
{"name":"Le Thil-Riberpré","latitude":"49.64333","longitude":"1.57889","population":"223","region":"28","departement":"76","arrondissement":"761","commune":"76691"},
{"name":"Clais","latitude":"49.80778","longitude":"1.44944","population":"220","region":"28","departement":"76","arrondissement":"761","commune":"76175"},
{"name":"Saint-Germain-sur-Eaulne","latitude":"49.76556","longitude":"1.50611","population":"211","region":"28","departement":"76","arrondissement":"761","commune":"76584"},
{"name":"Marques","latitude":"49.78389","longitude":"1.68917","population":"211","region":"28","departement":"76","arrondissement":"761","commune":"76411"},
{"name":"Aubermesnil-aux-Érables","latitude":"49.8258","longitude":"1.5677","population":"203","region":"28","departement":"76","arrondissement":"761","commune":"76029"},
{"name":"Aubéguimont","latitude":"49.80778","longitude":"1.67306","population":"200","region":"28","departement":"76","arrondissement":"761","commune":"76028"},
{"name":"Sainte-Beuve-en-Rivière","latitude":"49.76194","longitude":"1.52861","population":"195","region":"28","departement":"76","arrondissement":"761","commune":"76567"},
{"name":"Ménonval","latitude":"49.77222","longitude":"1.4925","population":"192","region":"28","departement":"76","arrondissement":"761","commune":"76424"},
{"name":"Rétonval","latitude":"49.82","longitude":"1.59333","population":"192","region":"28","departement":"76","arrondissement":"761","commune":"76523"},
{"name":"Saint-Germain-sur-Bresle","latitude":"49.83056","longitude":"1.73306","population":"189","region":"32","departement":"80","arrondissement":"802","commune":"80703"},
{"name":"Ronchois","latitude":"49.72306","longitude":"1.6275","population":"183","region":"28","departement":"76","arrondissement":"761","commune":"76537"},
{"name":"Saint-Martin-au-Bosc","latitude":"49.83167","longitude":"1.66056","population":"179","region":"28","departement":"76","arrondissement":"761","commune":"76612"},
{"name":"Bailleul-Neuville","latitude":"49.80972","longitude":"1.4225","population":"174","region":"28","departement":"76","arrondissement":"761","commune":"76052"},
{"name":"Morienne","latitude":"49.78194","longitude":"1.70972","population":"172","region":"28","departement":"76","arrondissement":"761","commune":"76606"},
{"name":"Bouvresse","latitude":"49.6525","longitude":"1.755","population":"170","region":"32","departement":"60","arrondissement":"601","commune":"60098"},
{"name":"Lucy","latitude":"49.78056","longitude":"1.45139","population":"168","region":"28","departement":"76","arrondissement":"761","commune":"76399"},
{"name":"Flamets-Frétils","latitude":"49.73306","longitude":"1.58","population":"167","region":"28","departement":"76","arrondissement":"761","commune":"76265"},
{"name":"Fontaine-en-Bray","latitude":"49.67556","longitude":"1.42667","population":"158","region":"28","departement":"76","arrondissement":"761","commune":"76269"},
{"name":"Compainville","latitude":"49.66222","longitude":"1.55944","population":"145","region":"28","departement":"76","arrondissement":"761","commune":"76185"},
{"name":"Landes-Vieilles-et-Neuves","latitude":"49.7871","longitude":"1.6298","population":"134","region":"28","departement":"76","arrondissement":"761","commune":"76381"},
{"name":"Ellecourt","latitude":"49.79778","longitude":"1.715","population":"133","region":"28","departement":"76","arrondissement":"761","commune":"76233"},
{"name":"Fréauville","latitude":"49.82528","longitude":"1.41611","population":"133","region":"28","departement":"76","arrondissement":"761","commune":"76280"},
{"name":"Graval","latitude":"49.7275","longitude":"1.54139","population":"128","region":"28","departement":"76","arrondissement":"761","commune":"76323"},
{"name":"Baillolet","latitude":"49.79306","longitude":"1.43778","population":"128","region":"28","departement":"76","arrondissement":"761","commune":"76053"},
{"name":"Nullemont","latitude":"49.76806","longitude":"1.64","population":"125","region":"28","departement":"76","arrondissement":"761","commune":"76479"},
{"name":"Fesques","latitude":"49.78972","longitude":"1.47667","population":"125","region":"28","departement":"76","arrondissement":"761","commune":"76262"},
{"name":"Vatierville","latitude":"49.79111","longitude":"1.5225","population":"115","region":"28","departement":"76","arrondissement":"761","commune":"76724"},
{"name":"Mortemer","latitude":"49.75","longitude":"1.55","population":"107","region":"28","departement":"76","arrondissement":"761","commune":"76454"},
{"name":"Auvilliers","latitude":"49.75944","longitude":"1.57611","population":"102","region":"28","departement":"76","arrondissement":"761","commune":"76042"},
{"name":"Boutavent","latitude":"49.6431","longitude":"1.7567","population":"75","region":"32","departement":"60","arrondissement":"601","commune":"60096"},
{"name":"Longmesnil","latitude":"49.61361","longitude":"1.61083","population":"61","region":"28","departement":"76","arrondissement":"761","commune":"76393"},
{"name":"Saint-Valery","latitude":"49.7259","longitude":"1.7351","population":"59","region":"32","departement":"60","arrondissement":"601","commune":"60602"}
]