[
{"name":"Questembert","latitude":"47.66139","longitude":"-2.45306","population":"7021","region":"53","departement":"56","arrondissement":"563","commune":"56184"},
{"name":"Nivillac","latitude":"47.53333","longitude":"-2.28333","population":"3986","region":"53","departement":"56","arrondissement":"563","commune":"56147"},
{"name":"Allaire","latitude":"47.63694","longitude":"-2.16278","population":"3609","region":"53","departement":"56","arrondissement":"563","commune":"56001"},
{"name":"Péaule","latitude":"47.58194","longitude":"-2.35611","population":"2522","region":"53","departement":"56","arrondissement":"563","commune":"56153"},
{"name":"Noyal-Muzillac","latitude":"47.59167","longitude":"-2.45694","population":"2410","region":"53","departement":"56","arrondissement":"563","commune":"56149"},
{"name":"Saint-Dolay","latitude":"47.54472","longitude":"-2.15444","population":"2253","region":"53","departement":"56","arrondissement":"563","commune":"56212"},
{"name":"Malansac","latitude":"47.67778","longitude":"-2.29472","population":"2023","region":"53","departement":"56","arrondissement":"563","commune":"56123"},
{"name":"Marzan","latitude":"47.54083","longitude":"-2.32389","population":"1917","region":"53","departement":"56","arrondissement":"563","commune":"56126"},
{"name":"Peillac","latitude":"47.71333","longitude":"-2.21917","population":"1828","region":"53","departement":"56","arrondissement":"563","commune":"56154"},
{"name":"Saint-Jacut-les-Pins","latitude":"47.68528","longitude":"-2.21528","population":"1732","region":"53","departement":"56","arrondissement":"563","commune":"56221"},
{"name":"Caden","latitude":"47.63083","longitude":"-2.28806","population":"1593","region":"53","departement":"56","arrondissement":"563","commune":"56028"},
{"name":"Saint-Jean-la-Poterie","latitude":"47.63639","longitude":"-2.12583","population":"1507","region":"53","departement":"56","arrondissement":"563","commune":"56223"},
{"name":"Béganne","latitude":"47.59639","longitude":"-2.24","population":"1388","region":"53","departement":"56","arrondissement":"563","commune":"56011"},
{"name":"Saint-Vincent-sur-Oust","latitude":"47.69972","longitude":"-2.14639","population":"1376","region":"53","departement":"56","arrondissement":"563","commune":"56239"},
{"name":"Pluherlin","latitude":"47.69611","longitude":"-2.365","population":"1352","region":"53","departement":"56","arrondissement":"563","commune":"56171"},
{"name":"Limerzel","latitude":"47.63667","longitude":"-2.35389","population":"1297","region":"53","departement":"56","arrondissement":"563","commune":"56111"},
{"name":"Molac","latitude":"47.73028","longitude":"-2.435","population":"1275","region":"53","departement":"56","arrondissement":"563","commune":"56135"},
{"name":"Saint-Martin-sur-Oust","latitude":"47.7459","longitude":"-2.2537","population":"1272","region":"53","departement":"56","arrondissement":"563","commune":"56229"},
{"name":"Les Fougerêts","latitude":"47.74028","longitude":"-2.2125","population":"935","region":"53","departement":"56","arrondissement":"563","commune":"56060"},
{"name":"Glénac","latitude":"47.72667","longitude":"-2.13306","population":"873","region":"53","departement":"56","arrondissement":"563","commune":"56064"},
{"name":"Le Guerno","latitude":"47.58306","longitude":"-2.40833","population":"818","region":"53","departement":"56","arrondissement":"563","commune":"56077"},
{"name":"La Roche-Bernard","latitude":"47.51833","longitude":"-2.29917","population":"757","region":"53","departement":"56","arrondissement":"563","commune":"56195"},
{"name":"Saint-Gravé","latitude":"47.72583","longitude":"-2.28083","population":"734","region":"53","departement":"56","arrondissement":"563","commune":"56218"},
{"name":"Rochefort-en-Terre","latitude":"47.69944","longitude":"-2.33667","population":"662","region":"53","departement":"56","arrondissement":"563","commune":"56196"},
{"name":"Théhillac","latitude":"47.56778","longitude":"-2.11639","population":"540","region":"53","departement":"56","arrondissement":"563","commune":"56250"},
{"name":"Saint-Gorgon","latitude":"47.64917","longitude":"-2.23667","population":"325","region":"53","departement":"56","arrondissement":"563","commune":"56216"}
]