[
{"name":"Dijon","latitude":"47.32306","longitude":"5.04194","population":"152110","region":"27","departement":"21","arrondissement":"212","commune":"21231"},
{"name":"Chenôve","latitude":"47.29111","longitude":"5.00722","population":"14111","region":"27","departement":"21","arrondissement":"212","commune":"21166"},
{"name":"Talant","latitude":"47.3364","longitude":"5.0057","population":"11638","region":"27","departement":"21","arrondissement":"212","commune":"21617"},
{"name":"Chevigny-Saint-Sauveur","latitude":"47.30167","longitude":"5.13556","population":"10076","region":"27","departement":"21","arrondissement":"212","commune":"21171"},
{"name":"Quetigny","latitude":"47.31444","longitude":"5.10611","population":"9684","region":"27","departement":"21","arrondissement":"212","commune":"21515"},
{"name":"Longvic","latitude":"47.28778","longitude":"5.06361","population":"9332","region":"27","departement":"21","arrondissement":"212","commune":"21355"},
{"name":"Fontaine-lès-Dijon","latitude":"47.34333","longitude":"5.01917","population":"9062","region":"27","departement":"21","arrondissement":"212","commune":"21278"},
{"name":"Saint-Apollinaire","latitude":"47.33167","longitude":"5.08417","population":"6239","region":"27","departement":"21","arrondissement":"212","commune":"21540"},
{"name":"Plombières-lès-Dijon","latitude":"47.33944","longitude":"4.97222","population":"2860","region":"27","departement":"21","arrondissement":"212","commune":"21485"},
{"name":"Arc-sur-Tille","latitude":"47.3436","longitude":"5.192","population":"2471","region":"27","departement":"21","arrondissement":"212","commune":"21021"},
{"name":"Sennecey-lès-Dijon","latitude":"47.29056","longitude":"5.10528","population":"2219","region":"27","departement":"21","arrondissement":"212","commune":"21605"},
{"name":"Varois-et-Chaignot","latitude":"47.35083","longitude":"5.13056","population":"1994","region":"27","departement":"21","arrondissement":"212","commune":"21657"},
{"name":"Neuilly-lès-Dijon","latitude":"47.27944","longitude":"5.1075","population":"1892","region":"27","departement":"21","arrondissement":"212","commune":"21452"},
{"name":"Couternon","latitude":"47.33333","longitude":"5.15","population":"1650","region":"27","departement":"21","arrondissement":"212","commune":"21209"},
{"name":"Messigny-et-Vantoux","latitude":"47.4057","longitude":"5.0183","population":"1522","region":"27","departement":"21","arrondissement":"212","commune":"21408"},
{"name":"Belleneuve","latitude":"47.35722","longitude":"5.26583","population":"1487","region":"27","departement":"21","arrondissement":"212","commune":"21060"},
{"name":"Saint-Julien","latitude":"47.40083","longitude":"5.14333","population":"1431","region":"27","departement":"21","arrondissement":"212","commune":"21555"},
{"name":"Daix","latitude":"47.35194","longitude":"4.99889","population":"1371","region":"27","departement":"21","arrondissement":"212","commune":"21223"},
{"name":"Ahuy","latitude":"47.36889","longitude":"5.02222","population":"1277","region":"27","departement":"21","arrondissement":"212","commune":"21003"},
{"name":"Asnières-lès-Dijon","latitude":"47.385","longitude":"5.04472","population":"1224","region":"27","departement":"21","arrondissement":"212","commune":"21027"},
{"name":"Ruffey-lès-Echirey","latitude":"47.36639","longitude":"5.08083","population":"1148","region":"27","departement":"21","arrondissement":"212","commune":"21535"},
{"name":"Hauteville-lès-Dijon","latitude":"47.36583","longitude":"4.99472","population":"1060","region":"27","departement":"21","arrondissement":"212","commune":"21315"},
{"name":"Bretigny","latitude":"47.39861","longitude":"5.1025","population":"917","region":"27","departement":"21","arrondissement":"212","commune":"21107"},
{"name":"Norges-la-Ville","latitude":"47.40778","longitude":"5.07694","population":"887","region":"27","departement":"21","arrondissement":"212","commune":"21462"},
{"name":"Gemeaux","latitude":"47.47778","longitude":"5.13667","population":"860","region":"27","departement":"21","arrondissement":"212","commune":"21290"},
{"name":"Clénay","latitude":"47.40389","longitude":"5.12083","population":"849","region":"27","departement":"21","arrondissement":"212","commune":"21179"},
{"name":"Savigny-le-Sec","latitude":"47.43028","longitude":"5.05306","population":"820","region":"27","departement":"21","arrondissement":"212","commune":"21591"},
{"name":"Bellefond","latitude":"47.37972","longitude":"5.06972","population":"787","region":"27","departement":"21","arrondissement":"212","commune":"21059"},
{"name":"Beire-le-Châtel","latitude":"47.41222","longitude":"5.20528","population":"785","region":"27","departement":"21","arrondissement":"212","commune":"21056"},
{"name":"Remilly-sur-Tille","latitude":"47.31778","longitude":"5.20806","population":"764","region":"27","departement":"21","arrondissement":"212","commune":"21521"},
{"name":"Marsannay-le-Bois","latitude":"47.43972","longitude":"5.095","population":"749","region":"27","departement":"21","arrondissement":"212","commune":"21391"},
{"name":"Izier","latitude":"47.28167","longitude":"5.19111","population":"736","region":"27","departement":"21","arrondissement":"212","commune":"21320"},
{"name":"Bèze","latitude":"47.46806","longitude":"5.27083","population":"722","region":"27","departement":"21","arrondissement":"212","commune":"21071"},
{"name":"Bressey-sur-Tille","latitude":"47.30833","longitude":"5.18306","population":"663","region":"27","departement":"21","arrondissement":"212","commune":"21105"},
{"name":"Corcelles-les-Monts","latitude":"47.29444","longitude":"4.93833","population":"663","region":"27","departement":"21","arrondissement":"212","commune":"21192"},
{"name":"Arceau","latitude":"47.38444","longitude":"5.18972","population":"661","region":"27","departement":"21","arrondissement":"212","commune":"21016"},
{"name":"Binges","latitude":"47.32944","longitude":"5.26722","population":"625","region":"27","departement":"21","arrondissement":"212","commune":"21076"},
{"name":"Cessey-sur-Tille","latitude":"47.28056","longitude":"5.22167","population":"562","region":"27","departement":"21","arrondissement":"212","commune":"21126"},
{"name":"Lux","latitude":"47.4912","longitude":"5.2127","population":"518","region":"27","departement":"21","arrondissement":"212","commune":"21361"},
{"name":"Chaignay","latitude":"47.4768","longitude":"5.0714","population":"511","region":"27","departement":"21","arrondissement":"212","commune":"21127"},
{"name":"Orgeux","latitude":"47.36222","longitude":"5.15417","population":"465","region":"27","departement":"21","arrondissement":"212","commune":"21469"},
{"name":"Darois","latitude":"47.39111","longitude":"4.93944","population":"448","region":"27","departement":"21","arrondissement":"212","commune":"21227"},
{"name":"Spoy","latitude":"47.44611","longitude":"5.19","population":"297","region":"27","departement":"21","arrondissement":"212","commune":"21614"},
{"name":"Épagny","latitude":"47.44806","longitude":"5.05917","population":"294","region":"27","departement":"21","arrondissement":"212","commune":"21245"},
{"name":"Chambeire","latitude":"47.28194","longitude":"5.26444","population":"289","region":"27","departement":"21","arrondissement":"212","commune":"21130"},
{"name":"Brognon","latitude":"47.40389","longitude":"5.16556","population":"267","region":"27","departement":"21","arrondissement":"212","commune":"21111"},
{"name":"Villecomte","latitude":"47.51","longitude":"5.03528","population":"266","region":"27","departement":"21","arrondissement":"212","commune":"21692"},
{"name":"Magny-Saint-Médard","latitude":"47.38056","longitude":"5.25306","population":"254","region":"27","departement":"21","arrondissement":"212","commune":"21369"},
{"name":"Pichanges","latitude":"47.46194","longitude":"5.15028","population":"252","region":"27","departement":"21","arrondissement":"212","commune":"21483"},
{"name":"Étaules","latitude":"47.40694","longitude":"4.94417","population":"240","region":"27","departement":"21","arrondissement":"212","commune":"21255"},
{"name":"Viévigne","latitude":"47.435","longitude":"5.23028","population":"212","region":"27","departement":"21","arrondissement":"212","commune":"21682"},
{"name":"Flacey","latitude":"47.42972","longitude":"5.14861","population":"164","region":"27","departement":"21","arrondissement":"212","commune":"21266"},
{"name":"Saussy","latitude":"47.46806","longitude":"4.96194","population":"99","region":"27","departement":"21","arrondissement":"212","commune":"21589"},
{"name":"Curtil-Saint-Seine","latitude":"47.45","longitude":"4.92778","population":"97","region":"27","departement":"21","arrondissement":"212","commune":"21218"},
{"name":"Vernot","latitude":"47.49167","longitude":"4.97417","population":"75","region":"27","departement":"21","arrondissement":"212","commune":"21666"}
]