[
{"name":"Fougères","latitude":"48.35167","longitude":"-1.2","population":"19820","region":"53","departement":"35","arrondissement":"351","commune":"35115"},
{"name":"Saint-Aubin-du-Cormier","latitude":"48.25944","longitude":"-1.39861","population":"3609","region":"53","departement":"35","arrondissement":"351","commune":"35253"},
{"name":"Lécousse","latitude":"48.3675","longitude":"-1.21778","population":"2927","region":"53","departement":"35","arrondissement":"351","commune":"35150"},
{"name":"Saint-Brice-en-Coglès","latitude":"48.411","longitude":"-1.3663","population":"2758","region":"53","departement":"35","arrondissement":"351","commune":"35257"},
{"name":"Romagné","latitude":"48.34222","longitude":"-1.27722","population":"2087","region":"53","departement":"35","arrondissement":"351","commune":"35243"},
{"name":"Saint-Germain-en-Coglès","latitude":"48.40583","longitude":"-1.26333","population":"2046","region":"53","departement":"35","arrondissement":"351","commune":"35273"},
{"name":"Javené","latitude":"48.31917","longitude":"-1.21583","population":"1893","region":"53","departement":"35","arrondissement":"351","commune":"35137"},
{"name":"Châtillon-en-Vendelais","latitude":"48.225","longitude":"-1.17861","population":"1698","region":"53","departement":"35","arrondissement":"351","commune":"35072"},
{"name":"Saint-Étienne-en-Coglès","latitude":"48.40361","longitude":"-1.325","population":"1671","region":"53","departement":"35","arrondissement":"351","commune":"35267"},
{"name":"Saint-Sauveur-des-Landes","latitude":"48.3425","longitude":"-1.31361","population":"1397","region":"53","departement":"35","arrondissement":"351","commune":"35310"},
{"name":"Parigné","latitude":"48.42806","longitude":"-1.19167","population":"1326","region":"53","departement":"35","arrondissement":"351","commune":"35215"},
{"name":"La Chapelle-Janson","latitude":"48.3475","longitude":"-1.10194","population":"1309","region":"53","departement":"35","arrondissement":"351","commune":"35062"},
{"name":"Luitré","latitude":"48.28333","longitude":"-1.11861","population":"1305","region":"53","departement":"35","arrondissement":"351","commune":"35163"},
{"name":"Landéan","latitude":"48.41306","longitude":"-1.1525","population":"1253","region":"53","departement":"35","arrondissement":"351","commune":"35142"},
{"name":"Beaucé","latitude":"48.33806","longitude":"-1.15694","population":"1177","region":"53","departement":"35","arrondissement":"351","commune":"35021"},
{"name":"La Bazouge-du-Désert","latitude":"48.4434","longitude":"-1.1044","population":"1080","region":"53","departement":"35","arrondissement":"351","commune":"35018"},
{"name":"Saint-Jean-sur-Couesnon","latitude":"48.29056","longitude":"-1.36722","population":"1055","region":"53","departement":"35","arrondissement":"351","commune":"35282"},
{"name":"Fleurigné","latitude":"48.33556","longitude":"-1.12083","population":"1032","region":"53","departement":"35","arrondissement":"351","commune":"35112"},
{"name":"Billé","latitude":"48.28778","longitude":"-1.24639","population":"1028","region":"53","departement":"35","arrondissement":"351","commune":"35025"},
{"name":"Montours","latitude":"48.44278","longitude":"-1.30889","population":"995","region":"53","departement":"35","arrondissement":"351","commune":"35191"},
{"name":"Saint-Hilaire-des-Landes","latitude":"48.35139","longitude":"-1.35806","population":"988","region":"53","departement":"35","arrondissement":"351","commune":"35280"},
{"name":"Laignelet","latitude":"48.37083","longitude":"-1.15028","population":"955","region":"53","departement":"35","arrondissement":"351","commune":"35138"},
{"name":"Pontmain","latitude":"48.43889","longitude":"-1.05833","population":"864","region":"52","departement":"53","arrondissement":"533","commune":"53181"},
{"name":"Parcé","latitude":"48.27306","longitude":"-1.20028","population":"642","region":"53","departement":"35","arrondissement":"351","commune":"35214"},
{"name":"Le Loroux","latitude":"48.39472","longitude":"-1.06417","population":"586","region":"53","departement":"35","arrondissement":"351","commune":"35157"},
{"name":"La Selle-en-Coglès","latitude":"48.4375","longitude":"-1.34472","population":"586","region":"53","departement":"35","arrondissement":"351","commune":"35323"},
{"name":"Saint-Georges-de-Chesné","latitude":"48.27361","longitude":"-1.29139","population":"563","region":"53","departement":"35","arrondissement":"351","commune":"35269"},
{"name":"Combourtillé","latitude":"48.27194","longitude":"-1.24556","population":"562","region":"53","departement":"35","arrondissement":"351","commune":"35086"},
{"name":"Mecé","latitude":"48.23722","longitude":"-1.3025","population":"560","region":"53","departement":"35","arrondissement":"351","commune":"35170"},
{"name":"Dompierre-du-Chemin","latitude":"48.26694","longitude":"-1.14361","population":"552","region":"53","departement":"35","arrondissement":"351","commune":"35100"},
{"name":"La Selle-en-Luitré","latitude":"48.3102","longitude":"-1.1269","population":"542","region":"53","departement":"35","arrondissement":"351","commune":"35324"},
{"name":"Saint-Christophe-des-Bois","latitude":"48.22667","longitude":"-1.2475","population":"521","region":"53","departement":"35","arrondissement":"351","commune":"35260"},
{"name":"Saint-Marc-sur-Couesnon","latitude":"48.30389","longitude":"-1.36556","population":"500","region":"53","departement":"35","arrondissement":"351","commune":"35293"},
{"name":"Vendel","latitude":"48.29917","longitude":"-1.31139","population":"436","region":"53","departement":"35","arrondissement":"351","commune":"35348"},
{"name":"La Chapelle-Saint-Aubert","latitude":"48.31361","longitude":"-1.30806","population":"419","region":"53","departement":"35","arrondissement":"351","commune":"35063"},
{"name":"Le Châtellier","latitude":"48.41583","longitude":"-1.25417","population":"379","region":"53","departement":"35","arrondissement":"351","commune":"35071"},
{"name":"Baillé","latitude":"48.35944","longitude":"-1.38167","population":"315","region":"53","departement":"35","arrondissement":"351","commune":"35011"},
{"name":"Montreuil-des-Landes","latitude":"48.24694","longitude":"-1.22333","population":"224","region":"53","departement":"35","arrondissement":"351","commune":"35192"}
]