[
{"name":"Carquefou","latitude":"47.29694","longitude":"-1.49278","population":"17772","region":"52","departement":"44","arrondissement":"442","commune":"44026"},
{"name":"La Chapelle-sur-Erdre","latitude":"47.29889","longitude":"-1.55278","population":"17330","region":"52","departement":"44","arrondissement":"442","commune":"44035"},
{"name":"Treillières","latitude":"47.33083","longitude":"-1.62667","population":"7695","region":"52","departement":"44","arrondissement":"442","commune":"44209"},
{"name":"Nort-sur-Erdre","latitude":"47.43944","longitude":"-1.49833","population":"7587","region":"52","departement":"44","arrondissement":"441","commune":"44110"},
{"name":"Sucé-sur-Erdre","latitude":"47.3445","longitude":"-1.5283","population":"6186","region":"52","departement":"44","arrondissement":"442","commune":"44201"},
{"name":"Vigneux-de-Bretagne","latitude":"47.32611","longitude":"-1.73833","population":"5362","region":"52","departement":"44","arrondissement":"442","commune":"44217"},
{"name":"Héric","latitude":"47.4125","longitude":"-1.65167","population":"5166","region":"52","departement":"44","arrondissement":"441","commune":"44073"},
{"name":"Grandchamps-des-Fontaines","latitude":"47.3652","longitude":"-1.6048","population":"4666","region":"52","departement":"44","arrondissement":"442","commune":"44066"},
{"name":"Saffré","latitude":"47.50167","longitude":"-1.57861","population":"3468","region":"52","departement":"44","arrondissement":"441","commune":"44149"},
{"name":"Petit-Mars","latitude":"47.39417","longitude":"-1.455","population":"3433","region":"52","departement":"44","arrondissement":"441","commune":"44122"},
{"name":"Les Touches","latitude":"47.44132","longitude":"-1.4296","population":"2233","region":"52","departement":"44","arrondissement":"441","commune":"44205"},
{"name":"Joué-sur-Erdre","latitude":"47.49556","longitude":"-1.42028","population":"2073","region":"52","departement":"44","arrondissement":"444","commune":"44077"},
{"name":"Casson","latitude":"47.38583","longitude":"-1.55944","population":"2067","region":"52","departement":"44","arrondissement":"441","commune":"44027"},
{"name":"Notre-Dame-des-Landes","latitude":"47.38083","longitude":"-1.71","population":"1933","region":"52","departement":"44","arrondissement":"441","commune":"44111"},
{"name":"La Chevallerais","latitude":"47.4675","longitude":"-1.67139","population":"1348","region":"52","departement":"44","arrondissement":"441","commune":"44221"}
]