[
{"name":"Dun-sur-Auron","latitude":"46.88472","longitude":"2.57167","population":"4002","region":"24","departement":"18","arrondissement":"182","commune":"18087"},
{"name":"Avord","latitude":"47.03306","longitude":"2.65333","population":"2652","region":"24","departement":"18","arrondissement":"181","commune":"18018"},
{"name":"Bengy-sur-Craon","latitude":"47.00028","longitude":"2.74778","population":"658","region":"24","departement":"18","arrondissement":"181","commune":"18027"},
{"name":"Blet","latitude":"46.89528","longitude":"2.73139","population":"648","region":"24","departement":"18","arrondissement":"182","commune":"18031"},
{"name":"Ourouer-les-Bourdelins","latitude":"46.9305","longitude":"2.7845","population":"648","region":"24","departement":"18","arrondissement":"182","commune":"18175"},
{"name":"Saint-Just","latitude":"46.9935","longitude":"2.5091","population":"594","region":"24","departement":"18","arrondissement":"181","commune":"18218"},
{"name":"Soye-en-Septaine","latitude":"47.02667","longitude":"2.48917","population":"564","region":"24","departement":"18","arrondissement":"181","commune":"18254"},
{"name":"Vornay","latitude":"46.97306","longitude":"2.58333","population":"545","region":"24","departement":"18","arrondissement":"181","commune":"18289"},
{"name":"Chalivoy-Milon","latitude":"46.85944","longitude":"2.70556","population":"443","region":"24","departement":"18","arrondissement":"182","commune":"18045"},
{"name":"Thaumiers","latitude":"46.82139","longitude":"2.655","population":"419","region":"24","departement":"18","arrondissement":"182","commune":"18261"},
{"name":"Uzay-le-Venon","latitude":"46.81222","longitude":"2.46167","population":"414","region":"24","departement":"18","arrondissement":"182","commune":"18268"},
{"name":"Bussy","latitude":"46.90333","longitude":"2.62111","population":"366","region":"24","departement":"18","arrondissement":"182","commune":"18040"},
{"name":"Saint-Denis-de-Palin","latitude":"46.93972","longitude":"2.53861","population":"333","region":"24","departement":"18","arrondissement":"182","commune":"18204"},
{"name":"Crosses","latitude":"47.01083","longitude":"2.58167","population":"317","region":"24","departement":"18","arrondissement":"181","commune":"18081"},
{"name":"Cornusse","latitude":"46.95444","longitude":"2.73083","population":"278","region":"24","departement":"18","arrondissement":"182","commune":"18072"},
{"name":"Osmery","latitude":"46.93472","longitude":"2.655","population":"277","region":"24","departement":"18","arrondissement":"182","commune":"18173"},
{"name":"Bannegon","latitude":"46.80111","longitude":"2.71389","population":"267","region":"24","departement":"18","arrondissement":"182","commune":"18021"},
{"name":"Vorly","latitude":"46.94528","longitude":"2.465","population":"248","region":"24","departement":"18","arrondissement":"181","commune":"18288"},
{"name":"Annoix","latitude":"46.9602","longitude":"2.5352","population":"227","region":"24","departement":"18","arrondissement":"181","commune":"18006"},
{"name":"Jussy-Champagne","latitude":"46.98556","longitude":"2.64389","population":"226","region":"24","departement":"18","arrondissement":"181","commune":"18119"},
{"name":"Charly","latitude":"46.89917","longitude":"2.74889","population":"221","region":"24","departement":"18","arrondissement":"182","commune":"18054"},
{"name":"Raymond","latitude":"46.97111","longitude":"2.68611","population":"210","region":"24","departement":"18","arrondissement":"182","commune":"18191"},
{"name":"Flavigny","latitude":"46.9674","longitude":"2.8016","population":"199","region":"24","departement":"18","arrondissement":"182","commune":"18095"},
{"name":"Croisy","latitude":"46.93889","longitude":"2.80861","population":"149","region":"24","departement":"18","arrondissement":"182","commune":"18080"},
{"name":"Le Pondy","latitude":"46.80417","longitude":"2.64944","population":"130","region":"24","departement":"18","arrondissement":"182","commune":"18183"},
{"name":"Tendron","latitude":"46.9827","longitude":"2.8106","population":"117","region":"24","departement":"18","arrondissement":"182","commune":"18260"},
{"name":"Lantan","latitude":"46.90667","longitude":"2.66222","population":"106","region":"24","departement":"18","arrondissement":"182","commune":"18121"},
{"name":"Laverdines","latitude":"47.03056","longitude":"2.79806","population":"56","region":"24","departement":"18","arrondissement":"181","commune":"18123"},
{"name":"Parnay","latitude":"46.84889","longitude":"2.57083","population":"54","region":"24","departement":"18","arrondissement":"182","commune":"18177"},
{"name":"Chaumont","latitude":"46.845","longitude":"2.7539","population":"49","region":"24","departement":"18","arrondissement":"182","commune":"18060"},
{"name":"Verneuil","latitude":"46.81694","longitude":"2.60444","population":"41","region":"24","departement":"18","arrondissement":"182","commune":"18277"},
{"name":"Cogny","latitude":"46.85","longitude":"2.65583","population":"38","region":"24","departement":"18","arrondissement":"182","commune":"18068"},
{"name":"Contres","latitude":"46.86806","longitude":"2.48917","population":"33","region":"24","departement":"18","arrondissement":"182","commune":"18071"},
{"name":"Lugny-Bourbonnais","latitude":"46.93167","longitude":"2.705","population":"33","region":"24","departement":"18","arrondissement":"182","commune":"18131"}
]