[
{"name":"Civray","latitude":"46.14806","longitude":"0.29528","population":"2850","region":"75","departement":"86","arrondissement":"862","commune":"86078"},
{"name":"Couhé","latitude":"46.29861","longitude":"0.18111","population":"1885","region":"75","departement":"86","arrondissement":"862","commune":"86082"},
{"name":"Sauzé-Vaussais","latitude":"46.13528","longitude":"0.105","population":"1632","region":"75","departement":"79","arrondissement":"792","commune":"79307"},
{"name":"Savigné","latitude":"46.15833","longitude":"0.32111","population":"1316","region":"75","departement":"86","arrondissement":"862","commune":"86255"},
{"name":"Chaunay","latitude":"46.20722","longitude":"0.16361","population":"1189","region":"75","departement":"86","arrondissement":"862","commune":"86068"},
{"name":"Limalonges","latitude":"46.13","longitude":"0.16889","population":"872","region":"75","departement":"79","arrondissement":"792","commune":"79150"},
{"name":"Romagne","latitude":"46.27028","longitude":"0.30222","population":"854","region":"75","departement":"86","arrondissement":"862","commune":"86211"},
{"name":"Blanzay","latitude":"46.20222","longitude":"0.25528","population":"818","region":"75","departement":"86","arrondissement":"862","commune":"86029"},
{"name":"Saint-Pierre-d'Exideuil","latitude":"46.1511","longitude":"0.2708","population":"806","region":"75","departement":"86","arrondissement":"862","commune":"86237"},
{"name":"Rom","latitude":"46.29306","longitude":"0.11556","population":"805","region":"75","departement":"79","arrondissement":"792","commune":"79230"},
{"name":"Vaux","latitude":"46.29722","longitude":"0.22083","population":"732","region":"75","departement":"86","arrondissement":"862","commune":"86278"},
{"name":"Brux","latitude":"46.23556","longitude":"0.19361","population":"677","region":"75","departement":"86","arrondissement":"862","commune":"86039"},
{"name":"Clussais-la-Pommeraie","latitude":"46.1862","longitude":"0.0332","population":"607","region":"75","departement":"79","arrondissement":"792","commune":"79095"},
{"name":"Mairé-Levescault","latitude":"46.15417","longitude":"0.08139","population":"568","region":"75","departement":"79","arrondissement":"792","commune":"79163"},
{"name":"Genouillé","latitude":"46.107","longitude":"0.3383","population":"530","region":"75","departement":"86","arrondissement":"862","commune":"86104"},
{"name":"Melleran","latitude":"46.13111","longitude":"0.00139","population":"513","region":"75","departement":"79","arrondissement":"792","commune":"79175"},
{"name":"Saint-Macoux","latitude":"46.11667","longitude":"0.23333","population":"483","region":"75","departement":"86","arrondissement":"862","commune":"86231"},
{"name":"Saint-Saviol","latitude":"46.13917","longitude":"0.22889","population":"482","region":"75","departement":"86","arrondissement":"862","commune":"86247"},
{"name":"Les Adjots","latitude":"46.0773","longitude":"0.2069","population":"475","region":"75","departement":"16","arrondissement":"163","commune":"16002"},
{"name":"Lizant","latitude":"46.08528","longitude":"0.27917","population":"465","region":"75","departement":"86","arrondissement":"862","commune":"86136"},
{"name":"Voulême","latitude":"46.09917","longitude":"0.23139","population":"372","region":"75","departement":"86","arrondissement":"862","commune":"86295"},
{"name":"Sainte-Soline","latitude":"46.24639","longitude":"0.03611","population":"367","region":"75","departement":"79","arrondissement":"792","commune":"79297"},
{"name":"Champniers","latitude":"46.2177","longitude":"0.3374","population":"357","region":"75","departement":"86","arrondissement":"862","commune":"86054"},
{"name":"Pioussay","latitude":"46.07444","longitude":"0.025","population":"323","region":"75","departement":"79","arrondissement":"792","commune":"79211"},
{"name":"Saint-Gaudent","latitude":"46.116","longitude":"0.2897","population":"294","region":"75","departement":"86","arrondissement":"862","commune":"86220"},
{"name":"Lorigné","latitude":"46.11","longitude":"0.06083","population":"285","region":"75","departement":"79","arrondissement":"792","commune":"79152"},
{"name":"Montalembert","latitude":"46.1106","longitude":"0.1583","population":"278","region":"75","departement":"79","arrondissement":"792","commune":"79180"},
{"name":"Vançais","latitude":"46.30056","longitude":"0.05139","population":"265","region":"75","departement":"79","arrondissement":"792","commune":"79336"},
{"name":"Saint-Coutant","latitude":"46.21444","longitude":"0.00194","population":"264","region":"75","departement":"79","arrondissement":"792","commune":"79243"},
{"name":"Montjean","latitude":"46.0875","longitude":"0.11944","population":"259","region":"75","departement":"16","arrondissement":"163","commune":"16229"},
{"name":"Londigny","latitude":"46.08306","longitude":"0.13694","population":"252","region":"75","departement":"16","arrondissement":"163","commune":"16189"},
{"name":"Linazay","latitude":"46.16417","longitude":"0.18194","population":"214","region":"75","departement":"86","arrondissement":"862","commune":"86134"},
{"name":"Champagné-le-Sec","latitude":"46.19028","longitude":"0.19139","population":"213","region":"75","departement":"86","arrondissement":"862","commune":"86051"},
{"name":"La Forêt-de-Tessé","latitude":"46.08028","longitude":"0.08389","population":"208","region":"75","departement":"16","arrondissement":"163","commune":"16142"},
{"name":"Vanzay","latitude":"46.23194","longitude":"0.10611","population":"205","region":"75","departement":"79","arrondissement":"792","commune":"79338"},
{"name":"Pliboux","latitude":"46.16778","longitude":"0.12722","population":"198","region":"75","departement":"79","arrondissement":"792","commune":"79212"},
{"name":"La Chapelle-Pouilloux","latitude":"46.13806","longitude":"0.055","population":"197","region":"75","departement":"79","arrondissement":"792","commune":"79074"},
{"name":"Messé","latitude":"46.26444","longitude":"0.11444","population":"174","region":"75","departement":"79","arrondissement":"792","commune":"79177"},
{"name":"Caunay","latitude":"46.19944","longitude":"0.08972","population":"165","region":"75","departement":"79","arrondissement":"792","commune":"79060"},
{"name":"Pers","latitude":"46.21889","longitude":"0.06639","population":"74","region":"75","departement":"79","arrondissement":"792","commune":"79205"}
]