[
{"name":"Châteaumeillant","latitude":"46.56194","longitude":"2.20056","population":"2082","region":"24","departement":"18","arrondissement":"182","commune":"18057"},
{"name":"Lignières","latitude":"46.7523","longitude":"2.177","population":"1509","region":"24","departement":"18","arrondissement":"182","commune":"18127"},
{"name":"Le Châtelet","latitude":"46.64167","longitude":"2.28306","population":"1130","region":"24","departement":"18","arrondissement":"182","commune":"18059"},
{"name":"Bruère-Allichamps","latitude":"46.76833","longitude":"2.4325","population":"619","region":"24","departement":"18","arrondissement":"182","commune":"18038"},
{"name":"Saint-Hilaire-en-Lignières","latitude":"46.72611","longitude":"2.17361","population":"506","region":"24","departement":"18","arrondissement":"182","commune":"18216"},
{"name":"La Celle","latitude":"46.76861","longitude":"2.44639","population":"358","region":"24","departement":"18","arrondissement":"182","commune":"18042"},
{"name":"Morlac","latitude":"46.71917","longitude":"2.30833","population":"338","region":"24","departement":"18","arrondissement":"182","commune":"18153"},
{"name":"Vicq-Exemplet","latitude":"46.62889","longitude":"2.14111","population":"327","region":"24","departement":"36","arrondissement":"363","commune":"36236"},
{"name":"Saint-Pierre-les-Bois","latitude":"46.66444","longitude":"2.27889","population":"320","region":"24","departement":"18","arrondissement":"182","commune":"18230"},
{"name":"Marçais","latitude":"46.69694","longitude":"2.37056","population":"311","region":"24","departement":"18","arrondissement":"182","commune":"18136"},
{"name":"Ids-Saint-Roch","latitude":"46.70722","longitude":"2.24083","population":"311","region":"24","departement":"18","arrondissement":"182","commune":"18112"},
{"name":"Loye-sur-Arnon","latitude":"46.65278","longitude":"2.38639","population":"306","region":"24","departement":"18","arrondissement":"182","commune":"18130"},
{"name":"Arcomps","latitude":"46.67556","longitude":"2.43278","population":"297","region":"24","departement":"18","arrondissement":"182","commune":"18009"},
{"name":"Touchay","latitude":"46.71222","longitude":"2.21167","population":"284","region":"24","departement":"18","arrondissement":"182","commune":"18266"},
{"name":"Orcenais","latitude":"46.71833","longitude":"2.42556","population":"276","region":"24","departement":"18","arrondissement":"182","commune":"18171"},
{"name":"Saint-Maur","latitude":"46.5804","longitude":"2.2994","population":"261","region":"24","departement":"18","arrondissement":"182","commune":"18225"},
{"name":"Reigny","latitude":"46.57639","longitude":"2.3525","population":"257","region":"24","departement":"18","arrondissement":"182","commune":"18192"},
{"name":"Saint-Christophe-en-Boucherie","latitude":"46.67806","longitude":"2.12111","population":"252","region":"24","departement":"36","arrondissement":"363","commune":"36186"},
{"name":"Ineuil","latitude":"46.77667","longitude":"2.28917","population":"234","region":"24","departement":"18","arrondissement":"182","commune":"18114"},
{"name":"Nozières","latitude":"46.73111","longitude":"2.43444","population":"230","region":"24","departement":"18","arrondissement":"182","commune":"18169"},
{"name":"Rezay","latitude":"46.6731","longitude":"2.1788","population":"227","region":"24","departement":"18","arrondissement":"182","commune":"18193"},
{"name":"Maisonnais","latitude":"46.64","longitude":"2.21556","population":"222","region":"24","departement":"18","arrondissement":"182","commune":"18135"},
{"name":"Farges-Allichamps","latitude":"46.75861","longitude":"2.40028","population":"220","region":"24","departement":"18","arrondissement":"182","commune":"18091"},
{"name":"Néret","latitude":"46.56889","longitude":"2.14861","population":"213","region":"24","departement":"36","arrondissement":"363","commune":"36138"},
{"name":"La Celle-Condé","latitude":"46.79389","longitude":"2.18444","population":"206","region":"24","departement":"18","arrondissement":"182","commune":"18043"},
{"name":"Ardenais","latitude":"46.64722","longitude":"2.35917","population":"201","region":"24","departement":"18","arrondissement":"182","commune":"18010"},
{"name":"Saint-Jeanvrin","latitude":"46.5957","longitude":"2.2346","population":"163","region":"24","departement":"18","arrondissement":"182","commune":"18217"},
{"name":"Chambon","latitude":"46.78694","longitude":"2.32472","population":"153","region":"24","departement":"18","arrondissement":"182","commune":"18046"},
{"name":"Saint-Christophe-le-Chaudry","latitude":"46.58167","longitude":"2.36889","population":"105","region":"24","departement":"18","arrondissement":"182","commune":"18203"},
{"name":"Beddes","latitude":"46.60583","longitude":"2.21306","population":"95","region":"24","departement":"18","arrondissement":"182","commune":"18024"}
]