[
{"name":"Montélimar","latitude":"44.55861","longitude":"4.75083","population":"35495","region":"84","departement":"26","arrondissement":"262","commune":"26198"},
{"name":"Pierrelatte","latitude":"44.3775","longitude":"4.69611","population":"13100","region":"84","departement":"26","arrondissement":"262","commune":"26235"},
{"name":"Saint-Paul-Trois-Châteaux","latitude":"44.34889","longitude":"4.76861","population":"8590","region":"84","departement":"26","arrondissement":"262","commune":"26324"},
{"name":"Le Teil","latitude":"44.5455","longitude":"4.6826","population":"7986","region":"84","departement":"07","arrondissement":"072","commune":"07319"},
{"name":"Bourg-Saint-Andéol","latitude":"44.37333","longitude":"4.64417","population":"7293","region":"84","departement":"07","arrondissement":"072","commune":"07042"},
{"name":"Donzère","latitude":"44.44361","longitude":"4.71","population":"5203","region":"84","departement":"26","arrondissement":"262","commune":"26116"},
{"name":"Viviers","latitude":"44.48278","longitude":"4.68889","population":"3864","region":"84","departement":"07","arrondissement":"072","commune":"07346"},
{"name":"Châteauneuf-du-Rhône","latitude":"44.48583","longitude":"4.71667","population":"2275","region":"84","departement":"26","arrondissement":"262","commune":"26085"},
{"name":"Rochemaure","latitude":"44.5875","longitude":"4.70389","population":"2063","region":"84","departement":"07","arrondissement":"072","commune":"07191"},
{"name":"Montboucher-sur-Jabron","latitude":"44.55472","longitude":"4.80861","population":"2000","region":"84","departement":"26","arrondissement":"262","commune":"26191"},
{"name":"Saint-Montan","latitude":"44.4393","longitude":"4.6259","population":"1790","region":"84","departement":"07","arrondissement":"072","commune":"07279"},
{"name":"Malataverne","latitude":"44.4879","longitude":"4.7519","population":"1784","region":"84","departement":"26","arrondissement":"262","commune":"26169"},
{"name":"Allan","latitude":"44.4996","longitude":"4.7879","population":"1594","region":"84","departement":"26","arrondissement":"262","commune":"26005"},
{"name":"Grignan","latitude":"44.41944","longitude":"4.90806","population":"1564","region":"84","departement":"26","arrondissement":"262","commune":"26146"},
{"name":"Alba-la-Romaine","latitude":"44.5554","longitude":"4.5989","population":"1415","region":"84","departement":"07","arrondissement":"072","commune":"07005"},
{"name":"Montségur-sur-Lauzon","latitude":"44.3601","longitude":"4.8599","population":"1152","region":"84","departement":"26","arrondissement":"262","commune":"26211"},
{"name":"La Garde-Adhémar","latitude":"44.39278","longitude":"4.75417","population":"1130","region":"84","departement":"26","arrondissement":"262","commune":"26138"},
{"name":"Espeluche","latitude":"44.51611","longitude":"4.82333","population":"1059","region":"84","departement":"26","arrondissement":"262","commune":"26121"},
{"name":"Ancône","latitude":"44.58167","longitude":"4.72778","population":"1056","region":"84","departement":"26","arrondissement":"262","commune":"26008"},
{"name":"La Bâtie-Rolland","latitude":"44.55389","longitude":"4.865","population":"931","region":"84","departement":"26","arrondissement":"262","commune":"26031"},
{"name":"Saint-Gervais-sur-Roubion","latitude":"44.5833","longitude":"4.8914","population":"796","region":"84","departement":"26","arrondissement":"262","commune":"26305"},
{"name":"Richerenches","latitude":"44.35944","longitude":"4.9125","population":"672","region":"93","departement":"84","arrondissement":"842","commune":"84097"},
{"name":"Clansayes","latitude":"44.37111","longitude":"4.8075","population":"563","region":"84","departement":"26","arrondissement":"262","commune":"26093"},
{"name":"Les Granges-Gontardes","latitude":"44.41583","longitude":"4.76306","population":"551","region":"84","departement":"26","arrondissement":"262","commune":"26145"},
{"name":"Chamaret","latitude":"44.39639","longitude":"4.88278","population":"550","region":"84","departement":"26","arrondissement":"262","commune":"26070"},
{"name":"Valaurie","latitude":"44.42222","longitude":"4.81361","population":"531","region":"84","departement":"26","arrondissement":"262","commune":"26360"},
{"name":"Colonzelle","latitude":"44.39306","longitude":"4.90056","population":"478","region":"84","departement":"26","arrondissement":"262","commune":"26099"},
{"name":"Valvignères","latitude":"44.50056","longitude":"4.57417","population":"439","region":"84","departement":"07","arrondissement":"072","commune":"07332"},
{"name":"Puygiron","latitude":"44.54167","longitude":"4.84806","population":"439","region":"84","departement":"26","arrondissement":"262","commune":"26257"},
{"name":"Aubignas","latitude":"44.58833","longitude":"4.63389","population":"405","region":"84","departement":"07","arrondissement":"072","commune":"07020"},
{"name":"Saint-Thomé","latitude":"44.50056","longitude":"4.62583","population":"384","region":"84","departement":"07","arrondissement":"072","commune":"07300"},
{"name":"Portes-en-Valdaine","latitude":"44.5293","longitude":"4.9121","population":"383","region":"84","departement":"26","arrondissement":"262","commune":"26251"},
{"name":"Réauville","latitude":"44.4447","longitude":"4.8446","population":"379","region":"84","departement":"26","arrondissement":"262","commune":"26261"},
{"name":"Rochefort-en-Valdaine","latitude":"44.5158","longitude":"4.8608","population":"340","region":"84","departement":"26","arrondissement":"262","commune":"26272"},
{"name":"Roussas","latitude":"44.43083","longitude":"4.80194","population":"338","region":"84","departement":"26","arrondissement":"262","commune":"26284"},
{"name":"Solérieux","latitude":"44.34833","longitude":"4.83194","population":"313","region":"84","departement":"26","arrondissement":"262","commune":"26342"},
{"name":"Montjoyer","latitude":"44.47639","longitude":"4.85194","population":"272","region":"84","departement":"26","arrondissement":"262","commune":"26203"},
{"name":"Chantemerle-lès-Grignan","latitude":"44.40306","longitude":"4.83556","population":"224","region":"84","departement":"26","arrondissement":"262","commune":"26073"},
{"name":"La Touche","latitude":"44.5149","longitude":"4.8878","population":"205","region":"84","departement":"26","arrondissement":"262","commune":"26352"},
{"name":"Larnas","latitude":"44.44833","longitude":"4.59917","population":"97","region":"84","departement":"07","arrondissement":"072","commune":"07133"}
]