[
{"name":"Boussac","latitude":"46.3491","longitude":"2.2157","population":"1380","region":"75","departement":"23","arrondissement":"232","commune":"23031"},
{"name":"Culan","latitude":"46.5475","longitude":"2.34917","population":"794","region":"24","departement":"18","arrondissement":"182","commune":"18083"},
{"name":"Boussac-Bourg","latitude":"46.36111","longitude":"2.23444","population":"787","region":"75","departement":"23","arrondissement":"232","commune":"23032"},
{"name":"Vesdun","latitude":"46.53889","longitude":"2.42944","population":"630","region":"24","departement":"18","arrondissement":"182","commune":"18278"},
{"name":"Préveranges","latitude":"46.4325","longitude":"2.25472","population":"582","region":"24","departement":"18","arrondissement":"182","commune":"18187"},
{"name":"Saint-Silvain-Bas-le-Roc","latitude":"46.33111","longitude":"2.2275","population":"495","region":"75","departement":"23","arrondissement":"232","commune":"23240"},
{"name":"Saint-Désiré","latitude":"46.49778","longitude":"2.43167","population":"470","region":"84","departement":"03","arrondissement":"031","commune":"03225"},
{"name":"Treignat","latitude":"46.34861","longitude":"2.34056","population":"443","region":"84","departement":"03","arrondissement":"031","commune":"03288"},
{"name":"Saint-Saturnin","latitude":"46.5075","longitude":"2.23778","population":"425","region":"24","departement":"18","arrondissement":"182","commune":"18234"},
{"name":"Pérassay","latitude":"46.47167","longitude":"2.1475","population":"390","region":"24","departement":"36","arrondissement":"363","commune":"36156"},
{"name":"Archignat","latitude":"46.3725","longitude":"2.4245","population":"351","region":"84","departement":"03","arrondissement":"031","commune":"03005"},
{"name":"Saint-Sauvier","latitude":"46.38611","longitude":"2.33111","population":"336","region":"84","departement":"03","arrondissement":"031","commune":"03259"},
{"name":"Chambérat","latitude":"46.41889","longitude":"2.41306","population":"311","region":"84","departement":"03","arrondissement":"031","commune":"03051"},
{"name":"Courçais","latitude":"46.47083","longitude":"2.43556","population":"308","region":"84","departement":"03","arrondissement":"031","commune":"03088"},
{"name":"Vijon","latitude":"46.42944","longitude":"2.11889","population":"308","region":"24","departement":"36","arrondissement":"363","commune":"36240"},
{"name":"Sidiailles","latitude":"46.50722","longitude":"2.31889","population":"306","region":"24","departement":"18","arrondissement":"182","commune":"18252"},
{"name":"Viplaix","latitude":"46.4607","longitude":"2.3795","population":"285","region":"84","departement":"03","arrondissement":"031","commune":"03317"},
{"name":"Urciers","latitude":"46.5354","longitude":"2.1311","population":"267","region":"24","departement":"36","arrondissement":"363","commune":"36227"},
{"name":"Lavaufranche","latitude":"46.32056","longitude":"2.27139","population":"246","region":"75","departement":"23","arrondissement":"232","commune":"23104"},
{"name":"Saint-Priest-la-Marche","latitude":"46.44889","longitude":"2.17639","population":"240","region":"24","departement":"18","arrondissement":"182","commune":"18232"},
{"name":"Malleret-Boussac","latitude":"46.34278","longitude":"2.14306","population":"239","region":"75","departement":"23","arrondissement":"232","commune":"23120"},
{"name":"Bussière-Saint-Georges","latitude":"46.4","longitude":"2.14389","population":"212","region":"75","departement":"23","arrondissement":"232","commune":"23038"},
{"name":"Saint-Palais","latitude":"46.43944","longitude":"2.3","population":"190","region":"84","departement":"03","arrondissement":"031","commune":"03249"},
{"name":"Saint-Marien","latitude":"46.42028","longitude":"2.225","population":"179","region":"75","departement":"23","arrondissement":"232","commune":"23213"},
{"name":"Champillet","latitude":"46.54778","longitude":"2.11389","population":"157","region":"24","departement":"36","arrondissement":"363","commune":"36038"},
{"name":"Leyrat","latitude":"46.36194","longitude":"2.2925","population":"155","region":"75","departement":"23","arrondissement":"232","commune":"23108"},
{"name":"Saint-Pierre-le-Bost","latitude":"46.40056","longitude":"2.26028","population":"150","region":"75","departement":"23","arrondissement":"232","commune":"23233"},
{"name":"Mesples","latitude":"46.43333","longitude":"2.35889","population":"134","region":"84","departement":"03","arrondissement":"031","commune":"03172"},
{"name":"Lignerolles","latitude":"46.4958","longitude":"2.1446","population":"116","region":"24","departement":"36","arrondissement":"363","commune":"36095"},
{"name":"Saint-Éloy-d'Allier","latitude":"46.48722","longitude":"2.36","population":"59","region":"84","departement":"03","arrondissement":"031","commune":"03228"}
]