[
{"name":"Gisors","latitude":"49.28056","longitude":"1.77639","population":"11726","region":"28","departement":"27","arrondissement":"271","commune":"27284"},
{"name":"Magny-en-Vexin","latitude":"49.15444","longitude":"1.78667","population":"5663","region":"11","departement":"95","arrondissement":"953","commune":"95355"},
{"name":"Chaumont-en-Vexin","latitude":"49.2675","longitude":"1.88889","population":"2980","region":"32","departement":"60","arrondissement":"601","commune":"60143"},
{"name":"Auneuil","latitude":"49.37","longitude":"1.99694","population":"2802","region":"32","departement":"60","arrondissement":"601","commune":"60029"},
{"name":"Sérifontaine","latitude":"49.35333","longitude":"1.77028","population":"2693","region":"32","departement":"60","arrondissement":"601","commune":"60616"},
{"name":"Chars","latitude":"49.16083","longitude":"1.93722","population":"1783","region":"11","departement":"95","arrondissement":"953","commune":"95142"},
{"name":"Trie-Château","latitude":"49.28472","longitude":"1.82111","population":"1513","region":"32","departement":"60","arrondissement":"601","commune":"60644"},
{"name":"Lormaison","latitude":"49.25667","longitude":"2.10556","population":"1305","region":"32","departement":"60","arrondissement":"601","commune":"60370"},
{"name":"Villeneuve-les-Sablons","latitude":"49.23722","longitude":"2.07667","population":"1268","region":"32","departement":"60","arrondissement":"601","commune":"60678"},
{"name":"Saint-Crépin-Ibouvillers","latitude":"49.26333","longitude":"2.0725","population":"1196","region":"32","departement":"60","arrondissement":"601","commune":"60570"},
{"name":"Saint-Gervais","latitude":"49.16917","longitude":"1.76944","population":"963","region":"11","departement":"95","arrondissement":"953","commune":"95554"},
{"name":"Jouy-sous-Thelle","latitude":"49.3173","longitude":"1.9709","population":"926","region":"32","departement":"60","arrondissement":"601","commune":"60327"},
{"name":"Valdampierre","latitude":"49.30306","longitude":"2.05222","population":"922","region":"32","departement":"60","arrondissement":"601","commune":"60652"},
{"name":"Monneville","latitude":"49.20778","longitude":"1.97417","population":"837","region":"32","departement":"60","arrondissement":"601","commune":"60411"},
{"name":"Le Mesnil-Théribus","latitude":"49.30083","longitude":"1.98722","population":"811","region":"32","departement":"60","arrondissement":"601","commune":"60401"},
{"name":"Berneuil-en-Bray","latitude":"49.34889","longitude":"2.06583","population":"790","region":"32","departement":"60","arrondissement":"601","commune":"60063"},
{"name":"Hénonville","latitude":"49.20694","longitude":"2.05306","population":"786","region":"32","departement":"60","arrondissement":"601","commune":"60309"},
{"name":"Fresneaux-Montchevreuil","latitude":"49.28083","longitude":"2.00306","population":"753","region":"32","departement":"60","arrondissement":"601","commune":"60256"},
{"name":"Nucourt","latitude":"49.15889","longitude":"1.85417","population":"747","region":"11","departement":"95","arrondissement":"953","commune":"95459"},
{"name":"Flavacourt","latitude":"49.3353","longitude":"1.8215","population":"706","region":"32","departement":"60","arrondissement":"601","commune":"60235"},
{"name":"Ivry-le-Temple","latitude":"49.22861","longitude":"2.03","population":"656","region":"32","departement":"60","arrondissement":"601","commune":"60321"},
{"name":"Bazincourt-sur-Epte","latitude":"49.31167","longitude":"1.76722","population":"650","region":"28","departement":"27","arrondissement":"271","commune":"27045"},
{"name":"Auteuil","latitude":"49.34139","longitude":"2.08694","population":"587","region":"32","departement":"60","arrondissement":"601","commune":"60030"},
{"name":"Éragny-sur-Epte","latitude":"49.31556","longitude":"1.77389","population":"586","region":"32","departement":"60","arrondissement":"601","commune":"60211"},
{"name":"Montagny-en-Vexin","latitude":"49.19528","longitude":"1.80028","population":"569","region":"32","departement":"60","arrondissement":"601","commune":"60412"},
{"name":"La Houssoye","latitude":"49.3542","longitude":"1.943","population":"562","region":"32","departement":"60","arrondissement":"601","commune":"60319"},
{"name":"Liancourt-Saint-Pierre","latitude":"49.23472","longitude":"1.90806","population":"548","region":"32","departement":"60","arrondissement":"601","commune":"60361"},
{"name":"Haravilliers","latitude":"49.17361","longitude":"2.04667","population":"530","region":"11","departement":"95","arrondissement":"953","commune":"95298"},
{"name":"Neuville-Bosc","latitude":"49.19944","longitude":"2.01167","population":"529","region":"32","departement":"60","arrondissement":"601","commune":"60452"},
{"name":"Delincourt","latitude":"49.24306","longitude":"1.83194","population":"524","region":"32","departement":"60","arrondissement":"601","commune":"60195"},
{"name":"Fleury","latitude":"49.24472","longitude":"1.96972","population":"503","region":"32","departement":"60","arrondissement":"601","commune":"60239"},
{"name":"Lavilletertre","latitude":"49.19611","longitude":"1.92944","population":"499","region":"32","departement":"60","arrondissement":"601","commune":"60356"},
{"name":"Montjavoult","latitude":"49.21417","longitude":"1.78278","population":"490","region":"32","departement":"60","arrondissement":"601","commune":"60420"},
{"name":"Fresne-Léguillon","latitude":"49.2543","longitude":"1.9844","population":"472","region":"32","departement":"60","arrondissement":"601","commune":"60257"},
{"name":"Le Vauroux","latitude":"49.37917","longitude":"1.92389","population":"465","region":"32","departement":"60","arrondissement":"601","commune":"60662"},
{"name":"Labosse","latitude":"49.34556","longitude":"1.89806","population":"456","region":"32","departement":"60","arrondissement":"601","commune":"60331"},
{"name":"Fay-les-Étangs","latitude":"49.24611","longitude":"1.93972","population":"420","region":"32","departement":"60","arrondissement":"601","commune":"60228"},
{"name":"Bachivillers","latitude":"49.29028","longitude":"1.9625","population":"419","region":"32","departement":"60","arrondissement":"601","commune":"60038"},
{"name":"Boubiers","latitude":"49.22083","longitude":"1.86972","population":"388","region":"32","departement":"60","arrondissement":"601","commune":"60089"},
{"name":"Bouconvillers","latitude":"49.17583","longitude":"1.90361","population":"369","region":"32","departement":"60","arrondissement":"601","commune":"60090"},
{"name":"Hadancourt-le-Haut-Clocher","latitude":"49.18472","longitude":"1.85639","population":"355","region":"32","departement":"60","arrondissement":"601","commune":"60293"},
{"name":"Beaumont-les-Nonains","latitude":"49.32778","longitude":"2.00806","population":"352","region":"32","departement":"60","arrondissement":"601","commune":"60054"},
{"name":"Villers-sur-Trie","latitude":"49.3074","longitude":"1.8233","population":"350","region":"32","departement":"60","arrondissement":"601","commune":"60690"},
{"name":"Loconville","latitude":"49.2561","longitude":"1.9196","population":"344","region":"32","departement":"60","arrondissement":"601","commune":"60367"},
{"name":"Le Vaumain","latitude":"49.3362","longitude":"1.8683","population":"342","region":"32","departement":"60","arrondissement":"601","commune":"60660"},
{"name":"Trie-la-Ville","latitude":"49.28972","longitude":"1.8325","population":"328","region":"32","departement":"60","arrondissement":"601","commune":"60645"},
{"name":"Berville","latitude":"49.19083","longitude":"2.07139","population":"328","region":"11","departement":"95","arrondissement":"953","commune":"95059"},
{"name":"Senots","latitude":"49.26389","longitude":"1.99222","population":"325","region":"32","departement":"60","arrondissement":"601","commune":"60613"},
{"name":"Chambors","latitude":"49.26056","longitude":"1.81611","population":"324","region":"32","departement":"60","arrondissement":"601","commune":"60140"},
{"name":"Corbeil-Cerf","latitude":"49.27972","longitude":"2.10361","population":"322","region":"32","departement":"60","arrondissement":"601","commune":"60162"},
{"name":"Porcheux","latitude":"49.3326","longitude":"1.9259","population":"305","region":"32","departement":"60","arrondissement":"601","commune":"60510"},
{"name":"Villotran","latitude":"49.34583","longitude":"2.01611","population":"286","region":"32","departement":"60","arrondissement":"601","commune":"60694"},
{"name":"La Neuville-d'Aumont","latitude":"49.30944","longitude":"2.09889","population":"280","region":"32","departement":"60","arrondissement":"601","commune":"60453"},
{"name":"La Neuville-Garnier","latitude":"49.3326","longitude":"2.0402","population":"270","region":"32","departement":"60","arrondissement":"601","commune":"60455"},
{"name":"Jaméricourt","latitude":"49.30389","longitude":"1.87972","population":"267","region":"32","departement":"60","arrondissement":"601","commune":"60322"},
{"name":"Boutencourt","latitude":"49.32","longitude":"1.8593","population":"249","region":"32","departement":"60","arrondissement":"601","commune":"60097"},
{"name":"Serans","latitude":"49.18639","longitude":"1.83083","population":"231","region":"32","departement":"60","arrondissement":"601","commune":"60614"},
{"name":"Lierville","latitude":"49.19056","longitude":"1.88167","population":"223","region":"32","departement":"60","arrondissement":"601","commune":"60363"},
{"name":"Thibivillers","latitude":"49.30167","longitude":"1.9","population":"204","region":"32","departement":"60","arrondissement":"601","commune":"60630"},
{"name":"Énencourt-le-Sec","latitude":"49.29778","longitude":"1.92222","population":"202","region":"32","departement":"60","arrondissement":"601","commune":"60209"},
{"name":"Neuilly-en-Vexin","latitude":"49.16833","longitude":"1.97639","population":"202","region":"11","departement":"95","arrondissement":"953","commune":"95447"},
{"name":"Boissy-le-Bois","latitude":"49.27722","longitude":"1.94306","population":"190","region":"32","departement":"60","arrondissement":"601","commune":"60080"},
{"name":"Monts","latitude":"49.21667","longitude":"2.01667","population":"189","region":"32","departement":"60","arrondissement":"601","commune":"60427"},
{"name":"Le Heaulme","latitude":"49.16667","longitude":"2","population":"185","region":"11","departement":"95","arrondissement":"953","commune":"95303"},
{"name":"Tourly","latitude":"49.22417","longitude":"1.94694","population":"177","region":"32","departement":"60","arrondissement":"601","commune":"60640"},
{"name":"Pouilly","latitude":"49.27222","longitude":"2.03028","population":"167","region":"32","departement":"60","arrondissement":"601","commune":"60512"},
{"name":"Lattainville","latitude":"49.24167","longitude":"1.81472","population":"153","region":"32","departement":"60","arrondissement":"601","commune":"60352"},
{"name":"Chavençon","latitude":"49.1875","longitude":"1.99472","population":"150","region":"32","departement":"60","arrondissement":"601","commune":"60144"},
{"name":"Reilly","latitude":"49.24361","longitude":"1.84667","population":"139","region":"32","departement":"60","arrondissement":"601","commune":"60528"},
{"name":"Hardivillers-en-Vexin","latitude":"49.30389","longitude":"1.93861","population":"126","region":"32","departement":"60","arrondissement":"601","commune":"60300"},
{"name":"Énencourt-Léage","latitude":"49.30389","longitude":"1.84667","population":"121","region":"32","departement":"60","arrondissement":"601","commune":"60208"},
{"name":"Ressons-l'Abbaye","latitude":"49.30222","longitude":"2.08778","population":"93","region":"32","departement":"60","arrondissement":"601","commune":"60532"},
{"name":"Theuville","latitude":"49.15417","longitude":"2.07194","population":"30","region":"11","departement":"95","arrondissement":"953","commune":"95611"}
]