[
{"name":"Desvres","latitude":"50.66778","longitude":"1.83444","population":"5172","region":"32","departement":"62","arrondissement":"623","commune":"62268"},
{"name":"Longfossé","latitude":"50.65194","longitude":"1.80556","population":"1363","region":"32","departement":"62","arrondissement":"623","commune":"62524"},
{"name":"Fauquembergues","latitude":"50.60111","longitude":"2.09806","population":"973","region":"32","departement":"62","arrondissement":"625","commune":"62325"},
{"name":"Nielles-lès-Bléquin","latitude":"50.67417","longitude":"2.03194","population":"882","region":"32","departement":"62","arrondissement":"625","commune":"62613"},
{"name":"Crémarest","latitude":"50.69944","longitude":"1.785","population":"745","region":"32","departement":"62","arrondissement":"623","commune":"62255"},
{"name":"Wirwignes","latitude":"50.685","longitude":"1.76111","population":"739","region":"32","departement":"62","arrondissement":"623","commune":"62896"},
{"name":"Thiembronne","latitude":"50.62056","longitude":"2.0575","population":"710","region":"32","departement":"62","arrondissement":"625","commune":"62812"},
{"name":"Menneville","latitude":"50.67472","longitude":"1.86167","population":"702","region":"32","departement":"62","arrondissement":"623","commune":"62566"},
{"name":"Bourthes","latitude":"50.60639","longitude":"1.93333","population":"693","region":"32","departement":"62","arrondissement":"624","commune":"62168"},
{"name":"Acquin-Westbécourt","latitude":"50.7276","longitude":"2.0897","population":"678","region":"32","departement":"62","arrondissement":"625","commune":"62008"},
{"name":"Coulomby","latitude":"50.70556","longitude":"2.01083","population":"654","region":"32","departement":"62","arrondissement":"625","commune":"62245"},
{"name":"Seninghem","latitude":"50.7033","longitude":"2.0348","population":"641","region":"32","departement":"62","arrondissement":"625","commune":"62788"},
{"name":"Verchocq","latitude":"50.56444","longitude":"2.03556","population":"600","region":"32","departement":"62","arrondissement":"624","commune":"62844"},
{"name":"Campagne-lès-Boulonnais","latitude":"50.61278","longitude":"1.9975","population":"592","region":"32","departement":"62","arrondissement":"624","commune":"62202"},
{"name":"Quesques","latitude":"50.70361","longitude":"1.93278","population":"584","region":"32","departement":"62","arrondissement":"623","commune":"62678"},
{"name":"Renty","latitude":"50.58333","longitude":"2.07278","population":"554","region":"32","departement":"62","arrondissement":"625","commune":"62704"},
{"name":"Preures","latitude":"50.57194","longitude":"1.87778","population":"554","region":"32","departement":"62","arrondissement":"624","commune":"62670"},
{"name":"Coupelle-Vieille","latitude":"50.52444","longitude":"2.09972","population":"528","region":"32","departement":"62","arrondissement":"624","commune":"62247"},
{"name":"Hucqueliers","latitude":"50.56889","longitude":"1.90639","population":"521","region":"32","departement":"62","arrondissement":"624","commune":"62463"},
{"name":"Wismes","latitude":"50.65417","longitude":"2.07139","population":"521","region":"32","departement":"62","arrondissement":"625","commune":"62897"},
{"name":"Lottinghen","latitude":"50.68417","longitude":"1.9325","population":"517","region":"32","departement":"62","arrondissement":"623","commune":"62530"},
{"name":"Doudeauville","latitude":"50.61194","longitude":"1.82917","population":"503","region":"32","departement":"62","arrondissement":"623","commune":"62273"},
{"name":"Zoteux","latitude":"50.61056","longitude":"1.87972","population":"501","region":"32","departement":"62","arrondissement":"624","commune":"62903"},
{"name":"Beussent","latitude":"50.54639","longitude":"1.79222","population":"500","region":"32","departement":"62","arrondissement":"624","commune":"62123"},
{"name":"Vaudringhem","latitude":"50.66222","longitude":"2.02833","population":"488","region":"32","departement":"62","arrondissement":"625","commune":"62837"},
{"name":"Saint-Martin-Choquel","latitude":"50.67139","longitude":"1.88028","population":"465","region":"32","departement":"62","arrondissement":"623","commune":"62759"},
{"name":"Courset","latitude":"50.64639","longitude":"1.84111","population":"461","region":"32","departement":"62","arrondissement":"623","commune":"62251"},
{"name":"Parenty","latitude":"50.58778","longitude":"1.80917","population":"453","region":"32","departement":"62","arrondissement":"624","commune":"62648"},
{"name":"Escœuilles","latitude":"50.7258","longitude":"1.9268","population":"447","region":"32","departement":"62","arrondissement":"625","commune":"62308"},
{"name":"Bléquin","latitude":"50.6637","longitude":"1.9898","population":"404","region":"32","departement":"62","arrondissement":"625","commune":"62140"},
{"name":"Vieil-Moutier","latitude":"50.67389","longitude":"1.91389","population":"383","region":"32","departement":"62","arrondissement":"623","commune":"62853"},
{"name":"Montcavrel","latitude":"50.51556","longitude":"1.81028","population":"372","region":"32","departement":"62","arrondissement":"624","commune":"62585"},
{"name":"Brunembert","latitude":"50.71389","longitude":"1.89333","population":"366","region":"32","departement":"62","arrondissement":"623","commune":"62179"},
{"name":"Alette","latitude":"50.51806","longitude":"1.82806","population":"344","region":"32","departement":"62","arrondissement":"624","commune":"62021"},
{"name":"Alincthun","latitude":"50.73111","longitude":"1.80139","population":"344","region":"32","departement":"62","arrondissement":"623","commune":"62022"},
{"name":"Bellebrune","latitude":"50.72694","longitude":"1.77444","population":"342","region":"32","departement":"62","arrondissement":"623","commune":"62104"},
{"name":"Bezinghem","latitude":"50.59444","longitude":"1.82611","population":"341","region":"32","departement":"62","arrondissement":"624","commune":"62127"},
{"name":"Bayenghem-lès-Seninghem","latitude":"50.70028","longitude":"2.07667","population":"332","region":"32","departement":"62","arrondissement":"625","commune":"62088"},
{"name":"Herly","latitude":"50.54694","longitude":"1.98694","population":"327","region":"32","departement":"62","arrondissement":"624","commune":"62437"},
{"name":"Selles","latitude":"50.69972","longitude":"1.89556","population":"320","region":"32","departement":"62","arrondissement":"623","commune":"62786"},
{"name":"Saint-Martin-d'Hardinghem","latitude":"50.60444","longitude":"2.095","population":"306","region":"32","departement":"62","arrondissement":"625","commune":"62760"},
{"name":"Henneveux","latitude":"50.72333","longitude":"1.85111","population":"304","region":"32","departement":"62","arrondissement":"623","commune":"62429"},
{"name":"Ledinghem","latitude":"50.65361","longitude":"1.99222","population":"292","region":"32","departement":"62","arrondissement":"625","commune":"62495"},
{"name":"Bécourt","latitude":"50.6375","longitude":"1.91028","population":"274","region":"32","departement":"62","arrondissement":"624","commune":"62102"},
{"name":"Recques-sur-Course","latitude":"50.52083","longitude":"1.78417","population":"266","region":"32","departement":"62","arrondissement":"624","commune":"62698"},
{"name":"Rumilly","latitude":"50.5764","longitude":"2.0159","population":"263","region":"32","departement":"62","arrondissement":"624","commune":"62729"},
{"name":"Senlecques","latitude":"50.64667","longitude":"1.93556","population":"244","region":"32","departement":"62","arrondissement":"623","commune":"62789"},
{"name":"Bouvelinghem","latitude":"50.73333","longitude":"2.03333","population":"234","region":"32","departement":"62","arrondissement":"625","commune":"62169"},
{"name":"Bournonville","latitude":"50.70528","longitude":"1.85","population":"226","region":"32","departement":"62","arrondissement":"623","commune":"62165"},
{"name":"Affringues","latitude":"50.68917","longitude":"2.07333","population":"222","region":"32","departement":"62","arrondissement":"625","commune":"62010"},
{"name":"Ergny","latitude":"50.5836","longitude":"1.9817","population":"222","region":"32","departement":"62","arrondissement":"624","commune":"62302"},
{"name":"Enquin-sur-Baillons","latitude":"50.5725","longitude":"1.83722","population":"221","region":"32","departement":"62","arrondissement":"624","commune":"62296"},
{"name":"Wierre-au-Bois","latitude":"50.64417","longitude":"1.76222","population":"214","region":"32","departement":"62","arrondissement":"623","commune":"62888"},
{"name":"Bernieulles","latitude":"50.555","longitude":"1.77361","population":"193","region":"32","departement":"62","arrondissement":"624","commune":"62116"},
{"name":"Wicquinghem","latitude":"50.57556","longitude":"1.96139","population":"188","region":"32","departement":"62","arrondissement":"624","commune":"62886"},
{"name":"Clenleu","latitude":"50.5233","longitude":"1.871","population":"179","region":"32","departement":"62","arrondissement":"624","commune":"62227"},
{"name":"Aix-en-Ergny","latitude":"50.5825","longitude":"1.99722","population":"174","region":"32","departement":"62","arrondissement":"624","commune":"62017"},
{"name":"Inxent","latitude":"50.53333","longitude":"1.78333","population":"160","region":"32","departement":"62","arrondissement":"624","commune":"62472"},
{"name":"Maninghem","latitude":"50.54333","longitude":"1.93944","population":"145","region":"32","departement":"62","arrondissement":"624","commune":"62545"},
{"name":"Longueville","latitude":"50.7321","longitude":"1.8809","population":"132","region":"32","departement":"62","arrondissement":"623","commune":"62526"},
{"name":"Bimont","latitude":"50.54222","longitude":"1.90333","population":"128","region":"32","departement":"62","arrondissement":"624","commune":"62134"},
{"name":"Saint-Michel-sous-Bois","latitude":"50.51389","longitude":"1.93167","population":"118","region":"32","departement":"62","arrondissement":"624","commune":"62762"},
{"name":"Quilen","latitude":"50.52944","longitude":"1.92778","population":"59","region":"32","departement":"62","arrondissement":"624","commune":"62682"},
{"name":"Avesnes","latitude":"50.5503","longitude":"1.9727","population":"33","region":"32","departement":"62","arrondissement":"624","commune":"62062"}
]