[
{"name":"Châtillon-sur-Indre","latitude":"46.98778","longitude":"1.17361","population":"2833","region":"24","departement":"36","arrondissement":"362","commune":"36045"},
{"name":"Clion","latitude":"46.94139","longitude":"1.23278","population":"1123","region":"24","departement":"36","arrondissement":"362","commune":"36055"},
{"name":"Vendœuvres","latitude":"46.80167","longitude":"1.35833","population":"1117","region":"24","departement":"36","arrondissement":"362","commune":"36232"},
{"name":"Mézières-en-Brenne","latitude":"46.82056","longitude":"1.21056","population":"1076","region":"24","departement":"36","arrondissement":"361","commune":"36123"},
{"name":"Saint-Genou","latitude":"46.92944","longitude":"1.33806","population":"1025","region":"24","departement":"36","arrondissement":"362","commune":"36194"},
{"name":"Azay-le-Ferron","latitude":"46.85167","longitude":"1.06944","population":"934","region":"24","departement":"36","arrondissement":"361","commune":"36010"},
{"name":"Palluau-sur-Indre","latitude":"46.94389","longitude":"1.31167","population":"783","region":"24","departement":"36","arrondissement":"362","commune":"36149"},
{"name":"Fléré-la-Rivière","latitude":"47.01972","longitude":"1.10833","population":"604","region":"24","departement":"36","arrondissement":"362","commune":"36074"},
{"name":"Bridoré","latitude":"47.0268","longitude":"1.0835","population":"535","region":"24","departement":"37","arrondissement":"373","commune":"37039"},
{"name":"Villegouin","latitude":"46.96417","longitude":"1.37306","population":"404","region":"24","departement":"36","arrondissement":"362","commune":"36243"},
{"name":"Paulnay","latitude":"46.85083","longitude":"1.14778","population":"357","region":"24","departement":"36","arrondissement":"361","commune":"36153"},
{"name":"Saint-Michel-en-Brenne","latitude":"46.80611","longitude":"1.15806","population":"320","region":"24","departement":"36","arrondissement":"361","commune":"36204"},
{"name":"Cléré-du-Bois","latitude":"46.92333","longitude":"1.10194","population":"285","region":"24","departement":"36","arrondissement":"362","commune":"36054"},
{"name":"Sainte-Gemme","latitude":"46.85222","longitude":"1.33917","population":"261","region":"24","departement":"36","arrondissement":"361","commune":"36193"},
{"name":"Arpheuilles","latitude":"46.9","longitude":"1.27778","population":"247","region":"24","departement":"36","arrondissement":"362","commune":"36008"},
{"name":"Saint-Cyran-du-Jambot","latitude":"47.01639","longitude":"1.14","population":"206","region":"24","departement":"36","arrondissement":"362","commune":"36188"},
{"name":"Villiers","latitude":"46.8873","longitude":"1.1852","population":"188","region":"24","departement":"36","arrondissement":"361","commune":"36246"},
{"name":"Saulnay","latitude":"46.86861","longitude":"1.26861","population":"184","region":"24","departement":"36","arrondissement":"361","commune":"36212"},
{"name":"Le Tranger","latitude":"46.95694","longitude":"1.24028","population":"180","region":"24","departement":"36","arrondissement":"362","commune":"36225"},
{"name":"Préaux","latitude":"47.02111","longitude":"1.2925","population":"163","region":"24","departement":"36","arrondissement":"362","commune":"36166"},
{"name":"Murs","latitude":"46.9143","longitude":"1.1618","population":"120","region":"24","departement":"36","arrondissement":"362","commune":"36136"},
{"name":"Saint-Médard","latitude":"46.99972","longitude":"1.24667","population":"44","region":"24","departement":"36","arrondissement":"362","commune":"36203"}
]