[
{"name":"Les Pieux","latitude":"49.51306","longitude":"-1.80778","population":"3588","region":"28","departement":"50","arrondissement":"502","commune":"50402"},
{"name":"Flamanville","latitude":"49.53083","longitude":"-1.86639","population":"1720","region":"28","departement":"50","arrondissement":"502","commune":"50184"},
{"name":"Surtainville","latitude":"49.45917","longitude":"-1.81278","population":"1255","region":"28","departement":"50","arrondissement":"502","commune":"50585"},
{"name":"Siouville-Hague","latitude":"49.5585","longitude":"-1.8388","population":"1116","region":"28","departement":"50","arrondissement":"502","commune":"50576"},
{"name":"Vasteville","latitude":"49.59444","longitude":"-1.77306","population":"1096","region":"28","departement":"50","arrondissement":"502","commune":"50620"},
{"name":"Tréauville","latitude":"49.5315","longitude":"-1.8109","population":"728","region":"28","departement":"50","arrondissement":"502","commune":"50604"},
{"name":"Saint-Germain-le-Gaillard","latitude":"49.48639","longitude":"-1.78222","population":"691","region":"28","departement":"50","arrondissement":"502","commune":"50480"},
{"name":"Pierreville","latitude":"49.47333","longitude":"-1.78167","population":"681","region":"28","departement":"50","arrondissement":"502","commune":"50401"},
{"name":"Les Moitiers-d'Allonne","latitude":"49.40167","longitude":"-1.77944","population":"681","region":"28","departement":"50","arrondissement":"502","commune":"50332"},
{"name":"Benoîtville","latitude":"49.52778","longitude":"-1.78083","population":"571","region":"28","departement":"50","arrondissement":"502","commune":"50045"},
{"name":"Héauville","latitude":"49.58111","longitude":"-1.8","population":"502","region":"28","departement":"50","arrondissement":"502","commune":"50238"},
{"name":"Helleville","latitude":"49.55472","longitude":"-1.78333","population":"435","region":"28","departement":"50","arrondissement":"502","commune":"50240"},
{"name":"Le Rozel","latitude":"49.4874","longitude":"-1.828","population":"281","region":"28","departement":"50","arrondissement":"502","commune":"50442"},
{"name":"Sénoville","latitude":"49.43361","longitude":"-1.78056","population":"211","region":"28","departement":"50","arrondissement":"502","commune":"50572"},
{"name":"Baubigny","latitude":"49.43","longitude":"-1.80389","population":"154","region":"28","departement":"50","arrondissement":"502","commune":"50033"}
]