[
{"name":"Sens","latitude":"48.19722","longitude":"3.28333","population":"25885","region":"27","departement":"89","arrondissement":"893","commune":"89387"},
{"name":"Villeneuve-sur-Yonne","latitude":"48.08139","longitude":"3.29667","population":"5263","region":"27","departement":"89","arrondissement":"893","commune":"89464"},
{"name":"Paron","latitude":"48.18944","longitude":"3.26389","population":"4432","region":"27","departement":"89","arrondissement":"893","commune":"89287"},
{"name":"Saint-Clément","latitude":"48.21778","longitude":"3.29278","population":"2837","region":"27","departement":"89","arrondissement":"893","commune":"89338"},
{"name":"Saint-Julien-du-Sault","latitude":"48.03194","longitude":"3.295","population":"2347","region":"27","departement":"89","arrondissement":"893","commune":"89348"},
{"name":"Véron","latitude":"48.12889","longitude":"3.30722","population":"1951","region":"27","departement":"89","arrondissement":"893","commune":"89443"},
{"name":"Malay-le-Grand","latitude":"48.17472","longitude":"3.34111","population":"1534","region":"27","departement":"89","arrondissement":"893","commune":"89239"},
{"name":"Saint-Martin-du-Tertre","latitude":"48.21361","longitude":"3.25917","population":"1527","region":"27","departement":"89","arrondissement":"893","commune":"89354"},
{"name":"Égriselles-le-Bocage","latitude":"48.12028","longitude":"3.18222","population":"1229","region":"27","departement":"89","arrondissement":"893","commune":"89151"},
{"name":"Nailly","latitude":"48.22361","longitude":"3.22306","population":"1223","region":"27","departement":"89","arrondissement":"893","commune":"89274"},
{"name":"Gron","latitude":"48.1575","longitude":"3.26333","population":"1219","region":"27","departement":"89","arrondissement":"893","commune":"89195"},
{"name":"Cézy","latitude":"47.99222","longitude":"3.34056","population":"1120","region":"27","departement":"89","arrondissement":"891","commune":"89067"},
{"name":"Maillot","latitude":"48.17444","longitude":"3.30833","population":"1095","region":"27","departement":"89","arrondissement":"893","commune":"89236"},
{"name":"Rosoy","latitude":"48.15056","longitude":"3.31194","population":"1052","region":"27","departement":"89","arrondissement":"893","commune":"89326"},
{"name":"Cerisiers","latitude":"48.13361","longitude":"3.48472","population":"985","region":"27","departement":"89","arrondissement":"893","commune":"89066"},
{"name":"Dixmont","latitude":"48.08278","longitude":"3.41389","population":"895","region":"27","departement":"89","arrondissement":"893","commune":"89142"},
{"name":"Marsangy","latitude":"48.1104","longitude":"3.2588","population":"843","region":"27","departement":"89","arrondissement":"893","commune":"89245"},
{"name":"Bussy-en-Othe","latitude":"48.01944","longitude":"3.51444","population":"760","region":"27","departement":"89","arrondissement":"891","commune":"89059"},
{"name":"Étigny","latitude":"48.13861","longitude":"3.29167","population":"757","region":"27","departement":"89","arrondissement":"893","commune":"89160"},
{"name":"Armeau","latitude":"48.04583","longitude":"3.32333","population":"744","region":"27","departement":"89","arrondissement":"893","commune":"89018"},
{"name":"Chaumot","latitude":"48.08083","longitude":"3.21806","population":"686","region":"27","departement":"89","arrondissement":"893","commune":"89094"},
{"name":"Saligny","latitude":"48.21333","longitude":"3.35333","population":"664","region":"27","departement":"89","arrondissement":"893","commune":"89373"},
{"name":"Brion","latitude":"47.99583","longitude":"3.48056","population":"605","region":"27","departement":"89","arrondissement":"891","commune":"89056"},
{"name":"Collemiers","latitude":"48.15667","longitude":"3.23361","population":"570","region":"27","departement":"89","arrondissement":"893","commune":"89113"},
{"name":"Les Vallées de la Vanne","latitude":"48.16778","longitude":"3.42944","population":"522","region":"27","departement":"89","arrondissement":"893","commune":"89411"},
{"name":"Les Bordes","latitude":"48.0975","longitude":"3.38056","population":"516","region":"27","departement":"89","arrondissement":"893","commune":"89051"},
{"name":"Fontaine-la-Gaillarde","latitude":"48.21944","longitude":"3.38","population":"509","region":"27","departement":"89","arrondissement":"893","commune":"89172"},
{"name":"Subligny","latitude":"48.16694","longitude":"3.20333","population":"487","region":"27","departement":"89","arrondissement":"893","commune":"89404"},
{"name":"Looze","latitude":"47.9925","longitude":"3.44","population":"464","region":"27","departement":"89","arrondissement":"891","commune":"89230"},
{"name":"Saint-Aubin-sur-Yonne","latitude":"48.00111","longitude":"3.34583","population":"464","region":"27","departement":"89","arrondissement":"891","commune":"89335"},
{"name":"Villiers-Louis","latitude":"48.19083","longitude":"3.4025","population":"462","region":"27","departement":"89","arrondissement":"893","commune":"89471"},
{"name":"Noé","latitude":"48.16361","longitude":"3.40278","population":"448","region":"27","departement":"89","arrondissement":"893","commune":"89278"},
{"name":"Verlin","latitude":"48.01667","longitude":"3.23333","population":"430","region":"27","departement":"89","arrondissement":"893","commune":"89440"},
{"name":"Villevallier","latitude":"48.02472","longitude":"3.31389","population":"425","region":"27","departement":"89","arrondissement":"891","commune":"89468"},
{"name":"Villecien","latitude":"48.00722","longitude":"3.32944","population":"407","region":"27","departement":"89","arrondissement":"891","commune":"89452"},
{"name":"Rousson","latitude":"48.09472","longitude":"3.26278","population":"395","region":"27","departement":"89","arrondissement":"893","commune":"89327"},
{"name":"Bussy-le-Repos","latitude":"48.05667","longitude":"3.23194","population":"389","region":"27","departement":"89","arrondissement":"893","commune":"89060"},
{"name":"Malay-le-Petit","latitude":"48.1725","longitude":"3.38194","population":"353","region":"27","departement":"89","arrondissement":"893","commune":"89240"},
{"name":"Cornant","latitude":"48.1325","longitude":"3.18556","population":"348","region":"27","departement":"89","arrondissement":"893","commune":"89116"},
{"name":"Vaumort","latitude":"48.15472","longitude":"3.43917","population":"334","region":"27","departement":"89","arrondissement":"893","commune":"89434"},
{"name":"Saint-Martin-d'Ordon","latitude":"48.02333","longitude":"3.17556","population":"310","region":"27","departement":"89","arrondissement":"893","commune":"89353"},
{"name":"Villeroy","latitude":"48.17306","longitude":"3.18639","population":"309","region":"27","departement":"89","arrondissement":"893","commune":"89466"},
{"name":"Passy","latitude":"48.1104","longitude":"3.3038","population":"300","region":"27","departement":"89","arrondissement":"893","commune":"89291"},
{"name":"Foissy-sur-Vanne","latitude":"48.22417","longitude":"3.50556","population":"290","region":"27","departement":"89","arrondissement":"893","commune":"89171"},
{"name":"Villechétive","latitude":"48.095","longitude":"3.51139","population":"215","region":"27","departement":"89","arrondissement":"893","commune":"89451"},
{"name":"Pont-sur-Vanne","latitude":"48.18417","longitude":"3.44278","population":"197","region":"27","departement":"89","arrondissement":"893","commune":"89308"}
]