[
{"name":"Forbach","latitude":"49.18806","longitude":"6.9","population":"21595","region":"44","departement":"57","arrondissement":"573","commune":"57227"},
{"name":"Creutzwald","latitude":"49.2057","longitude":"6.6959","population":"13525","region":"44","departement":"57","arrondissement":"571","commune":"57160"},
{"name":"Stiring-Wendel","latitude":"49.2","longitude":"6.92917","population":"12337","region":"44","departement":"57","arrondissement":"573","commune":"57660"},
{"name":"Behren-lès-Forbach","latitude":"49.17389","longitude":"6.93472","population":"8535","region":"44","departement":"57","arrondissement":"573","commune":"57058"},
{"name":"Petite-Rosselle","latitude":"49.212","longitude":"6.8579","population":"6620","region":"44","departement":"57","arrondissement":"573","commune":"57537"},
{"name":"L'Hôpital","latitude":"49.15806","longitude":"6.73222","population":"5480","region":"44","departement":"57","arrondissement":"573","commune":"57336"},
{"name":"Carling","latitude":"49.16667","longitude":"6.71667","population":"3730","region":"44","departement":"57","arrondissement":"573","commune":"57123"},
{"name":"Grosbliederstroff","latitude":"49.15715","longitude":"7.02784","population":"3308","region":"44","departement":"57","arrondissement":"576","commune":"57260"},
{"name":"Spicheren","latitude":"49.19167","longitude":"6.96833","population":"3244","region":"44","departement":"57","arrondissement":"573","commune":"57659"},
{"name":"Schœneck","latitude":"49.21972","longitude":"6.92389","population":"2755","region":"44","departement":"57","arrondissement":"573","commune":"57638"},
{"name":"Alsting","latitude":"49.17917","longitude":"6.99833","population":"2672","region":"44","departement":"57","arrondissement":"573","commune":"57013"},
{"name":"Morsbach","latitude":"49.16694","longitude":"6.87083","population":"2584","region":"44","departement":"57","arrondissement":"573","commune":"57484"},
{"name":"Œting","latitude":"49.17361","longitude":"6.91472","population":"2514","region":"44","departement":"57","arrondissement":"573","commune":"57521"},
{"name":"Kerbach","latitude":"49.16639","longitude":"6.965","population":"1183","region":"44","departement":"57","arrondissement":"573","commune":"57360"},
{"name":"Etzling","latitude":"49.17833","longitude":"6.96222","population":"1127","region":"44","departement":"57","arrondissement":"573","commune":"57202"},
{"name":"Lixing-lès-Rouhling","latitude":"49.15361","longitude":"6.99444","population":"919","region":"44","departement":"57","arrondissement":"576","commune":"57408"},
{"name":"Rosbruck","latitude":"49.15861","longitude":"6.85083","population":"769","region":"44","departement":"57","arrondissement":"573","commune":"57596"}
]