[
{"name":"Brignoles","latitude":"43.40583","longitude":"6.06167","population":"16466","region":"93","departement":"83","arrondissement":"833","commune":"83023"},
{"name":"Le Luc","latitude":"43.3944","longitude":"6.3134","population":"9270","region":"93","departement":"83","arrondissement":"831","commune":"83073"},
{"name":"Garéoult","latitude":"43.32833","longitude":"6.04611","population":"5622","region":"93","departement":"83","arrondissement":"833","commune":"83064"},
{"name":"Le Val","latitude":"43.43944","longitude":"6.07306","population":"4022","region":"93","departement":"83","arrondissement":"833","commune":"83143"},
{"name":"Salernes","latitude":"43.5636","longitude":"6.2342","population":"3574","region":"93","departement":"83","arrondissement":"831","commune":"83121"},
{"name":"Carcès","latitude":"43.47611","longitude":"6.18278","population":"3268","region":"93","departement":"83","arrondissement":"833","commune":"83032"},
{"name":"Barjols","latitude":"43.55806","longitude":"6.0075","population":"3047","region":"93","departement":"83","arrondissement":"833","commune":"83012"},
{"name":"Flassans-sur-Issole","latitude":"43.36861","longitude":"6.22111","population":"3036","region":"93","departement":"83","arrondissement":"833","commune":"83057"},
{"name":"Besse-sur-Issole","latitude":"43.34861","longitude":"6.17639","population":"2855","region":"93","departement":"83","arrondissement":"833","commune":"83018"},
{"name":"Forcalqueiret","latitude":"43.33639","longitude":"6.08056","population":"2295","region":"93","departement":"83","arrondissement":"833","commune":"83059"},
{"name":"Le Thoronet","latitude":"43.45194","longitude":"6.30389","population":"2216","region":"93","departement":"83","arrondissement":"831","commune":"83136"},
{"name":"Cotignac","latitude":"43.52861","longitude":"6.14944","population":"2148","region":"93","departement":"83","arrondissement":"833","commune":"83046"},
{"name":"Cabasse","latitude":"43.42611","longitude":"6.22194","population":"1928","region":"93","departement":"83","arrondissement":"833","commune":"83026"},
{"name":"Sainte-Anastasie-sur-Issole","latitude":"43.3425","longitude":"6.12472","population":"1896","region":"93","departement":"83","arrondissement":"833","commune":"83111"},
{"name":"Camps-la-Source","latitude":"43.38639","longitude":"6.09444","population":"1650","region":"93","departement":"83","arrondissement":"833","commune":"83030"},
{"name":"La Celle","latitude":"43.39417","longitude":"6.04056","population":"1293","region":"93","departement":"83","arrondissement":"833","commune":"83037"},
{"name":"Montfort-sur-Argens","latitude":"43.47389","longitude":"6.12194","population":"1180","region":"93","departement":"83","arrondissement":"833","commune":"83083"},
{"name":"Entrecasteaux","latitude":"43.51583","longitude":"6.24194","population":"1041","region":"93","departement":"83","arrondissement":"833","commune":"83051"},
{"name":"Vins-sur-Caramy","latitude":"43.43417","longitude":"6.14194","population":"880","region":"93","departement":"83","arrondissement":"833","commune":"83151"},
{"name":"Correns","latitude":"43.4875","longitude":"6.07944","population":"817","region":"93","departement":"83","arrondissement":"833","commune":"83045"},
{"name":"Pontevès","latitude":"43.5537","longitude":"6.0299","population":"678","region":"93","departement":"83","arrondissement":"833","commune":"83095"},
{"name":"Saint-Antonin-du-Var","latitude":"43.5069","longitude":"6.2873","population":"622","region":"93","departement":"83","arrondissement":"833","commune":"83154"},
{"name":"Sillans-la-Cascade","latitude":"43.56778","longitude":"6.17972","population":"583","region":"93","departement":"83","arrondissement":"833","commune":"83128"},
{"name":"Châteauvert","latitude":"43.5","longitude":"6.02583","population":"132","region":"93","departement":"83","arrondissement":"833","commune":"83039"}
]