[
{"name":"Gex","latitude":"46.33333","longitude":"6.05778","population":"9882","region":"84","departement":"01","arrondissement":"013","commune":"01173"},
{"name":"Divonne-les-Bains","latitude":"46.35667","longitude":"6.14278","population":"7926","region":"84","departement":"01","arrondissement":"013","commune":"01143"},
{"name":"Hauts de Bienne","latitude":"46.52194","longitude":"6.02222","population":"5240","region":"27","departement":"39","arrondissement":"393","commune":"39368"},
{"name":"Cessy","latitude":"46.31917","longitude":"6.07","population":"3819","region":"84","departement":"01","arrondissement":"013","commune":"01071"},
{"name":"Les Rousses","latitude":"46.48583","longitude":"6.06167","population":"3067","region":"27","departement":"39","arrondissement":"393","commune":"39470"},
{"name":"Morbier","latitude":"46.53694","longitude":"6.01667","population":"2267","region":"27","departement":"39","arrondissement":"393","commune":"39367"},
{"name":"Messery","latitude":"46.35111","longitude":"6.29167","population":"2053","region":"84","departement":"74","arrondissement":"744","commune":"74180"},
{"name":"Chens-sur-Léman","latitude":"46.32806","longitude":"6.26861","population":"1822","region":"84","departement":"74","arrondissement":"744","commune":"74070"},
{"name":"Bois-d'Amont","latitude":"46.53556","longitude":"6.13917","population":"1665","region":"27","departement":"39","arrondissement":"393","commune":"39059"},
{"name":"Prémanon","latitude":"46.46194","longitude":"6.03139","population":"1015","region":"27","departement":"39","arrondissement":"393","commune":"39441"},
{"name":"Yvoire","latitude":"46.37","longitude":"6.32667","population":"820","region":"84","departement":"74","arrondissement":"744","commune":"74315"},
{"name":"Grilly","latitude":"46.33056","longitude":"6.115","population":"736","region":"84","departement":"01","arrondissement":"013","commune":"01180"},
{"name":"Bellefontaine","latitude":"46.55694","longitude":"6.06556","population":"552","region":"27","departement":"39","arrondissement":"393","commune":"39047"},
{"name":"Vesancy","latitude":"46.34861","longitude":"6.09083","population":"523","region":"84","departement":"01","arrondissement":"013","commune":"01436"},
{"name":"Nernier","latitude":"46.36556","longitude":"6.30361","population":"450","region":"84","departement":"74","arrondissement":"744","commune":"74199"},
{"name":"Mijoux","latitude":"46.36611","longitude":"5.99528","population":"380","region":"84","departement":"01","arrondissement":"013","commune":"01247"}
]