[
{"name":"Saint-Louis","latitude":"47.58528","longitude":"7.565","population":"19761","region":"44","departement":"68","arrondissement":"684","commune":"68297"},
{"name":"Rixheim","latitude":"47.7486","longitude":"7.4051","population":"13196","region":"44","departement":"68","arrondissement":"684","commune":"68278"},
{"name":"Huningue","latitude":"47.5911","longitude":"7.5833","population":"6584","region":"44","departement":"68","arrondissement":"684","commune":"68149"},
{"name":"Habsheim","latitude":"47.72944","longitude":"7.41889","population":"4825","region":"44","departement":"68","arrondissement":"684","commune":"68118"},
{"name":"Kembs","latitude":"47.68889","longitude":"7.50361","population":"4437","region":"44","departement":"68","arrondissement":"684","commune":"68163"},
{"name":"Blotzheim","latitude":"47.60167","longitude":"7.49528","population":"4042","region":"44","departement":"68","arrondissement":"684","commune":"68042"},
{"name":"Village-Neuf","latitude":"47.60667","longitude":"7.56944","population":"3649","region":"44","departement":"68","arrondissement":"684","commune":"68349"},
{"name":"Bartenheim","latitude":"47.63472","longitude":"7.47583","population":"3594","region":"44","departement":"68","arrondissement":"684","commune":"68021"},
{"name":"Hégenheim","latitude":"47.56194","longitude":"7.52556","population":"3164","region":"44","departement":"68","arrondissement":"684","commune":"68126"},
{"name":"Sierentz","latitude":"47.6559","longitude":"7.4564","population":"2847","region":"44","departement":"68","arrondissement":"684","commune":"68309"},
{"name":"Hésingue","latitude":"47.57611","longitude":"7.52194","population":"2438","region":"44","departement":"68","arrondissement":"684","commune":"68135"},
{"name":"Rosenau","latitude":"47.63722","longitude":"7.53583","population":"2084","region":"44","departement":"68","arrondissement":"684","commune":"68286"},
{"name":"Landser","latitude":"47.685","longitude":"7.39083","population":"1563","region":"44","departement":"68","arrondissement":"684","commune":"68174"},
{"name":"Eschentzwiller","latitude":"47.71278","longitude":"7.39861","population":"1527","region":"44","departement":"68","arrondissement":"684","commune":"68084"},
{"name":"Dietwiller","latitude":"47.69139","longitude":"7.40139","population":"1381","region":"44","departement":"68","arrondissement":"684","commune":"68072"},
{"name":"Schlierbach","latitude":"47.68278","longitude":"7.40833","population":"1185","region":"44","departement":"68","arrondissement":"684","commune":"68301"},
{"name":"Zimmersheim","latitude":"47.71972","longitude":"7.38806","population":"1093","region":"44","departement":"68","arrondissement":"684","commune":"68386"},
{"name":"Hagenthal-le-Bas","latitude":"47.52472","longitude":"7.4775","population":"1072","region":"44","departement":"68","arrondissement":"684","commune":"68120"},
{"name":"Muespach-le-Haut","latitude":"47.545","longitude":"7.40306","population":"998","region":"44","departement":"68","arrondissement":"681","commune":"68222"},
{"name":"Buschwiller","latitude":"47.55833","longitude":"7.5075","population":"952","region":"44","departement":"68","arrondissement":"684","commune":"68061"},
{"name":"Niffer","latitude":"47.71389","longitude":"7.50944","population":"943","region":"44","departement":"68","arrondissement":"684","commune":"68238"},
{"name":"Attenschwiller","latitude":"47.56667","longitude":"7.46417","population":"895","region":"44","departement":"68","arrondissement":"684","commune":"68013"},
{"name":"Uffheim","latitude":"47.64972","longitude":"7.44361","population":"888","region":"44","departement":"68","arrondissement":"684","commune":"68341"},
{"name":"Folgensbourg","latitude":"47.55028","longitude":"7.445","population":"801","region":"44","departement":"68","arrondissement":"684","commune":"68094"},
{"name":"Helfrantzkirch","latitude":"47.6075","longitude":"7.41611","population":"785","region":"44","departement":"68","arrondissement":"684","commune":"68132"},
{"name":"Petit-Landau","latitude":"47.7306","longitude":"7.5203","population":"723","region":"44","departement":"68","arrondissement":"684","commune":"68254"},
{"name":"Wentzwiller","latitude":"47.55028","longitude":"7.47972","population":"716","region":"44","departement":"68","arrondissement":"684","commune":"68362"},
{"name":"Michelbach-le-Bas","latitude":"47.59306","longitude":"7.46472","population":"706","region":"44","departement":"68","arrondissement":"684","commune":"68207"},
{"name":"Ranspach-le-Bas","latitude":"47.5875","longitude":"7.44556","population":"665","region":"44","departement":"68","arrondissement":"684","commune":"68263"},
{"name":"Hagenthal-le-Haut","latitude":"47.51944","longitude":"7.46778","population":"601","region":"44","departement":"68","arrondissement":"684","commune":"68121"},
{"name":"Ranspach-le-Haut","latitude":"47.57778","longitude":"7.42083","population":"582","region":"44","departement":"68","arrondissement":"684","commune":"68264"},
{"name":"Waltenheim","latitude":"47.65694","longitude":"7.42556","population":"561","region":"44","departement":"68","arrondissement":"684","commune":"68357"},
{"name":"Kœtzingue","latitude":"47.65056","longitude":"7.39222","population":"559","region":"44","departement":"68","arrondissement":"684","commune":"68170"},
{"name":"Neuwiller","latitude":"47.52444","longitude":"7.51611","population":"526","region":"44","departement":"68","arrondissement":"684","commune":"68232"},
{"name":"Kappelen","latitude":"47.61806","longitude":"7.43806","population":"518","region":"44","departement":"68","arrondissement":"684","commune":"68160"},
{"name":"Michelbach-le-Haut","latitude":"47.56639","longitude":"7.44389","population":"500","region":"44","departement":"68","arrondissement":"684","commune":"68208"},
{"name":"Magstatt-le-Bas","latitude":"47.63861","longitude":"7.40917","population":"467","region":"44","departement":"68","arrondissement":"684","commune":"68197"},
{"name":"Geispitzen","latitude":"47.6675","longitude":"7.42083","population":"429","region":"44","departement":"68","arrondissement":"684","commune":"68103"},
{"name":"Knœringue","latitude":"47.56361","longitude":"7.40278","population":"350","region":"44","departement":"68","arrondissement":"684","commune":"68168"},
{"name":"Brinckheim","latitude":"47.62667","longitude":"7.45917","population":"348","region":"44","departement":"68","arrondissement":"684","commune":"68054"},
{"name":"Berentzwiller","latitude":"47.58583","longitude":"7.38361","population":"323","region":"44","departement":"68","arrondissement":"681","commune":"68027"},
{"name":"Stetten","latitude":"47.62417","longitude":"7.42583","population":"308","region":"44","departement":"68","arrondissement":"684","commune":"68327"},
{"name":"Magstatt-le-Haut","latitude":"47.6325","longitude":"7.39556","population":"270","region":"44","departement":"68","arrondissement":"684","commune":"68198"}
]