[
{"name":"Creil","latitude":"49.25778","longitude":"2.48278","population":"34327","region":"32","departement":"60","arrondissement":"604","commune":"60175"},
{"name":"Nogent-sur-Oise","latitude":"49.27472","longitude":"2.4675","population":"19100","region":"32","departement":"60","arrondissement":"604","commune":"60463"},
{"name":"Senlis","latitude":"49.20722","longitude":"2.58667","population":"16250","region":"32","departement":"60","arrondissement":"604","commune":"60612"},
{"name":"Pont-Sainte-Maxence","latitude":"49.30111","longitude":"2.60361","population":"11821","region":"32","departement":"60","arrondissement":"604","commune":"60509"},
{"name":"Chantilly","latitude":"49.1868","longitude":"2.4614","population":"10952","region":"32","departement":"60","arrondissement":"604","commune":"60141"},
{"name":"Liancourt","latitude":"49.33083","longitude":"2.46528","population":"7096","region":"32","departement":"60","arrondissement":"602","commune":"60360"},
{"name":"Villers-Saint-Paul","latitude":"49.28889","longitude":"2.48722","population":"6058","region":"32","departement":"60","arrondissement":"604","commune":"60684"},
{"name":"Lacroix-Saint-Ouen","latitude":"49.35611","longitude":"2.78694","population":"4507","region":"32","departement":"60","arrondissement":"603","commune":"60338"},
{"name":"Verneuil-en-Halatte","latitude":"49.27639","longitude":"2.52222","population":"4465","region":"32","departement":"60","arrondissement":"604","commune":"60670"},
{"name":"Verberie","latitude":"49.31056","longitude":"2.73139","population":"3936","region":"32","departement":"60","arrondissement":"604","commune":"60667"},
{"name":"Béthisy-Saint-Pierre","latitude":"49.30111","longitude":"2.80306","population":"3261","region":"32","departement":"60","arrondissement":"604","commune":"60068"},
{"name":"Pontpoint","latitude":"49.30139","longitude":"2.64028","population":"3050","region":"32","departement":"60","arrondissement":"604","commune":"60508"},
{"name":"Brenouille","latitude":"49.30306","longitude":"2.53444","population":"2142","region":"32","departement":"60","arrondissement":"602","commune":"60102"},
{"name":"Le Meux","latitude":"49.36778","longitude":"2.74444","population":"2016","region":"32","departement":"60","arrondissement":"603","commune":"60402"},
{"name":"Monchy-Saint-Éloi","latitude":"49.29","longitude":"2.46722","population":"1988","region":"32","departement":"60","arrondissement":"602","commune":"60409"},
{"name":"Fleurines","latitude":"49.2624","longitude":"2.5865","population":"1810","region":"32","departement":"60","arrondissement":"604","commune":"60238"},
{"name":"Chevrières","latitude":"49.34472","longitude":"2.6825","population":"1738","region":"32","departement":"60","arrondissement":"603","commune":"60149"},
{"name":"Longueil-Sainte-Marie","latitude":"49.35667","longitude":"2.71778","population":"1702","region":"32","departement":"60","arrondissement":"603","commune":"60369"},
{"name":"Grandfresnoy","latitude":"49.3725","longitude":"2.65167","population":"1616","region":"32","departement":"60","arrondissement":"603","commune":"60284"},
{"name":"Rieux","latitude":"49.29972","longitude":"2.51861","population":"1610","region":"32","departement":"60","arrondissement":"602","commune":"60539"},
{"name":"Angicourt","latitude":"49.31194","longitude":"2.50361","population":"1603","region":"32","departement":"60","arrondissement":"602","commune":"60013"},
{"name":"Saint-Sauveur","latitude":"49.31833","longitude":"2.78306","population":"1562","region":"32","departement":"60","arrondissement":"603","commune":"60597"},
{"name":"Cinqueux","latitude":"49.31889","longitude":"2.52667","population":"1551","region":"32","departement":"60","arrondissement":"602","commune":"60154"},
{"name":"Mogneville","latitude":"49.31444","longitude":"2.47167","population":"1495","region":"32","departement":"60","arrondissement":"602","commune":"60404"},
{"name":"Saint-Martin-Longueau","latitude":"49.34194","longitude":"2.60417","population":"1471","region":"32","departement":"60","arrondissement":"602","commune":"60587"},
{"name":"Vineuil-Saint-Firmin","latitude":"49.2","longitude":"2.49222","population":"1456","region":"32","departement":"60","arrondissement":"604","commune":"60695"},
{"name":"Sacy-le-Grand","latitude":"49.35444","longitude":"2.54417","population":"1362","region":"32","departement":"60","arrondissement":"602","commune":"60562"},
{"name":"Les Ageux","latitude":"49.31472","longitude":"2.59639","population":"1138","region":"32","departement":"60","arrondissement":"602","commune":"60006"},
{"name":"Catenoy","latitude":"49.3686","longitude":"2.5118","population":"1050","region":"32","departement":"60","arrondissement":"602","commune":"60130"},
{"name":"Nointel","latitude":"49.37472","longitude":"2.48194","population":"1009","region":"32","departement":"60","arrondissement":"602","commune":"60464"},
{"name":"Avilly-Saint-Léonard","latitude":"49.19389","longitude":"2.53639","population":"984","region":"32","departement":"60","arrondissement":"604","commune":"60033"},
{"name":"Chamant","latitude":"49.21972","longitude":"2.61083","population":"904","region":"32","departement":"60","arrondissement":"604","commune":"60138"},
{"name":"Saintines","latitude":"49.30639","longitude":"2.76944","population":"894","region":"32","departement":"60","arrondissement":"604","commune":"60578"},
{"name":"Baron","latitude":"49.17306","longitude":"2.72944","population":"783","region":"32","departement":"60","arrondissement":"604","commune":"60047"},
{"name":"Pontarmé","latitude":"49.15306","longitude":"2.54944","population":"775","region":"32","departement":"60","arrondissement":"604","commune":"60505"},
{"name":"Monceaux","latitude":"49.31917","longitude":"2.55028","population":"754","region":"32","departement":"60","arrondissement":"602","commune":"60406"},
{"name":"Rully","latitude":"49.235","longitude":"2.72778","population":"732","region":"32","departement":"60","arrondissement":"604","commune":"60560"},
{"name":"Apremont","latitude":"49.22333","longitude":"2.50889","population":"721","region":"32","departement":"60","arrondissement":"604","commune":"60022"},
{"name":"Néry","latitude":"49.28139","longitude":"2.77833","population":"706","region":"32","departement":"60","arrondissement":"604","commune":"60447"},
{"name":"Villeneuve-sur-Verberie","latitude":"49.27556","longitude":"2.68944","population":"689","region":"32","departement":"60","arrondissement":"604","commune":"60680"},
{"name":"Courteuil","latitude":"49.19889","longitude":"2.535","population":"640","region":"32","departement":"60","arrondissement":"604","commune":"60170"},
{"name":"Labruyère","latitude":"49.3515","longitude":"2.51","population":"639","region":"32","departement":"60","arrondissement":"602","commune":"60332"},
{"name":"Rosoy","latitude":"49.34028","longitude":"2.50111","population":"616","region":"32","departement":"60","arrondissement":"602","commune":"60547"},
{"name":"Saint-Vaast-de-Longmont","latitude":"49.30306","longitude":"2.73639","population":"616","region":"32","departement":"60","arrondissement":"604","commune":"60600"},
{"name":"Villers-Saint-Frambourg","latitude":"49.2552","longitude":"2.6396","population":"602","region":"32","departement":"60","arrondissement":"604","commune":"60682"},
{"name":"Houdancourt","latitude":"49.34306","longitude":"2.64111","population":"570","region":"32","departement":"60","arrondissement":"603","commune":"60318"},
{"name":"Trumilly","latitude":"49.24278","longitude":"2.80222","population":"560","region":"32","departement":"60","arrondissement":"604","commune":"60650"},
{"name":"Armancourt","latitude":"49.3731","longitude":"2.7647","population":"551","region":"32","departement":"60","arrondissement":"603","commune":"60023"},
{"name":"Sacy-le-Petit","latitude":"49.36083","longitude":"2.62917","population":"548","region":"32","departement":"60","arrondissement":"602","commune":"60563"},
{"name":"Verderonne","latitude":"49.32944","longitude":"2.49833","population":"537","region":"32","departement":"60","arrondissement":"602","commune":"60669"},
{"name":"Aumont-en-Halatte","latitude":"49.23212","longitude":"2.55715","population":"537","region":"32","departement":"60","arrondissement":"604","commune":"60028"},
{"name":"Barbery","latitude":"49.2225","longitude":"2.66861","population":"536","region":"32","departement":"60","arrondissement":"604","commune":"60045"},
{"name":"Rivecourt","latitude":"49.34778","longitude":"2.73472","population":"525","region":"32","departement":"60","arrondissement":"603","commune":"60540"},
{"name":"Auger-Saint-Vincent","latitude":"49.21861","longitude":"2.80806","population":"521","region":"32","departement":"60","arrondissement":"604","commune":"60027"},
{"name":"Fresnoy-le-Luat","latitude":"49.21083","longitude":"2.76861","population":"474","region":"32","departement":"60","arrondissement":"604","commune":"60261"},
{"name":"Mont-l'Évêque","latitude":"49.19472","longitude":"2.63083","population":"433","region":"32","departement":"60","arrondissement":"604","commune":"60421"},
{"name":"Versigny","latitude":"49.1607","longitude":"2.7638","population":"386","region":"32","departement":"60","arrondissement":"604","commune":"60671"},
{"name":"Roberval","latitude":"49.29111","longitude":"2.68917","population":"379","region":"32","departement":"60","arrondissement":"604","commune":"60541"},
{"name":"Fontaine-Chaalis","latitude":"49.17139","longitude":"2.68361","population":"364","region":"32","departement":"60","arrondissement":"604","commune":"60241"},
{"name":"Borest","latitude":"49.18083","longitude":"2.67056","population":"352","region":"32","departement":"60","arrondissement":"604","commune":"60087"},
{"name":"Avrigny","latitude":"49.38111","longitude":"2.58028","population":"340","region":"32","departement":"60","arrondissement":"602","commune":"60036"},
{"name":"Bazicourt","latitude":"49.34333","longitude":"2.62111","population":"328","region":"32","departement":"60","arrondissement":"602","commune":"60050"},
{"name":"Le Fayel","latitude":"49.3722","longitude":"2.699","population":"233","region":"32","departement":"60","arrondissement":"603","commune":"60229"},
{"name":"Montlognon","latitude":"49.16444","longitude":"2.69306","population":"226","region":"32","departement":"60","arrondissement":"604","commune":"60422"},
{"name":"Choisy-la-Victoire","latitude":"49.37778","longitude":"2.58556","population":"210","region":"32","departement":"60","arrondissement":"602","commune":"60152"},
{"name":"Montépilloy","latitude":"49.20917","longitude":"2.69806","population":"159","region":"32","departement":"60","arrondissement":"604","commune":"60415"},
{"name":"Raray","latitude":"49.25972","longitude":"2.71444","population":"152","region":"32","departement":"60","arrondissement":"604","commune":"60525"},
{"name":"Ognon","latitude":"49.23639","longitude":"2.64333","population":"144","region":"32","departement":"60","arrondissement":"604","commune":"60475"},
{"name":"Rhuis","latitude":"49.3075","longitude":"2.69778","population":"143","region":"32","departement":"60","arrondissement":"604","commune":"60536"},
{"name":"Rosières","latitude":"49.18833","longitude":"2.77833","population":"139","region":"32","departement":"60","arrondissement":"604","commune":"60546"},
{"name":"Brasseuse","latitude":"49.2561","longitude":"2.6819","population":"111","region":"32","departement":"60","arrondissement":"604","commune":"60100"},
{"name":"Beaurepaire","latitude":"49.29389","longitude":"2.57139","population":"56","region":"32","departement":"60","arrondissement":"604","commune":"60056"}
]