[
{"name":"Availles-Limouzine","latitude":"46.12111","longitude":"0.65556","population":"1314","region":"75","departement":"86","arrondissement":"862","commune":"86015"},
{"name":"Usson-du-Poitou","latitude":"46.27778","longitude":"0.52778","population":"1313","region":"75","departement":"86","arrondissement":"862","commune":"86276"},
{"name":"L'Isle-Jourdain","latitude":"46.23222","longitude":"0.68583","population":"1223","region":"75","departement":"86","arrondissement":"862","commune":"86112"},
{"name":"Charroux","latitude":"46.14444","longitude":"0.40361","population":"1165","region":"75","departement":"86","arrondissement":"862","commune":"86061"},
{"name":"Sommières-du-Clain","latitude":"46.27944","longitude":"0.35917","population":"805","region":"75","departement":"86","arrondissement":"862","commune":"86264"},
{"name":"Le Vigeant","latitude":"46.22444","longitude":"0.64944","population":"683","region":"75","departement":"86","arrondissement":"862","commune":"86289"},
{"name":"Mauprévoir","latitude":"46.17306","longitude":"0.51694","population":"666","region":"75","departement":"86","arrondissement":"862","commune":"86152"},
{"name":"Château-Garnier","latitude":"46.25889","longitude":"0.42583","population":"632","region":"75","departement":"86","arrondissement":"862","commune":"86064"},
{"name":"Pressac","latitude":"46.11583","longitude":"0.57083","population":"605","region":"75","departement":"86","arrondissement":"862","commune":"86200"},
{"name":"Millac","latitude":"46.18972","longitude":"0.68722","population":"511","region":"75","departement":"86","arrondissement":"862","commune":"86159"},
{"name":"Payroux","latitude":"46.21528","longitude":"0.485","population":"503","region":"75","departement":"86","arrondissement":"862","commune":"86189"},
{"name":"Moussac","latitude":"46.2816","longitude":"0.6875","population":"484","region":"75","departement":"86","arrondissement":"862","commune":"86171"},
{"name":"Saint-Romain","latitude":"46.2222","longitude":"0.3662","population":"420","region":"75","departement":"86","arrondissement":"862","commune":"86242"},
{"name":"Saint-Martin-l'Ars","latitude":"46.21944","longitude":"0.53056","population":"410","region":"75","departement":"86","arrondissement":"862","commune":"86234"},
{"name":"Pleuville","latitude":"46.09028","longitude":"0.49583","population":"387","region":"75","departement":"16","arrondissement":"163","commune":"16264"},
{"name":"La Chapelle-Bâton","latitude":"46.18556","longitude":"0.39417","population":"360","region":"75","departement":"86","arrondissement":"862","commune":"86055"},
{"name":"Joussé","latitude":"46.22694","longitude":"0.47056","population":"345","region":"75","departement":"86","arrondissement":"862","commune":"86119"},
{"name":"Chatain","latitude":"46.07361","longitude":"0.43194","population":"302","region":"75","departement":"86","arrondissement":"862","commune":"86063"},
{"name":"Asnois","latitude":"46.11198","longitude":"0.41164","population":"144","region":"75","departement":"86","arrondissement":"862","commune":"86012"},
{"name":"Surin","latitude":"46.07806","longitude":"0.37111","population":"133","region":"75","departement":"86","arrondissement":"862","commune":"86266"}
]