[
{"name":"Vichy","latitude":"46.1268","longitude":"3.4262","population":"25090","region":"84","departement":"03","arrondissement":"033","commune":"03310"},
{"name":"Cusset","latitude":"46.13444","longitude":"3.45639","population":"13152","region":"84","departement":"03","arrondissement":"033","commune":"03095"},
{"name":"Bellerive-sur-Allier","latitude":"46.11639","longitude":"3.40417","population":"8562","region":"84","departement":"03","arrondissement":"033","commune":"03023"},
{"name":"Gannat","latitude":"46.1","longitude":"3.19833","population":"5853","region":"84","departement":"03","arrondissement":"033","commune":"03118"},
{"name":"Saint-Pourçain-sur-Sioule","latitude":"46.3075","longitude":"3.28944","population":"5030","region":"84","departement":"03","arrondissement":"032","commune":"03254"},
{"name":"Varennes-sur-Allier","latitude":"46.31306","longitude":"3.40139","population":"3675","region":"84","departement":"03","arrondissement":"033","commune":"03298"},
{"name":"Saint-Germain-des-Fossés","latitude":"46.20694","longitude":"3.43361","population":"3655","region":"84","departement":"03","arrondissement":"033","commune":"03236"},
{"name":"Creuzier-le-Vieux","latitude":"46.16167","longitude":"3.43861","population":"3208","region":"84","departement":"03","arrondissement":"033","commune":"03094"},
{"name":"Abrest","latitude":"46.09861","longitude":"3.44472","population":"2696","region":"84","departement":"03","arrondissement":"033","commune":"03001"},
{"name":"Vendat","latitude":"46.1637","longitude":"3.3542","population":"2226","region":"84","departement":"03","arrondissement":"033","commune":"03304"},
{"name":"Le Vernet","latitude":"46.1088","longitude":"3.4631","population":"1858","region":"84","departement":"03","arrondissement":"033","commune":"03306"},
{"name":"Saint-Rémy-en-Rollat","latitude":"46.18333","longitude":"3.39111","population":"1610","region":"84","departement":"03","arrondissement":"033","commune":"03258"},
{"name":"Brugheas","latitude":"46.07667","longitude":"3.36778","population":"1327","region":"84","departement":"03","arrondissement":"033","commune":"03044"},
{"name":"Broût-Vernet","latitude":"46.18806","longitude":"3.27306","population":"1181","region":"84","departement":"03","arrondissement":"033","commune":"03043"},
{"name":"Hauterive","latitude":"46.08833","longitude":"3.44639","population":"1110","region":"84","departement":"03","arrondissement":"033","commune":"03126"},
{"name":"Creuzier-le-Neuf","latitude":"46.1825","longitude":"3.44972","population":"1020","region":"84","departement":"03","arrondissement":"033","commune":"03093"},
{"name":"Saint-Gérand-le-Puy","latitude":"46.25778","longitude":"3.51222","population":"990","region":"84","departement":"03","arrondissement":"033","commune":"03235"},
{"name":"Espinasse-Vozelle","latitude":"46.12639","longitude":"3.32417","population":"879","region":"84","departement":"03","arrondissement":"033","commune":"03110"},
{"name":"Billy","latitude":"46.23639","longitude":"3.42917","population":"838","region":"84","departement":"03","arrondissement":"033","commune":"03029"},
{"name":"Magnet","latitude":"46.21278","longitude":"3.50389","population":"827","region":"84","departement":"03","arrondissement":"033","commune":"03157"},
{"name":"Biozat","latitude":"46.0773","longitude":"3.2732","population":"734","region":"84","departement":"03","arrondissement":"033","commune":"03030"},
{"name":"Serbannes","latitude":"46.09861","longitude":"3.35861","population":"729","region":"84","departement":"03","arrondissement":"033","commune":"03271"},
{"name":"Charmeil","latitude":"46.16139","longitude":"3.39306","population":"723","region":"84","departement":"03","arrondissement":"033","commune":"03060"},
{"name":"Escurolles","latitude":"46.14333","longitude":"3.26556","population":"721","region":"84","departement":"03","arrondissement":"033","commune":"03109"},
{"name":"Étroussat","latitude":"46.21861","longitude":"3.22111","population":"711","region":"84","departement":"03","arrondissement":"032","commune":"03112"},
{"name":"Bayet","latitude":"46.24833","longitude":"3.26889","population":"669","region":"84","departement":"03","arrondissement":"032","commune":"03018"},
{"name":"Cognat-Lyonne","latitude":"46.10833","longitude":"3.31028","population":"655","region":"84","departement":"03","arrondissement":"033","commune":"03080"},
{"name":"Paray-sous-Briailles","latitude":"46.2906","longitude":"3.3659","population":"632","region":"84","departement":"03","arrondissement":"032","commune":"03204"},
{"name":"Saint-Pont","latitude":"46.16417","longitude":"3.2975","population":"566","region":"84","departement":"03","arrondissement":"033","commune":"03252"},
{"name":"Rongères","latitude":"46.29417","longitude":"3.45028","population":"566","region":"84","departement":"03","arrondissement":"033","commune":"03215"},
{"name":"Jenzat","latitude":"46.16056","longitude":"3.19528","population":"512","region":"84","departement":"03","arrondissement":"033","commune":"03133"},
{"name":"Seuillet","latitude":"46.20222","longitude":"3.47222","population":"486","region":"84","departement":"03","arrondissement":"033","commune":"03273"},
{"name":"Créchy","latitude":"46.26139","longitude":"3.42333","population":"480","region":"84","departement":"03","arrondissement":"033","commune":"03091"},
{"name":"Louchy-Montfand","latitude":"46.3075","longitude":"3.24556","population":"447","region":"84","departement":"03","arrondissement":"032","commune":"03149"},
{"name":"Saint-Germain-de-Salles","latitude":"46.17917","longitude":"3.21361","population":"439","region":"84","departement":"03","arrondissement":"032","commune":"03237"},
{"name":"Saint-Didier-la-Forêt","latitude":"46.2249","longitude":"3.3443","population":"377","region":"84","departement":"03","arrondissement":"033","commune":"03227"},
{"name":"Cesset","latitude":"46.30389","longitude":"3.2075","population":"373","region":"84","departement":"03","arrondissement":"032","commune":"03049"},
{"name":"Marcenat","latitude":"46.2348","longitude":"3.3965","population":"372","region":"84","departement":"03","arrondissement":"032","commune":"03160"},
{"name":"Charmes","latitude":"46.07528","longitude":"3.25222","population":"354","region":"84","departement":"03","arrondissement":"033","commune":"03061"},
{"name":"Fleuriel","latitude":"46.2816","longitude":"3.1787","population":"353","region":"84","departement":"03","arrondissement":"032","commune":"03115"},
{"name":"Saint-Félix","latitude":"46.2275","longitude":"3.48083","population":"343","region":"84","departement":"03","arrondissement":"033","commune":"03232"},
{"name":"Chareil-Cintrat","latitude":"46.26694","longitude":"3.22056","population":"341","region":"84","departement":"03","arrondissement":"032","commune":"03059"},
{"name":"Saulzet","latitude":"46.135","longitude":"3.21917","population":"339","region":"84","departement":"03","arrondissement":"033","commune":"03268"},
{"name":"Loriges","latitude":"46.269","longitude":"3.347","population":"326","region":"84","departement":"03","arrondissement":"032","commune":"03148"},
{"name":"Montaigu-le-Blin","latitude":"46.29444","longitude":"3.51111","population":"307","region":"84","departement":"03","arrondissement":"033","commune":"03179"},
{"name":"Mazerier","latitude":"46.12528","longitude":"3.19028","population":"283","region":"84","departement":"03","arrondissement":"033","commune":"03166"},
{"name":"Le Mayet-d'École","latitude":"46.16917","longitude":"3.24111","population":"272","region":"84","departement":"03","arrondissement":"033","commune":"03164"},
{"name":"Sanssat","latitude":"46.2555","longitude":"3.4757","population":"262","region":"84","departement":"03","arrondissement":"033","commune":"03266"},
{"name":"Montord","latitude":"46.29306","longitude":"3.23028","population":"241","region":"84","departement":"03","arrondissement":"032","commune":"03188"},
{"name":"Langy","latitude":"46.2675","longitude":"3.47194","population":"239","region":"84","departement":"03","arrondissement":"033","commune":"03137"},
{"name":"Monteignet-sur-l'Andelot","latitude":"46.12222","longitude":"3.25667","population":"237","region":"84","departement":"03","arrondissement":"033","commune":"03182"},
{"name":"Fourilles","latitude":"46.24167","longitude":"3.19528","population":"211","region":"84","departement":"03","arrondissement":"032","commune":"03116"},
{"name":"Ussel-d'Allier","latitude":"46.2075","longitude":"3.19028","population":"148","region":"84","departement":"03","arrondissement":"032","commune":"03294"},
{"name":"Barberier","latitude":"46.21778","longitude":"3.24583","population":"129","region":"84","departement":"03","arrondissement":"032","commune":"03016"},
{"name":"Poëzat","latitude":"46.0775","longitude":"3.22417","population":"120","region":"84","departement":"03","arrondissement":"033","commune":"03209"}
]