[
{"name":"Gimont","latitude":"43.62639","longitude":"0.87667","population":"2845","region":"76","departement":"32","arrondissement":"321","commune":"32147"},
{"name":"Mauvezin","latitude":"43.7301","longitude":"0.8783","population":"1898","region":"76","departement":"32","arrondissement":"322","commune":"32249"},
{"name":"Aubiet","latitude":"43.64611","longitude":"0.78361","population":"1107","region":"76","departement":"32","arrondissement":"321","commune":"32012"},
{"name":"Cadours","latitude":"43.72833","longitude":"1.05","population":"1058","region":"76","departement":"31","arrondissement":"313","commune":"31098"},
{"name":"Cologne","latitude":"43.72194","longitude":"0.97778","population":"832","region":"76","departement":"32","arrondissement":"321","commune":"32106"},
{"name":"Monferran-Savès","latitude":"43.59778","longitude":"0.98083","population":"692","region":"76","departement":"32","arrondissement":"321","commune":"32268"},
{"name":"Touget","latitude":"43.69028","longitude":"0.91528","population":"507","region":"76","departement":"32","arrondissement":"321","commune":"32448"},
{"name":"Escornebœuf","latitude":"43.65472","longitude":"0.91167","population":"492","region":"76","departement":"32","arrondissement":"321","commune":"32123"},
{"name":"Monfort","latitude":"43.79444","longitude":"0.82389","population":"479","region":"76","departement":"32","arrondissement":"322","commune":"32269"},
{"name":"Solomiac","latitude":"43.80528","longitude":"0.8975","population":"440","region":"76","departement":"32","arrondissement":"322","commune":"32436"},
{"name":"Puycasquier","latitude":"43.74639","longitude":"0.7475","population":"432","region":"76","departement":"32","arrondissement":"321","commune":"32335"},
{"name":"Marsan","latitude":"43.6563","longitude":"0.7226","population":"427","region":"76","departement":"32","arrondissement":"321","commune":"32237"},
{"name":"Brignemont","latitude":"43.78083","longitude":"0.98917","population":"393","region":"76","departement":"31","arrondissement":"313","commune":"31090"},
{"name":"Encausse","latitude":"43.69917","longitude":"1.03917","population":"378","region":"76","departement":"32","arrondissement":"321","commune":"32120"},
{"name":"Sainte-Marie","latitude":"43.6608","longitude":"0.8756","population":"369","region":"76","departement":"32","arrondissement":"321","commune":"32388"},
{"name":"Saint-Sauvy","latitude":"43.69417","longitude":"0.82028","population":"363","region":"76","departement":"32","arrondissement":"321","commune":"32406"},
{"name":"Sarrant","latitude":"43.77444","longitude":"0.92917","population":"350","region":"76","departement":"32","arrondissement":"322","commune":"32416"},
{"name":"Nougaroulet","latitude":"43.69333","longitude":"0.73111","population":"342","region":"76","departement":"32","arrondissement":"321","commune":"32298"},
{"name":"Cox","latitude":"43.76083","longitude":"1.04222","population":"335","region":"76","departement":"31","arrondissement":"313","commune":"31156"},
{"name":"Monbrun","latitude":"43.6625","longitude":"1.02472","population":"330","region":"76","departement":"32","arrondissement":"321","commune":"32262"},
{"name":"Frégouville","latitude":"43.5888","longitude":"0.9548","population":"321","region":"76","departement":"32","arrondissement":"321","commune":"32134"},
{"name":"Maurens","latitude":"43.5951","longitude":"0.917","population":"300","region":"76","departement":"32","arrondissement":"321","commune":"32247"},
{"name":"Faudoas","latitude":"43.82417","longitude":"0.95806","population":"289","region":"76","departement":"82","arrondissement":"821","commune":"82059"},
{"name":"Saint-Cricq","latitude":"43.69944","longitude":"0.99889","population":"257","region":"76","departement":"32","arrondissement":"321","commune":"32372"},
{"name":"Clermont-Savès","latitude":"43.6175","longitude":"1.02972","population":"246","region":"76","departement":"32","arrondissement":"321","commune":"32105"},
{"name":"Lussan","latitude":"43.62528","longitude":"0.73444","population":"241","region":"76","departement":"32","arrondissement":"321","commune":"32221"},
{"name":"Crastes","latitude":"43.72361","longitude":"0.73","population":"238","region":"76","departement":"32","arrondissement":"321","commune":"32112"},
{"name":"Juilles","latitude":"43.60139","longitude":"0.83","population":"226","region":"76","departement":"32","arrondissement":"321","commune":"32165"},
{"name":"Thoux","latitude":"43.68333","longitude":"0.99278","population":"223","region":"76","departement":"32","arrondissement":"321","commune":"32444"},
{"name":"Labrihe","latitude":"43.77056","longitude":"0.87639","population":"204","region":"76","departement":"32","arrondissement":"322","commune":"32173"},
{"name":"Saint-Germier","latitude":"43.6671","longitude":"0.9512","population":"200","region":"76","departement":"32","arrondissement":"321","commune":"32379"},
{"name":"Ardizas","latitude":"43.71639","longitude":"1.00139","population":"198","region":"76","departement":"32","arrondissement":"321","commune":"32007"},
{"name":"Beaupuy","latitude":"43.64421","longitude":"1.00594","population":"191","region":"76","departement":"32","arrondissement":"321","commune":"32038"},
{"name":"Razengues","latitude":"43.64139","longitude":"0.99722","population":"189","region":"76","departement":"32","arrondissement":"321","commune":"32339"},
{"name":"Goutz","latitude":"43.8048","longitude":"0.7352","population":"188","region":"76","departement":"32","arrondissement":"322","commune":"32150"},
{"name":"Saint-Georges","latitude":"43.7283","longitude":"0.9368","population":"172","region":"76","departement":"32","arrondissement":"321","commune":"32377"},
{"name":"Cabanac-Séguenville","latitude":"43.79306","longitude":"1.03444","population":"169","region":"76","departement":"31","arrondissement":"313","commune":"31096"},
{"name":"Le Causé","latitude":"43.80167","longitude":"0.96972","population":"157","region":"76","departement":"82","arrondissement":"821","commune":"82036"},
{"name":"Maubec","latitude":"43.80917","longitude":"0.91694","population":"141","region":"76","departement":"82","arrondissement":"821","commune":"82106"},
{"name":"Bivès","latitude":"43.83306","longitude":"0.80472","population":"140","region":"76","departement":"32","arrondissement":"322","commune":"32055"},
{"name":"Saint-Antonin","latitude":"43.72333","longitude":"0.81472","population":"140","region":"76","departement":"32","arrondissement":"322","commune":"32359"},
{"name":"Cadeilhan","latitude":"43.82889","longitude":"0.77139","population":"139","region":"76","departement":"32","arrondissement":"322","commune":"32068"},
{"name":"Laréole","latitude":"43.73806","longitude":"1.02222","population":"138","region":"76","departement":"31","arrondissement":"313","commune":"31275"},
{"name":"Sainte-Gemme","latitude":"43.78139","longitude":"0.79944","population":"135","region":"76","departement":"32","arrondissement":"322","commune":"32376"},
{"name":"Sirac","latitude":"43.71028","longitude":"0.95056","population":"134","region":"76","departement":"32","arrondissement":"321","commune":"32435"},
{"name":"Saint-Caprais","latitude":"43.5942","longitude":"0.7883","population":"128","region":"76","departement":"32","arrondissement":"321","commune":"32467"},
{"name":"L'Isle-Arné","latitude":"43.61556","longitude":"0.77111","population":"128","region":"76","departement":"32","arrondissement":"321","commune":"32157"},
{"name":"Montiron","latitude":"43.58583","longitude":"0.8475","population":"123","region":"76","departement":"32","arrondissement":"321","commune":"32288"},
{"name":"Roquelaure-Saint-Aubin","latitude":"43.6675","longitude":"0.98167","population":"117","region":"76","departement":"32","arrondissement":"321","commune":"32349"},
{"name":"Sainte-Anne","latitude":"43.7445","longitude":"0.9665","population":"113","region":"76","departement":"32","arrondissement":"321","commune":"32357"},
{"name":"Bajonnette","latitude":"43.80889","longitude":"0.76917","population":"105","region":"76","departement":"32","arrondissement":"322","commune":"32026"},
{"name":"Gariès","latitude":"43.8066","longitude":"1.0313","population":"104","region":"76","departement":"82","arrondissement":"821","commune":"82064"},
{"name":"Homps","latitude":"43.80944","longitude":"0.85056","population":"102","region":"76","departement":"32","arrondissement":"322","commune":"32154"},
{"name":"Catonvielle","latitude":"43.65972","longitude":"0.96222","population":"96","region":"76","departement":"32","arrondissement":"321","commune":"32092"},
{"name":"Ansan","latitude":"43.69028","longitude":"0.77444","population":"93","region":"76","departement":"32","arrondissement":"321","commune":"32002"},
{"name":"Pis","latitude":"43.78444","longitude":"0.71111","population":"92","region":"76","departement":"32","arrondissement":"322","commune":"32318"},
{"name":"Saint-Brès","latitude":"43.77917","longitude":"0.76972","population":"90","region":"76","departement":"32","arrondissement":"322","commune":"32366"},
{"name":"Augnax","latitude":"43.72222","longitude":"0.77556","population":"85","region":"76","departement":"32","arrondissement":"321","commune":"32014"},
{"name":"Saint-Orens","latitude":"43.71417","longitude":"0.90889","population":"83","region":"76","departement":"32","arrondissement":"322","commune":"32399"},
{"name":"Giscaro","latitude":"43.6075","longitude":"0.92861","population":"81","region":"76","departement":"32","arrondissement":"321","commune":"32148"},
{"name":"Mansempuy","latitude":"43.73972","longitude":"0.81222","population":"80","region":"76","departement":"32","arrondissement":"322","commune":"32229"},
{"name":"Avensac","latitude":"43.83167","longitude":"0.90222","population":"61","region":"76","departement":"32","arrondissement":"322","commune":"32021"},
{"name":"Blanquefort","latitude":"43.67444","longitude":"0.80889","population":"60","region":"76","departement":"32","arrondissement":"321","commune":"32056"},
{"name":"Taybosc","latitude":"43.7832","longitude":"0.737","population":"55","region":"76","departement":"32","arrondissement":"322","commune":"32441"},
{"name":"Maravat","latitude":"43.75694","longitude":"0.75278","population":"42","region":"76","departement":"32","arrondissement":"322","commune":"32232"},
{"name":"Goas","latitude":"43.815","longitude":"0.9625","population":"40","region":"76","departement":"82","arrondissement":"821","commune":"82071"},
{"name":"Sérempuy","latitude":"43.7607","longitude":"0.8252","population":"37","region":"76","departement":"32","arrondissement":"322","commune":"32431"}
]