[
{"name":"Carcassonne","latitude":"43.21583","longitude":"2.35139","population":"47854","region":"76","departement":"11","arrondissement":"111","commune":"11069"},
{"name":"Trèbes","latitude":"43.20972","longitude":"2.44139","population":"5416","region":"76","departement":"11","arrondissement":"111","commune":"11397"},
{"name":"Bram","latitude":"43.24278","longitude":"2.11472","population":"3262","region":"76","departement":"11","arrondissement":"111","commune":"11049"},
{"name":"Villemoustaussou","latitude":"43.25222","longitude":"2.36472","population":"3247","region":"76","departement":"11","arrondissement":"111","commune":"11429"},
{"name":"Pennautier","latitude":"43.24583","longitude":"2.31833","population":"2488","region":"76","departement":"11","arrondissement":"111","commune":"11279"},
{"name":"Conques-sur-Orbiel","latitude":"43.2702","longitude":"2.402","population":"2300","region":"76","departement":"11","arrondissement":"111","commune":"11099"},
{"name":"Palaja","latitude":"43.17278","longitude":"2.38528","population":"2142","region":"76","departement":"11","arrondissement":"111","commune":"11272"},
{"name":"Montréal","latitude":"43.2","longitude":"2.14083","population":"1930","region":"76","departement":"11","arrondissement":"111","commune":"11254"},
{"name":"Villegailhenc","latitude":"43.26889","longitude":"2.35444","population":"1624","region":"76","departement":"11","arrondissement":"111","commune":"11425"},
{"name":"Cazilhac","latitude":"43.1829","longitude":"2.3642","population":"1621","region":"76","departement":"11","arrondissement":"111","commune":"11088"},
{"name":"Lavalette","latitude":"43.18528","longitude":"2.26583","population":"1304","region":"76","departement":"11","arrondissement":"111","commune":"11199"},
{"name":"Alzonne","latitude":"43.254","longitude":"2.177","population":"1303","region":"76","departement":"11","arrondissement":"111","commune":"11009"},
{"name":"Pezens","latitude":"43.25444","longitude":"2.26528","population":"1290","region":"76","departement":"11","arrondissement":"111","commune":"11288"},
{"name":"Alairac","latitude":"43.18417","longitude":"2.24056","population":"1263","region":"76","departement":"11","arrondissement":"111","commune":"11005"},
{"name":"Arzens","latitude":"43.19917","longitude":"2.20944","population":"1141","region":"76","departement":"11","arrondissement":"111","commune":"11018"},
{"name":"Villegly","latitude":"43.28611","longitude":"2.44","population":"1020","region":"76","departement":"11","arrondissement":"111","commune":"11426"},
{"name":"Pieusse","latitude":"43.07972","longitude":"2.2325","population":"960","region":"76","departement":"11","arrondissement":"112","commune":"11289"},
{"name":"Moussoulens","latitude":"43.27944","longitude":"2.22944","population":"925","region":"76","departement":"11","arrondissement":"111","commune":"11259"},
{"name":"Villalier","latitude":"43.25722","longitude":"2.41278","population":"921","region":"76","departement":"11","arrondissement":"111","commune":"11410"},
{"name":"Cavanac","latitude":"43.16833","longitude":"2.32667","population":"907","region":"76","departement":"11","arrondissement":"111","commune":"11085"},
{"name":"Berriac","latitude":"43.21667","longitude":"2.41361","population":"868","region":"76","departement":"11","arrondissement":"111","commune":"11037"},
{"name":"Ventenac-Cabardès","latitude":"43.26667","longitude":"2.28444","population":"854","region":"76","departement":"11","arrondissement":"111","commune":"11404"},
{"name":"Villesèquelande","latitude":"43.2375","longitude":"2.23139","population":"818","region":"76","departement":"11","arrondissement":"111","commune":"11437"},
{"name":"Caux-et-Sauzens","latitude":"43.22556","longitude":"2.25556","population":"776","region":"76","departement":"11","arrondissement":"111","commune":"11084"},
{"name":"Montolieu","latitude":"43.30917","longitude":"2.21528","population":"766","region":"76","departement":"11","arrondissement":"111","commune":"11253"},
{"name":"Malves-en-Minervois","latitude":"43.2522","longitude":"2.4416","population":"765","region":"76","departement":"11","arrondissement":"111","commune":"11215"},
{"name":"Pomas","latitude":"43.11167","longitude":"2.29222","population":"748","region":"76","departement":"11","arrondissement":"112","commune":"11293"},
{"name":"Saint-Hilaire","latitude":"43.09306","longitude":"2.30972","population":"740","region":"76","departement":"11","arrondissement":"112","commune":"11344"},
{"name":"Leuc","latitude":"43.14667","longitude":"2.32333","population":"683","region":"76","departement":"11","arrondissement":"111","commune":"11201"},
{"name":"Cépie","latitude":"43.10472","longitude":"2.24472","population":"653","region":"76","departement":"11","arrondissement":"112","commune":"11090"},
{"name":"Couffoulens","latitude":"43.155","longitude":"2.3075","population":"594","region":"76","departement":"11","arrondissement":"111","commune":"11102"},
{"name":"Lauraguel","latitude":"43.09861","longitude":"2.17472","population":"571","region":"76","departement":"11","arrondissement":"112","commune":"11197"},
{"name":"Preixan","latitude":"43.14611","longitude":"2.28889","population":"526","region":"76","departement":"11","arrondissement":"111","commune":"11299"},
{"name":"Sainte-Eulalie","latitude":"43.24694","longitude":"2.21083","population":"521","region":"76","departement":"11","arrondissement":"111","commune":"11340"},
{"name":"Roullens","latitude":"43.16528","longitude":"2.2725","population":"481","region":"76","departement":"11","arrondissement":"111","commune":"11327"},
{"name":"Verzeille","latitude":"43.12583","longitude":"2.325","population":"428","region":"76","departement":"11","arrondissement":"112","commune":"11408"},
{"name":"Aragon","latitude":"43.29611","longitude":"2.31444","population":"426","region":"76","departement":"11","arrondissement":"111","commune":"11011"},
{"name":"Fontiès-d'Aude","latitude":"43.18694","longitude":"2.45417","population":"404","region":"76","departement":"11","arrondissement":"111","commune":"11151"},
{"name":"Malviès","latitude":"43.11861","longitude":"2.18444","population":"374","region":"76","departement":"11","arrondissement":"112","commune":"11216"},
{"name":"Rouffiac-d'Aude","latitude":"43.128","longitude":"2.2994","population":"372","region":"76","departement":"11","arrondissement":"111","commune":"11325"},
{"name":"Raissac-sur-Lampy","latitude":"43.27778","longitude":"2.15917","population":"372","region":"76","departement":"11","arrondissement":"111","commune":"11308"},
{"name":"Villedubert","latitude":"43.23083","longitude":"2.42139","population":"337","region":"76","departement":"11","arrondissement":"111","commune":"11422"},
{"name":"Pauligne","latitude":"43.07333","longitude":"2.16111","population":"337","region":"76","departement":"11","arrondissement":"112","commune":"11274"},
{"name":"Saint-Martin-de-Villereglan","latitude":"43.10583","longitude":"2.21139","population":"331","region":"76","departement":"11","arrondissement":"112","commune":"11355"},
{"name":"Carlipa","latitude":"43.30722","longitude":"2.12611","population":"313","region":"76","departement":"11","arrondissement":"111","commune":"11070"},
{"name":"Gaja-et-Villedieu","latitude":"43.08111","longitude":"2.18722","population":"294","region":"76","departement":"11","arrondissement":"112","commune":"11158"},
{"name":"Ladern-sur-Lauquet","latitude":"43.1046","longitude":"2.3525","population":"262","region":"76","departement":"11","arrondissement":"112","commune":"11183"},
{"name":"Routier","latitude":"43.1073","longitude":"2.1275","population":"254","region":"76","departement":"11","arrondissement":"112","commune":"11328"},
{"name":"Cailhau","latitude":"43.14722","longitude":"2.13639","population":"253","region":"76","departement":"11","arrondissement":"112","commune":"11058"},
{"name":"Brugairolles","latitude":"43.12444","longitude":"2.15833","population":"251","region":"76","departement":"11","arrondissement":"112","commune":"11053"},
{"name":"Villeneuve-lès-Montréal","latitude":"43.18","longitude":"2.11139","population":"240","region":"76","departement":"11","arrondissement":"111","commune":"11432"},
{"name":"Cambieure","latitude":"43.12639","longitude":"2.13333","population":"233","region":"76","departement":"11","arrondissement":"112","commune":"11061"},
{"name":"Bouilhonnac","latitude":"43.23139","longitude":"2.43972","population":"229","region":"76","departement":"11","arrondissement":"111","commune":"11043"},
{"name":"Saint-Martin-le-Vieil","latitude":"43.2945","longitude":"2.1455","population":"227","region":"76","departement":"11","arrondissement":"111","commune":"11357"},
{"name":"Bagnoles","latitude":"43.2711","longitude":"2.4371","population":"211","region":"76","departement":"11","arrondissement":"111","commune":"11025"},
{"name":"Monze","latitude":"43.15583","longitude":"2.46","population":"187","region":"76","departement":"11","arrondissement":"111","commune":"11257"},
{"name":"Montclar","latitude":"43.135","longitude":"2.24833","population":"186","region":"76","departement":"11","arrondissement":"111","commune":"11242"},
{"name":"Villarzel-Cabardès","latitude":"43.27917","longitude":"2.45944","population":"183","region":"76","departement":"11","arrondissement":"111","commune":"11416"},
{"name":"Villefloure","latitude":"43.12333","longitude":"2.38111","population":"145","region":"76","departement":"11","arrondissement":"112","commune":"11423"},
{"name":"Sallèles-Cabardès","latitude":"43.32389","longitude":"2.41972","population":"114","region":"76","departement":"11","arrondissement":"111","commune":"11368"},
{"name":"Fraisse-Cabardès","latitude":"43.3251","longitude":"2.2724","population":"110","region":"76","departement":"11","arrondissement":"111","commune":"11156"},
{"name":"Gardie","latitude":"43.07444","longitude":"2.29917","population":"104","region":"76","departement":"11","arrondissement":"112","commune":"11161"},
{"name":"Cailhavel","latitude":"43.16194","longitude":"2.12639","population":"101","region":"76","departement":"11","arrondissement":"112","commune":"11059"},
{"name":"Villarzel-du-Razès","latitude":"43.13917","longitude":"2.20667","population":"100","region":"76","departement":"11","arrondissement":"112","commune":"11417"},
{"name":"Donazac","latitude":"43.0775","longitude":"2.11917","population":"94","region":"76","departement":"11","arrondissement":"112","commune":"11121"},
{"name":"Greffeil","latitude":"43.07861","longitude":"2.37889","population":"84","region":"76","departement":"11","arrondissement":"112","commune":"11169"},
{"name":"Montirat","latitude":"43.1725","longitude":"2.43833","population":"71","region":"76","departement":"11","arrondissement":"111","commune":"11248"},
{"name":"Villar-en-Val","latitude":"43.08306","longitude":"2.45833","population":"34","region":"76","departement":"11","arrondissement":"111","commune":"11414"},
{"name":"Fajac-en-Val","latitude":"43.12111","longitude":"2.45861","population":"31","region":"76","departement":"11","arrondissement":"111","commune":"11133"},
{"name":"Mas-des-Cours","latitude":"43.1298","longitude":"2.4245","population":"21","region":"76","departement":"11","arrondissement":"111","commune":"11223"}
]