[
{"name":"Saint-Valery-en-Caux","latitude":"49.86306","longitude":"0.70694","population":"4463","region":"28","departement":"76","arrondissement":"761","commune":"76655"},
{"name":"Offranville","latitude":"49.87111","longitude":"1.04833","population":"3319","region":"28","departement":"76","arrondissement":"761","commune":"76482"},
{"name":"Hautot-sur-Mer","latitude":"49.89694","longitude":"1.03389","population":"1976","region":"28","departement":"76","arrondissement":"761","commune":"76349"},
{"name":"Varengeville-sur-Mer","latitude":"49.9059","longitude":"0.9953","population":"1032","region":"28","departement":"76","arrondissement":"761","commune":"76720"},
{"name":"Avremesnil","latitude":"49.85","longitude":"0.92694","population":"946","region":"28","departement":"76","arrondissement":"761","commune":"76050"},
{"name":"Veules-les-Roses","latitude":"49.87361","longitude":"0.79944","population":"561","region":"28","departement":"76","arrondissement":"761","commune":"76735"},
{"name":"Longueil","latitude":"49.88306","longitude":"0.94889","population":"556","region":"28","departement":"76","arrondissement":"761","commune":"76395"},
{"name":"Ouville-la-Rivière","latitude":"49.87278","longitude":"0.95917","population":"556","region":"28","departement":"76","arrondissement":"761","commune":"76492"},
{"name":"Thil-Manneville","latitude":"49.84028","longitude":"0.99306","population":"537","region":"28","departement":"76","arrondissement":"761","commune":"76690"},
{"name":"Ambrumesnil","latitude":"49.8575","longitude":"0.99417","population":"536","region":"28","departement":"76","arrondissement":"761","commune":"76004"},
{"name":"Quiberville","latitude":"49.89833","longitude":"0.91944","population":"535","region":"28","departement":"76","arrondissement":"761","commune":"76515"},
{"name":"Sainte-Marguerite-sur-Mer","latitude":"49.9077","longitude":"0.9476","population":"507","region":"28","departement":"76","arrondissement":"761","commune":"76605"},
{"name":"Gueures","latitude":"49.8438","longitude":"0.9629","population":"503","region":"28","departement":"76","arrondissement":"761","commune":"76334"},
{"name":"Le Bourg-Dun","latitude":"49.86667","longitude":"0.88694","population":"457","region":"28","departement":"76","arrondissement":"761","commune":"76133"},
{"name":"Sotteville-sur-Mer","latitude":"49.88139","longitude":"0.83028","population":"358","region":"28","departement":"76","arrondissement":"761","commune":"76683"},
{"name":"Gueutteville-les-Grès","latitude":"49.83944","longitude":"0.75528","population":"351","region":"28","departement":"76","arrondissement":"761","commune":"76336"},
{"name":"Blosseville","latitude":"49.85389","longitude":"0.79611","population":"315","region":"28","departement":"76","arrondissement":"761","commune":"76104"},
{"name":"Saint-Aubin-sur-Mer","latitude":"49.88944","longitude":"0.87444","population":"267","region":"28","departement":"76","arrondissement":"761","commune":"76564"},
{"name":"Manneville-ès-Plains","latitude":"49.855","longitude":"0.75472","population":"265","region":"28","departement":"76","arrondissement":"761","commune":"76407"},
{"name":"Saint-Pierre-le-Vieux","latitude":"49.85028","longitude":"0.8725","population":"221","region":"28","departement":"76","arrondissement":"761","commune":"76641"},
{"name":"La Chapelle-sur-Dun","latitude":"49.86028","longitude":"0.84861","population":"191","region":"28","departement":"76","arrondissement":"761","commune":"76172"},
{"name":"Saint-Denis-d'Aclon","latitude":"49.86639","longitude":"0.95389","population":"171","region":"28","departement":"76","arrondissement":"761","commune":"76572"},
{"name":"Colmesnil-Manneville","latitude":"49.84861","longitude":"1.03333","population":"116","region":"28","departement":"76","arrondissement":"761","commune":"76184"}
]