[
{"name":"Saint-Vincent-de-Tyrosse","latitude":"43.66111","longitude":"-1.30417","population":"7373","region":"75","departement":"40","arrondissement":"401","commune":"40284"},
{"name":"Soustons","latitude":"43.75139","longitude":"-1.32944","population":"7240","region":"75","departement":"40","arrondissement":"401","commune":"40310"},
{"name":"Seignosse","latitude":"43.68917","longitude":"-1.37278","population":"3307","region":"75","departement":"40","arrondissement":"401","commune":"40296"},
{"name":"Tosse","latitude":"43.68917","longitude":"-1.33306","population":"2281","region":"75","departement":"40","arrondissement":"401","commune":"40317"},
{"name":"Bénesse-Maremne","latitude":"43.63417","longitude":"-1.36","population":"2254","region":"75","departement":"40","arrondissement":"401","commune":"40036"},
{"name":"Saint-Geours-de-Maremne","latitude":"43.68722","longitude":"-1.22917","population":"2122","region":"75","departement":"40","arrondissement":"401","commune":"40261"},
{"name":"Magescq","latitude":"43.77944","longitude":"-1.21722","population":"1775","region":"75","departement":"40","arrondissement":"401","commune":"40168"},
{"name":"Mées","latitude":"43.70194","longitude":"-1.1075","population":"1736","region":"75","departement":"40","arrondissement":"401","commune":"40179"},
{"name":"Vieux-Boucau-les-Bains","latitude":"43.78611","longitude":"-1.40444","population":"1577","region":"75","departement":"40","arrondissement":"401","commune":"40328"},
{"name":"Oeyreluy","latitude":"43.67139","longitude":"-1.08","population":"1574","region":"75","departement":"40","arrondissement":"401","commune":"40207"},
{"name":"Angresse","latitude":"43.65889","longitude":"-1.37222","population":"1484","region":"75","departement":"40","arrondissement":"401","commune":"40004"},
{"name":"Saubrigues","latitude":"43.61056","longitude":"-1.31444","population":"1356","region":"75","departement":"40","arrondissement":"401","commune":"40292"},
{"name":"Saubion","latitude":"43.67167","longitude":"-1.34833","population":"1323","region":"75","departement":"40","arrondissement":"401","commune":"40291"},
{"name":"Saint-Jean-de-Marsacq","latitude":"43.625","longitude":"-1.25611","population":"1311","region":"75","departement":"40","arrondissement":"401","commune":"40264"},
{"name":"Heugas","latitude":"43.64222","longitude":"-1.08056","population":"1238","region":"75","departement":"40","arrondissement":"401","commune":"40125"},
{"name":"Saint-Lon-les-Mines","latitude":"43.61417","longitude":"-1.12639","population":"1197","region":"75","departement":"40","arrondissement":"401","commune":"40269"},
{"name":"Saint-Martin-de-Hinx","latitude":"43.58167","longitude":"-1.27056","population":"1185","region":"75","departement":"40","arrondissement":"401","commune":"40272"},
{"name":"Rivière-Saas-et-Gourby","latitude":"43.67917","longitude":"-1.15167","population":"1168","region":"75","departement":"40","arrondissement":"401","commune":"40244"},
{"name":"Tercis-les-Bains","latitude":"43.67139","longitude":"-1.11083","population":"1157","region":"75","departement":"40","arrondissement":"401","commune":"40314"},
{"name":"Herm","latitude":"43.8075","longitude":"-1.14472","population":"1023","region":"75","departement":"40","arrondissement":"401","commune":"40123"},
{"name":"Messanges","latitude":"43.81556","longitude":"-1.37861","population":"986","region":"75","departement":"40","arrondissement":"401","commune":"40181"},
{"name":"Saubusse","latitude":"43.65722","longitude":"-1.18667","population":"805","region":"75","departement":"40","arrondissement":"401","commune":"40293"},
{"name":"Josse","latitude":"43.64139","longitude":"-1.22417","population":"793","region":"75","departement":"40","arrondissement":"401","commune":"40129"},
{"name":"Seyresse","latitude":"43.68611","longitude":"-1.065","population":"790","region":"75","departement":"40","arrondissement":"401","commune":"40300"},
{"name":"Pey","latitude":"43.63083","longitude":"-1.20194","population":"698","region":"75","departement":"40","arrondissement":"401","commune":"40222"},
{"name":"Cagnotte","latitude":"43.59556","longitude":"-1.06778","population":"684","region":"75","departement":"40","arrondissement":"401","commune":"40059"},
{"name":"Orist","latitude":"43.64056","longitude":"-1.17694","population":"661","region":"75","departement":"40","arrondissement":"401","commune":"40211"},
{"name":"Bélus","latitude":"43.59167","longitude":"-1.10972","population":"605","region":"75","departement":"40","arrondissement":"401","commune":"40034"},
{"name":"Saint-Étienne-d'Orthe","latitude":"43.58694","longitude":"-1.17833","population":"576","region":"75","departement":"40","arrondissement":"401","commune":"40256"},
{"name":"Azur","latitude":"43.79889","longitude":"-1.30222","population":"575","region":"75","departement":"40","arrondissement":"401","commune":"40021"},
{"name":"Orx","latitude":"43.60278","longitude":"-1.37028","population":"495","region":"75","departement":"40","arrondissement":"401","commune":"40213"},
{"name":"Angoumé","latitude":"43.6878","longitude":"-1.1359","population":"270","region":"75","departement":"40","arrondissement":"401","commune":"40003"},
{"name":"Siest","latitude":"43.64944","longitude":"-1.13139","population":"111","region":"75","departement":"40","arrondissement":"401","commune":"40301"}
]