[
{"name":"Chinon","latitude":"47.16694","longitude":"0.24278","population":"7986","region":"24","departement":"37","arrondissement":"371","commune":"37072"},
{"name":"Beaumont-en-Véron","latitude":"47.19583","longitude":"0.18611","population":"2819","region":"24","departement":"37","arrondissement":"371","commune":"37022"},
{"name":"Chouzé-sur-Loire","latitude":"47.23639","longitude":"0.12694","population":"2087","region":"24","departement":"37","arrondissement":"371","commune":"37074"},
{"name":"Varennes-sur-Loire","latitude":"47.23833","longitude":"0.05389","population":"1898","region":"52","departement":"49","arrondissement":"493","commune":"49361"},
{"name":"Avoine","latitude":"47.20533","longitude":"0.18253","population":"1844","region":"24","departement":"37","arrondissement":"371","commune":"37011"},
{"name":"Huismes","latitude":"47.2325","longitude":"0.2525","population":"1537","region":"24","departement":"37","arrondissement":"371","commune":"37118"},
{"name":"La Chapelle-sur-Loire","latitude":"47.24861","longitude":"0.22389","population":"1532","region":"24","departement":"37","arrondissement":"371","commune":"37058"},
{"name":"Fontevraud-l'Abbaye","latitude":"47.182","longitude":"0.05023","population":"1530","region":"52","departement":"49","arrondissement":"493","commune":"49140"},
{"name":"Savigny-en-Véron","latitude":"47.20071","longitude":"0.14457","population":"1447","region":"24","departement":"37","arrondissement":"371","commune":"37242"},
{"name":"Les Trois-Moutiers","latitude":"47.06278","longitude":"0.02056","population":"1058","region":"75","departement":"86","arrondissement":"861","commune":"86274"},
{"name":"Ligré","latitude":"47.11222","longitude":"0.27528","population":"1042","region":"24","departement":"37","arrondissement":"371","commune":"37129"},
{"name":"Champigny-sur-Veude","latitude":"47.06694","longitude":"0.32194","population":"863","region":"24","departement":"37","arrondissement":"371","commune":"37051"},
{"name":"Saint-Benoît-la-Forêt","latitude":"47.22056","longitude":"0.3225","population":"862","region":"24","departement":"37","arrondissement":"371","commune":"37210"},
{"name":"Cravant-les-Côteaux","latitude":"47.15778","longitude":"0.34667","population":"719","region":"24","departement":"37","arrondissement":"371","commune":"37089"},
{"name":"Roiffé","latitude":"47.12472","longitude":"0.05222","population":"685","region":"75","departement":"86","arrondissement":"861","commune":"86210"},
{"name":"Rivière","latitude":"47.14583","longitude":"0.27944","population":"681","region":"24","departement":"37","arrondissement":"371","commune":"37201"},
{"name":"Bournand","latitude":"47.08694","longitude":"0.07806","population":"681","region":"75","departement":"86","arrondissement":"861","commune":"86036"},
{"name":"Turquant","latitude":"47.22278","longitude":"0.02778","population":"552","region":"52","departement":"49","arrondissement":"493","commune":"49358"},
{"name":"Rigny-Ussé","latitude":"47.25222","longitude":"0.29917","population":"527","region":"24","departement":"37","arrondissement":"371","commune":"37197"},
{"name":"Beuxes","latitude":"47.0943","longitude":"0.1817","population":"521","region":"75","departement":"86","arrondissement":"861","commune":"86026"},
{"name":"Montsoreau","latitude":"47.21639","longitude":"0.05694","population":"485","region":"52","departement":"49","arrondissement":"493","commune":"49219"},
{"name":"La Roche-Clermault","latitude":"47.1375","longitude":"0.2033","population":"484","region":"24","departement":"37","arrondissement":"371","commune":"37202"},
{"name":"Parnay","latitude":"47.23111","longitude":"0.00833","population":"477","region":"52","departement":"49","arrondissement":"493","commune":"49235"},
{"name":"Marçay","latitude":"47.1","longitude":"0.21667","population":"455","region":"24","departement":"37","arrondissement":"371","commune":"37144"},
{"name":"Cinais","latitude":"47.14833","longitude":"0.18194","population":"442","region":"24","departement":"37","arrondissement":"371","commune":"37076"},
{"name":"Anché","latitude":"47.13806","longitude":"0.30889","population":"426","region":"24","departement":"37","arrondissement":"371","commune":"37004"},
{"name":"Lémeré","latitude":"47.08278","longitude":"0.335","population":"421","region":"24","departement":"37","arrondissement":"371","commune":"37125"},
{"name":"Seuilly","latitude":"47.1339","longitude":"0.1727","population":"384","region":"24","departement":"37","arrondissement":"371","commune":"37248"},
{"name":"Saint-Germain-sur-Vienne","latitude":"47.1807","longitude":"0.1214","population":"370","region":"24","departement":"37","arrondissement":"371","commune":"37220"},
{"name":"Vézières","latitude":"47.08722","longitude":"0.09972","population":"349","region":"75","departement":"86","arrondissement":"861","commune":"86287"},
{"name":"Lerné","latitude":"47.1357","longitude":"0.1232","population":"324","region":"24","departement":"37","arrondissement":"371","commune":"37126"},
{"name":"Thizay","latitude":"47.1663","longitude":"0.1439","population":"266","region":"24","departement":"37","arrondissement":"371","commune":"37258"},
{"name":"Sazilly","latitude":"47.13583","longitude":"0.34194","population":"254","region":"24","departement":"37","arrondissement":"371","commune":"37244"},
{"name":"Saix","latitude":"47.13722","longitude":"0.00028","population":"232","region":"75","departement":"86","arrondissement":"861","commune":"86250"},
{"name":"Candes-Saint-Martin","latitude":"47.21132","longitude":"0.07433","population":"222","region":"24","departement":"37","arrondissement":"371","commune":"37042"},
{"name":"Assay","latitude":"47.0745","longitude":"0.2906","population":"180","region":"24","departement":"37","arrondissement":"371","commune":"37007"},
{"name":"Couziers","latitude":"47.15889","longitude":"0.08222","population":"108","region":"24","departement":"37","arrondissement":"371","commune":"37088"}
]