[
{"name":"Épernay","latitude":"49.04","longitude":"3.95917","population":"24317","region":"44","departement":"51","arrondissement":"512","commune":"51230"},
{"name":"Aÿ-Champagne","latitude":"49.05528","longitude":"4.00361","population":"4116","region":"44","departement":"51","arrondissement":"512","commune":"51030"},
{"name":"Magenta","latitude":"49.05222","longitude":"3.96528","population":"1749","region":"44","departement":"51","arrondissement":"512","commune":"51663"},
{"name":"Avize","latitude":"48.97194","longitude":"4.00944","population":"1709","region":"44","departement":"51","arrondissement":"512","commune":"51029"},
{"name":"Dizy","latitude":"49.06528","longitude":"3.96667","population":"1647","region":"44","departement":"51","arrondissement":"512","commune":"51210"},
{"name":"Mardeuil","latitude":"49.05472","longitude":"3.93056","population":"1542","region":"44","departement":"51","arrondissement":"512","commune":"51344"},
{"name":"Damery","latitude":"49.07111","longitude":"3.8775","population":"1500","region":"44","departement":"51","arrondissement":"512","commune":"51204"},
{"name":"Saint-Martin-d'Ablois","latitude":"49.0122","longitude":"3.8681","population":"1482","region":"44","departement":"51","arrondissement":"512","commune":"51002"},
{"name":"Tours-sur-Marne","latitude":"49.04861","longitude":"4.11972","population":"1309","region":"44","departement":"51","arrondissement":"512","commune":"51576"},
{"name":"Le Mesnil-sur-Oger","latitude":"48.94667","longitude":"4.02194","population":"1222","region":"44","departement":"51","arrondissement":"512","commune":"51367"},
{"name":"Pierry","latitude":"49.01889","longitude":"3.93722","population":"1195","region":"44","departement":"51","arrondissement":"512","commune":"51431"},
{"name":"Verzy","latitude":"49.14639","longitude":"4.16361","population":"1061","region":"44","departement":"51","arrondissement":"513","commune":"51614"},
{"name":"Chouilly","latitude":"49.02528","longitude":"4.01389","population":"1002","region":"44","departement":"51","arrondissement":"512","commune":"51153"},
{"name":"Bouzy","latitude":"49.07944","longitude":"4.14694","population":"947","region":"44","departement":"51","arrondissement":"512","commune":"51079"},
{"name":"Avenay-Val-d'Or","latitude":"49.06917","longitude":"4.04583","population":"920","region":"44","departement":"51","arrondissement":"512","commune":"51028"},
{"name":"Ambonnay","latitude":"49.077","longitude":"4.1732","population":"920","region":"44","departement":"51","arrondissement":"512","commune":"51007"},
{"name":"Oiry","latitude":"49.02361","longitude":"4.05056","population":"893","region":"44","departement":"51","arrondissement":"512","commune":"51413"},
{"name":"Cramant","latitude":"48.98806","longitude":"3.99028","population":"884","region":"44","departement":"51","arrondissement":"512","commune":"51196"},
{"name":"Cumières","latitude":"49.07222","longitude":"3.92667","population":"838","region":"44","departement":"51","arrondissement":"512","commune":"51202"},
{"name":"Athis","latitude":"49.01639","longitude":"4.12833","population":"822","region":"44","departement":"51","arrondissement":"511","commune":"51018"},
{"name":"Hautvillers","latitude":"49.08417","longitude":"3.94361","population":"781","region":"44","departement":"51","arrondissement":"512","commune":"51287"},
{"name":"Moussy","latitude":"49.01472","longitude":"3.92194","population":"781","region":"44","departement":"51","arrondissement":"512","commune":"51390"},
{"name":"Plivot","latitude":"49.01778","longitude":"4.07028","population":"746","region":"44","departement":"51","arrondissement":"512","commune":"51434"},
{"name":"Condé-sur-Marne","latitude":"49.04528","longitude":"4.17944","population":"710","region":"44","departement":"51","arrondissement":"511","commune":"51161"},
{"name":"Grauves","latitude":"48.97361","longitude":"3.96472","population":"671","region":"44","departement":"51","arrondissement":"512","commune":"51281"},
{"name":"Jâlons","latitude":"49.0104","longitude":"4.1858","population":"581","region":"44","departement":"51","arrondissement":"511","commune":"51303"},
{"name":"Oger","latitude":"48.95778","longitude":"4.01222","population":"574","region":"44","departement":"51","arrondissement":"512","commune":"51411"},
{"name":"Villers-Marmery","latitude":"49.13528","longitude":"4.19667","population":"555","region":"44","departement":"51","arrondissement":"513","commune":"51636"},
{"name":"Germaine","latitude":"49.11444","longitude":"4.03028","population":"536","region":"44","departement":"51","arrondissement":"512","commune":"51266"},
{"name":"Vinay","latitude":"49.01","longitude":"3.89861","population":"522","region":"44","departement":"51","arrondissement":"512","commune":"51643"},
{"name":"Champillon","latitude":"49.08472","longitude":"3.97806","population":"519","region":"44","departement":"51","arrondissement":"512","commune":"51119"},
{"name":"Fleury-la-Rivière","latitude":"49.0968","longitude":"3.8834","population":"497","region":"44","departement":"51","arrondissement":"512","commune":"51252"},
{"name":"Brugny-Vaudancourt","latitude":"48.99917","longitude":"3.88639","population":"442","region":"44","departement":"51","arrondissement":"512","commune":"51093"},
{"name":"Trépail","latitude":"49.10694","longitude":"4.18167","population":"437","region":"44","departement":"51","arrondissement":"513","commune":"51580"},
{"name":"Cuis","latitude":"48.99667","longitude":"3.96667","population":"404","region":"44","departement":"51","arrondissement":"512","commune":"51200"},
{"name":"Chavot-Courcourt","latitude":"49.00361","longitude":"3.92972","population":"383","region":"44","departement":"51","arrondissement":"512","commune":"51142"},
{"name":"Monthelon","latitude":"48.99333","longitude":"3.93472","population":"370","region":"44","departement":"51","arrondissement":"512","commune":"51378"},
{"name":"Fontaine-sur-Ay","latitude":"49.08194","longitude":"4.0725","population":"331","region":"44","departement":"51","arrondissement":"512","commune":"51256"},
{"name":"Vouzy","latitude":"48.92528","longitude":"4.11083","population":"329","region":"44","departement":"51","arrondissement":"511","commune":"51655"},
{"name":"Vauciennes","latitude":"49.05","longitude":"3.88333","population":"299","region":"44","departement":"51","arrondissement":"512","commune":"51597"},
{"name":"Morangis","latitude":"48.97278","longitude":"3.91806","population":"297","region":"44","departement":"51","arrondissement":"512","commune":"51384"},
{"name":"Moslins","latitude":"48.96806","longitude":"3.92556","population":"289","region":"44","departement":"51","arrondissement":"512","commune":"51387"},
{"name":"Saint-Imoges","latitude":"49.1103","longitude":"3.9761","population":"289","region":"44","departement":"51","arrondissement":"512","commune":"51488"},
{"name":"Champigneul-Champagne","latitude":"48.97194","longitude":"4.16778","population":"282","region":"44","departement":"51","arrondissement":"511","commune":"51117"},
{"name":"Ville-en-Selve","latitude":"49.12611","longitude":"4.08111","population":"279","region":"44","departement":"51","arrondissement":"513","commune":"51623"},
{"name":"Villers-aux-Bois","latitude":"48.93361","longitude":"3.93639","population":"276","region":"44","departement":"51","arrondissement":"512","commune":"51630"},
{"name":"Mancy","latitude":"48.98194","longitude":"3.93278","population":"269","region":"44","departement":"51","arrondissement":"512","commune":"51342"},
{"name":"Val de Livre","latitude":"49.09139","longitude":"4.10361","population":"269","region":"44","departement":"51","arrondissement":"512","commune":"51564"},
{"name":"Thibie","latitude":"48.92944","longitude":"4.21556","population":"262","region":"44","departement":"51","arrondissement":"511","commune":"51566"},
{"name":"Aigny","latitude":"49.03556","longitude":"4.20889","population":"235","region":"44","departement":"51","arrondissement":"511","commune":"51003"},
{"name":"Mutigny","latitude":"49.06667","longitude":"4.02611","population":"235","region":"44","departement":"51","arrondissement":"512","commune":"51392"},
{"name":"Nanteuil-la-Forêt","latitude":"49.1301","longitude":"3.923","population":"231","region":"44","departement":"51","arrondissement":"513","commune":"51393"},
{"name":"Aulnay-sur-Marne","latitude":"49.0075","longitude":"4.20417","population":"224","region":"44","departement":"51","arrondissement":"511","commune":"51023"},
{"name":"Flavigny","latitude":"48.97528","longitude":"4.05889","population":"188","region":"44","departement":"51","arrondissement":"512","commune":"51251"},
{"name":"Romery","latitude":"49.09722","longitude":"3.91528","population":"163","region":"44","departement":"51","arrondissement":"512","commune":"51465"},
{"name":"Saint-Mard-lès-Rouffy","latitude":"48.94167","longitude":"4.11639","population":"161","region":"44","departement":"51","arrondissement":"511","commune":"51499"},
{"name":"Pocancy","latitude":"48.94722","longitude":"4.14639","population":"156","region":"44","departement":"51","arrondissement":"511","commune":"51435"},
{"name":"Gionges","latitude":"48.93528","longitude":"3.98","population":"153","region":"44","departement":"51","arrondissement":"512","commune":"51271"},
{"name":"Isse","latitude":"49.06611","longitude":"4.205","population":"129","region":"44","departement":"51","arrondissement":"511","commune":"51301"},
{"name":"Cormoyeux","latitude":"49.10917","longitude":"3.91417","population":"119","region":"44","departement":"51","arrondissement":"512","commune":"51173"},
{"name":"Rouffy","latitude":"48.93444","longitude":"4.10139","population":"98","region":"44","departement":"51","arrondissement":"511","commune":"51469"},
{"name":"Cherville","latitude":"49.01861","longitude":"4.16389","population":"92","region":"44","departement":"51","arrondissement":"511","commune":"51150"},
{"name":"Les Istres-et-Bury","latitude":"48.985","longitude":"4.09028","population":"91","region":"44","departement":"51","arrondissement":"512","commune":"51302"},
{"name":"Chaltrait","latitude":"48.93","longitude":"3.89639","population":"76","region":"44","departement":"51","arrondissement":"512","commune":"51110"},
{"name":"Courtagnon","latitude":"49.1445","longitude":"3.9464","population":"61","region":"44","departement":"51","arrondissement":"513","commune":"51190"}
]