[
{"name":"Cirey-sur-Vezouze","latitude":"48.5811","longitude":"6.9479","population":"1741","region":"44","departement":"54","arrondissement":"542","commune":"54129"},
{"name":"Badonviller","latitude":"48.5","longitude":"6.89306","population":"1617","region":"44","departement":"54","arrondissement":"542","commune":"54040"},
{"name":"Lorquin","latitude":"48.66917","longitude":"6.99667","population":"1265","region":"44","departement":"57","arrondissement":"575","commune":"57414"},
{"name":"Blâmont","latitude":"48.58972","longitude":"6.84222","population":"1165","region":"44","departement":"54","arrondissement":"542","commune":"54077"},
{"name":"Azerailles","latitude":"48.48806","longitude":"6.69444","population":"846","region":"44","departement":"54","arrondissement":"542","commune":"54038"},
{"name":"Avricourt","latitude":"48.65083","longitude":"6.80639","population":"686","region":"44","departement":"57","arrondissement":"575","commune":"57042"},
{"name":"Val-et-Châtillon","latitude":"48.55861","longitude":"6.96611","population":"670","region":"44","departement":"54","arrondissement":"542","commune":"54540"},
{"name":"Moussey","latitude":"48.6738","longitude":"6.7832","population":"625","region":"44","departement":"57","arrondissement":"575","commune":"57488"},
{"name":"Réchicourt-le-Château","latitude":"48.665","longitude":"6.84056","population":"584","region":"44","departement":"57","arrondissement":"575","commune":"57564"},
{"name":"Gondrexange","latitude":"48.68444","longitude":"6.92778","population":"482","region":"44","departement":"57","arrondissement":"575","commune":"57253"},
{"name":"Nitting","latitude":"48.67083","longitude":"7.02972","population":"468","region":"44","departement":"57","arrondissement":"575","commune":"57509"},
{"name":"Avricourt","latitude":"48.645","longitude":"6.8066","population":"411","region":"44","departement":"54","arrondissement":"542","commune":"54035"},
{"name":"Pexonne","latitude":"48.48333","longitude":"6.86667","population":"403","region":"44","departement":"54","arrondissement":"542","commune":"54423"},
{"name":"Merviller","latitude":"48.48167","longitude":"6.775","population":"384","region":"44","departement":"54","arrondissement":"542","commune":"54365"},
{"name":"Petitmont","latitude":"48.55722","longitude":"6.95667","population":"368","region":"44","departement":"54","arrondissement":"542","commune":"54421"},
{"name":"Bertrambois","latitude":"48.60528","longitude":"6.98611","population":"360","region":"44","departement":"54","arrondissement":"542","commune":"54064"},
{"name":"Glonville","latitude":"48.47417","longitude":"6.69028","population":"344","region":"44","departement":"54","arrondissement":"542","commune":"54229"},
{"name":"Ogéviller","latitude":"48.54694","longitude":"6.72556","population":"297","region":"44","departement":"54","arrondissement":"542","commune":"54406"},
{"name":"Niderhoff","latitude":"48.6375","longitude":"7.00694","population":"292","region":"44","departement":"57","arrondissement":"575","commune":"57504"},
{"name":"Domèvre-sur-Vezouze","latitude":"48.56139","longitude":"6.80611","population":"288","region":"44","departement":"54","arrondissement":"542","commune":"54161"},
{"name":"Emberménil","latitude":"48.62917","longitude":"6.69583","population":"261","region":"44","departement":"54","arrondissement":"542","commune":"54177"},
{"name":"Landange","latitude":"48.67083","longitude":"6.95861","population":"258","region":"44","departement":"57","arrondissement":"575","commune":"57377"},
{"name":"Vacqueville","latitude":"48.48139","longitude":"6.81417","population":"253","region":"44","departement":"54","arrondissement":"542","commune":"54539"},
{"name":"Ancerviller","latitude":"48.53222","longitude":"6.835","population":"252","region":"44","departement":"54","arrondissement":"542","commune":"54014"},
{"name":"Hermelange","latitude":"48.67944","longitude":"7.01694","population":"249","region":"44","departement":"57","arrondissement":"575","commune":"57318"},
{"name":"Allarmont","latitude":"48.48222","longitude":"7.01333","population":"242","region":"44","departement":"88","arrondissement":"883","commune":"88005"},
{"name":"Domjevin","latitude":"48.57611","longitude":"6.69667","population":"238","region":"44","departement":"54","arrondissement":"542","commune":"54163"},
{"name":"Neufmaisons","latitude":"48.45861","longitude":"6.84806","population":"228","region":"44","departement":"54","arrondissement":"542","commune":"54396"},
{"name":"Herbéviller","latitude":"48.55694","longitude":"6.75361","population":"220","region":"44","departement":"54","arrondissement":"542","commune":"54259"},
{"name":"Lafrimbolle","latitude":"48.59472","longitude":"7.01889","population":"217","region":"44","departement":"57","arrondissement":"575","commune":"57374"},
{"name":"Hattigny","latitude":"48.63139","longitude":"6.965","population":"215","region":"44","departement":"57","arrondissement":"575","commune":"57302"},
{"name":"Hablainville","latitude":"48.5175","longitude":"6.72833","population":"214","region":"44","departement":"54","arrondissement":"542","commune":"54243"},
{"name":"Saint-Georges","latitude":"48.65778","longitude":"6.92889","population":"213","region":"44","departement":"57","arrondissement":"575","commune":"57611"},
{"name":"Frémonville","latitude":"48.59528","longitude":"6.88694","population":"208","region":"44","departement":"54","arrondissement":"542","commune":"54211"},
{"name":"Sainte-Pôle","latitude":"48.51","longitude":"6.82444","population":"200","region":"44","departement":"54","arrondissement":"542","commune":"54484"},
{"name":"Hertzing","latitude":"48.6875","longitude":"6.95194","population":"192","region":"44","departement":"57","arrondissement":"575","commune":"57320"},
{"name":"Foulcrey","latitude":"48.63778","longitude":"6.85722","population":"190","region":"44","departement":"57","arrondissement":"575","commune":"57229"},
{"name":"Fréménil","latitude":"48.56528","longitude":"6.71278","population":"190","region":"44","departement":"54","arrondissement":"542","commune":"54210"},
{"name":"Mignéville","latitude":"48.53278","longitude":"6.77944","population":"177","region":"44","departement":"54","arrondissement":"542","commune":"54368"},
{"name":"Gélacourt","latitude":"48.48139","longitude":"6.73194","population":"157","region":"44","departement":"54","arrondissement":"542","commune":"54217"},
{"name":"Leintrey","latitude":"48.62361","longitude":"6.73778","population":"156","region":"44","departement":"54","arrondissement":"542","commune":"54308"},
{"name":"Verdenal","latitude":"48.58361","longitude":"6.81111","population":"153","region":"44","departement":"54","arrondissement":"542","commune":"54562"},
{"name":"Barbas","latitude":"48.57306","longitude":"6.84694","population":"148","region":"44","departement":"54","arrondissement":"542","commune":"54044"},
{"name":"Richeval","latitude":"48.63583","longitude":"6.91083","population":"136","region":"44","departement":"57","arrondissement":"575","commune":"57583"},
{"name":"Bionville","latitude":"48.48389","longitude":"7.01083","population":"132","region":"44","departement":"54","arrondissement":"542","commune":"54075"},
{"name":"Reherrey","latitude":"48.50917","longitude":"6.76694","population":"130","region":"44","departement":"54","arrondissement":"542","commune":"54450"},
{"name":"Bréménil","latitude":"48.52333","longitude":"6.91861","population":"129","region":"44","departement":"54","arrondissement":"542","commune":"54097"},
{"name":"Montigny","latitude":"48.51667","longitude":"6.8","population":"128","region":"44","departement":"54","arrondissement":"542","commune":"54377"},
{"name":"Brouville","latitude":"48.49806","longitude":"6.75028","population":"126","region":"44","departement":"54","arrondissement":"542","commune":"54101"},
{"name":"Autrepierre","latitude":"48.61167","longitude":"6.80111","population":"120","region":"44","departement":"54","arrondissement":"542","commune":"54030"},
{"name":"Xousse","latitude":"48.6567","longitude":"6.7103","population":"118","region":"44","departement":"54","arrondissement":"542","commune":"54600"},
{"name":"Vého","latitude":"48.59667","longitude":"6.71083","population":"114","region":"44","departement":"54","arrondissement":"542","commune":"54556"},
{"name":"Harbouey","latitude":"48.57","longitude":"6.88667","population":"112","region":"44","departement":"54","arrondissement":"542","commune":"54251"},
{"name":"Igney","latitude":"48.6342","longitude":"6.8147","population":"111","region":"44","departement":"54","arrondissement":"542","commune":"54271"},
{"name":"Nonhigny","latitude":"48.55056","longitude":"6.88056","population":"107","region":"44","departement":"54","arrondissement":"542","commune":"54401"},
{"name":"Pierre-Percée","latitude":"48.46861","longitude":"6.9325","population":"103","region":"44","departement":"54","arrondissement":"542","commune":"54427"},
{"name":"Angomont","latitude":"48.51611","longitude":"6.94667","population":"102","region":"44","departement":"54","arrondissement":"542","commune":"54017"},
{"name":"Fenneviller","latitude":"48.48722","longitude":"6.88139","population":"101","region":"44","departement":"54","arrondissement":"542","commune":"54191"},
{"name":"Ibigny","latitude":"48.64333","longitude":"6.9","population":"95","region":"44","departement":"57","arrondissement":"575","commune":"57342"},
{"name":"Amenoncourt","latitude":"48.62778","longitude":"6.78889","population":"94","region":"44","departement":"54","arrondissement":"542","commune":"54013"},
{"name":"Laneuveville-lès-Lorquin","latitude":"48.65361","longitude":"7.00194","population":"94","region":"44","departement":"57","arrondissement":"575","commune":"57380"},
{"name":"Tanconville","latitude":"48.605","longitude":"6.93361","population":"93","region":"44","departement":"54","arrondissement":"542","commune":"54512"},
{"name":"Neuviller-lès-Badonviller","latitude":"48.5175","longitude":"6.87389","population":"92","region":"44","departement":"54","arrondissement":"542","commune":"54398"},
{"name":"Fraquelfing","latitude":"48.63944","longitude":"6.98861","population":"89","region":"44","departement":"57","arrondissement":"575","commune":"57233"},
{"name":"Vaxainville","latitude":"48.51583","longitude":"6.75417","population":"87","region":"44","departement":"54","arrondissement":"542","commune":"54555"},
{"name":"Saint-Maurice-aux-Forges","latitude":"48.51028","longitude":"6.8475","population":"85","region":"44","departement":"54","arrondissement":"542","commune":"54481"},
{"name":"Repaix","latitude":"48.60778","longitude":"6.83278","population":"81","region":"44","departement":"54","arrondissement":"542","commune":"54458"},
{"name":"Parux","latitude":"48.53889","longitude":"6.92167","population":"79","region":"44","departement":"54","arrondissement":"542","commune":"54419"},
{"name":"Saint-Martin","latitude":"48.5685","longitude":"6.7535","population":"78","region":"44","departement":"54","arrondissement":"542","commune":"54480"},
{"name":"Réclonville","latitude":"48.54056","longitude":"6.72806","population":"76","region":"44","departement":"54","arrondissement":"542","commune":"54447"},
{"name":"Buriville","latitude":"48.53917","longitude":"6.70806","population":"71","region":"44","departement":"54","arrondissement":"542","commune":"54107"},
{"name":"Vaucourt","latitude":"48.66944","longitude":"6.6925","population":"71","region":"44","departement":"54","arrondissement":"542","commune":"54551"},
{"name":"Reillon","latitude":"48.59833","longitude":"6.74333","population":"64","region":"44","departement":"54","arrondissement":"542","commune":"54452"},
{"name":"Halloville","latitude":"48.55417","longitude":"6.86111","population":"64","region":"44","departement":"54","arrondissement":"542","commune":"54246"},
{"name":"Blémerey","latitude":"48.58333","longitude":"6.73333","population":"60","region":"44","departement":"54","arrondissement":"542","commune":"54078"},
{"name":"Montreux","latitude":"48.53583","longitude":"6.88222","population":"60","region":"44","departement":"54","arrondissement":"542","commune":"54381"},
{"name":"Pettonville","latitude":"48.52889","longitude":"6.74194","population":"58","region":"44","departement":"54","arrondissement":"542","commune":"54422"},
{"name":"Veney","latitude":"48.46694","longitude":"6.81333","population":"55","region":"44","departement":"54","arrondissement":"542","commune":"54560"},
{"name":"Gogney","latitude":"48.61361","longitude":"6.85861","population":"50","region":"44","departement":"54","arrondissement":"542","commune":"54230"},
{"name":"Saint-Sauveur","latitude":"48.53389","longitude":"6.97361","population":"46","region":"44","departement":"54","arrondissement":"542","commune":"54488"},
{"name":"Aspach","latitude":"48.65444","longitude":"6.96222","population":"45","region":"44","departement":"57","arrondissement":"575","commune":"57034"},
{"name":"Remoncourt","latitude":"48.6594","longitude":"6.7373","population":"38","region":"44","departement":"54","arrondissement":"542","commune":"54457"},
{"name":"Chazelles-sur-Albe","latitude":"48.58972","longitude":"6.77917","population":"36","region":"44","departement":"54","arrondissement":"542","commune":"54124"},
{"name":"Neufmoulins","latitude":"48.68167","longitude":"6.96722","population":"36","region":"44","departement":"57","arrondissement":"575","commune":"57500"},
{"name":"Gondrexon","latitude":"48.60556","longitude":"6.76972","population":"33","region":"44","departement":"54","arrondissement":"542","commune":"54233"}
]