[
{"name":"Criquetot-l'Esneval","latitude":"49.64389","longitude":"0.26611","population":"2303","region":"28","departement":"76","arrondissement":"762","commune":"76196"},
{"name":"Saint-Jouin-Bruneval","latitude":"49.64333","longitude":"0.16278","population":"1823","region":"28","departement":"76","arrondissement":"762","commune":"76595"},
{"name":"Étretat","latitude":"49.70639","longitude":"0.20667","population":"1502","region":"28","departement":"76","arrondissement":"762","commune":"76254"},
{"name":"Gonneville-la-Mallet","latitude":"49.63972","longitude":"0.22194","population":"1313","region":"28","departement":"76","arrondissement":"762","commune":"76307"},
{"name":"Saint-Sauveur-d'Émalleville","latitude":"49.6125","longitude":"0.2996","population":"1195","region":"28","departement":"76","arrondissement":"762","commune":"76650"},
{"name":"Les Loges","latitude":"49.7","longitude":"0.28333","population":"1155","region":"28","departement":"76","arrondissement":"762","commune":"76390"},
{"name":"Écrainville","latitude":"49.65167","longitude":"0.32056","population":"1030","region":"28","departement":"76","arrondissement":"762","commune":"76224"},
{"name":"Froberville","latitude":"49.72194","longitude":"0.33139","population":"1023","region":"28","departement":"76","arrondissement":"762","commune":"76291"},
{"name":"Yport","latitude":"49.73778","longitude":"0.31306","population":"947","region":"28","departement":"76","arrondissement":"762","commune":"76754"},
{"name":"Le Tilleul","latitude":"49.68222","longitude":"0.20528","population":"687","region":"28","departement":"76","arrondissement":"762","commune":"76693"},
{"name":"Heuqueville","latitude":"49.6161","longitude":"0.1493","population":"659","region":"28","departement":"76","arrondissement":"762","commune":"76361"},
{"name":"Bordeaux-Saint-Clair","latitude":"49.70111","longitude":"0.25278","population":"611","region":"28","departement":"76","arrondissement":"762","commune":"76117"},
{"name":"Anglesqueville-l'Esneval","latitude":"49.63306","longitude":"0.23694","population":"544","region":"28","departement":"76","arrondissement":"762","commune":"76017"},
{"name":"Beaurepaire","latitude":"49.66528","longitude":"0.22056","population":"472","region":"28","departement":"76","arrondissement":"762","commune":"76064"},
{"name":"Maniquerville","latitude":"49.69222","longitude":"0.34306","population":"470","region":"28","departement":"76","arrondissement":"762","commune":"76406"},
{"name":"Vergetot","latitude":"49.61861","longitude":"0.27917","population":"423","region":"28","departement":"76","arrondissement":"762","commune":"76734"},
{"name":"Gerville","latitude":"49.69583","longitude":"0.32944","population":"412","region":"28","departement":"76","arrondissement":"762","commune":"76300"},
{"name":"Sausseuzemare-en-Caux","latitude":"49.66583","longitude":"0.34278","population":"409","region":"28","departement":"76","arrondissement":"762","commune":"76669"},
{"name":"La Poterie-Cap-d'Antifer","latitude":"49.67167","longitude":"0.18806","population":"403","region":"28","departement":"76","arrondissement":"762","commune":"76508"},
{"name":"Criquebeuf-en-Caux","latitude":"49.74056","longitude":"0.33278","population":"386","region":"28","departement":"76","arrondissement":"762","commune":"76194"},
{"name":"Cuverville","latitude":"49.6638","longitude":"0.2636","population":"340","region":"28","departement":"76","arrondissement":"762","commune":"76206"},
{"name":"Sainte-Marie-au-Bosc","latitude":"49.66417","longitude":"0.20167","population":"314","region":"28","departement":"76","arrondissement":"762","commune":"76609"},
{"name":"Vattetot-sur-Mer","latitude":"49.72694","longitude":"0.28028","population":"314","region":"28","departement":"76","arrondissement":"762","commune":"76726"},
{"name":"Villainville","latitude":"49.6602","longitude":"0.2429","population":"286","region":"28","departement":"76","arrondissement":"762","commune":"76741"},
{"name":"Bornambusc","latitude":"49.62722","longitude":"0.35139","population":"279","region":"28","departement":"76","arrondissement":"762","commune":"76118"},
{"name":"Fongueusemare","latitude":"49.67833","longitude":"0.30528","population":"186","region":"28","departement":"76","arrondissement":"762","commune":"76268"},
{"name":"Bénouville","latitude":"49.71667","longitude":"0.25","population":"134","region":"28","departement":"76","arrondissement":"762","commune":"76079"},
{"name":"Pierrefiques","latitude":"49.671","longitude":"0.233","population":"129","region":"28","departement":"76","arrondissement":"762","commune":"76501"}
]