[
{"name":"Nîmes","latitude":"43.83694","longitude":"4.36","population":"140747","region":"76","departement":"30","arrondissement":"302","commune":"30189"},
{"name":"Marguerittes","latitude":"43.86","longitude":"4.44389","population":"8666","region":"76","departement":"30","arrondissement":"302","commune":"30156"},
{"name":"Uzès","latitude":"44.0125","longitude":"4.41972","population":"8339","region":"76","departement":"30","arrondissement":"302","commune":"30334"},
{"name":"Poulx","latitude":"43.91083","longitude":"4.42361","population":"4054","region":"76","departement":"30","arrondissement":"302","commune":"30206"},
{"name":"Saint-Quentin-la-Poterie","latitude":"44.04528","longitude":"4.44111","population":"2942","region":"76","departement":"30","arrondissement":"302","commune":"30295"},
{"name":"Remoulins","latitude":"43.93944","longitude":"4.56389","population":"2405","region":"76","departement":"30","arrondissement":"302","commune":"30212"},
{"name":"Meynes","latitude":"43.8825","longitude":"4.56111","population":"2328","region":"76","departement":"30","arrondissement":"302","commune":"30166"},
{"name":"Bezouce","latitude":"43.88139","longitude":"4.49","population":"2113","region":"76","departement":"30","arrondissement":"302","commune":"30039"},
{"name":"La Calmette","latitude":"43.92389","longitude":"4.26417","population":"1942","region":"76","departement":"30","arrondissement":"302","commune":"30061"},
{"name":"Saint-Gervasy","latitude":"43.8775","longitude":"4.46861","population":"1708","region":"76","departement":"30","arrondissement":"302","commune":"30257"},
{"name":"Vers-Pont-du-Gard","latitude":"43.9686","longitude":"4.5251","population":"1696","region":"76","departement":"30","arrondissement":"302","commune":"30346"},
{"name":"Sainte-Anastasie","latitude":"43.9353","longitude":"4.3226","population":"1642","region":"76","departement":"30","arrondissement":"302","commune":"30228"},
{"name":"Saint-Chaptes","latitude":"43.97083","longitude":"4.27917","population":"1604","region":"76","departement":"30","arrondissement":"302","commune":"30241"},
{"name":"Sernhac","latitude":"43.91139","longitude":"4.55194","population":"1578","region":"76","departement":"30","arrondissement":"302","commune":"30317"},
{"name":"Montaren-et-Saint-Médiers","latitude":"44.03","longitude":"4.37972","population":"1454","region":"76","departement":"30","arrondissement":"302","commune":"30174"},
{"name":"Lédenon","latitude":"43.91528","longitude":"4.50917","population":"1380","region":"76","departement":"30","arrondissement":"302","commune":"30145"},
{"name":"Castillon-du-Gard","latitude":"43.97","longitude":"4.55472","population":"1379","region":"76","departement":"30","arrondissement":"302","commune":"30073"},
{"name":"Cabrières","latitude":"43.90472","longitude":"4.47167","population":"1324","region":"76","departement":"30","arrondissement":"302","commune":"30057"},
{"name":"Moussac","latitude":"43.98111","longitude":"4.22944","population":"1212","region":"76","departement":"30","arrondissement":"302","commune":"30184"},
{"name":"Blauzac","latitude":"43.96333","longitude":"4.36889","population":"1105","region":"76","departement":"30","arrondissement":"302","commune":"30041"},
{"name":"Saint-Siffret","latitude":"44.01667","longitude":"4.46667","population":"1011","region":"76","departement":"30","arrondissement":"302","commune":"30299"},
{"name":"Arpaillargues-et-Aureillac","latitude":"44.00056","longitude":"4.3725","population":"1011","region":"76","departement":"30","arrondissement":"302","commune":"30014"},
{"name":"Collias","latitude":"43.95389","longitude":"4.47694","population":"1002","region":"76","departement":"30","arrondissement":"302","commune":"30085"},
{"name":"Sanilhac-Sagriès","latitude":"43.9551","longitude":"4.4252","population":"851","region":"76","departement":"30","arrondissement":"302","commune":"30308"},
{"name":"Garrigues-Sainte-Eulalie","latitude":"43.9929","longitude":"4.3154","population":"736","region":"76","departement":"30","arrondissement":"302","commune":"30126"},
{"name":"Saint-Bonnet-du-Gard","latitude":"43.92694","longitude":"4.54528","population":"721","region":"76","departement":"30","arrondissement":"302","commune":"30235"},
{"name":"Saint-Maximin","latitude":"43.99389","longitude":"4.45083","population":"664","region":"76","departement":"30","arrondissement":"302","commune":"30286"},
{"name":"Saint-Maurice-de-Cazevieille","latitude":"44.03194","longitude":"4.23278","population":"653","region":"76","departement":"30","arrondissement":"301","commune":"30285"},
{"name":"La Rouvière","latitude":"43.93111","longitude":"4.23528","population":"631","region":"76","departement":"30","arrondissement":"302","commune":"30224"},
{"name":"Dions","latitude":"43.93139","longitude":"4.29694","population":"575","region":"76","departement":"30","arrondissement":"302","commune":"30102"},
{"name":"Collorgues","latitude":"44.00472","longitude":"4.29139","population":"541","region":"76","departement":"30","arrondissement":"302","commune":"30086"},
{"name":"Serviers-et-Labaume","latitude":"44.0379","longitude":"4.3559","population":"526","region":"76","departement":"30","arrondissement":"302","commune":"30319"},
{"name":"Aigaliers","latitude":"44.05944","longitude":"4.32028","population":"480","region":"76","departement":"30","arrondissement":"302","commune":"30001"},
{"name":"Euzet","latitude":"44.07583","longitude":"4.23417","population":"400","region":"76","departement":"30","arrondissement":"301","commune":"30109"},
{"name":"La Capelle-et-Masmolène","latitude":"44.05167","longitude":"4.5325","population":"396","region":"76","departement":"30","arrondissement":"302","commune":"30067"},
{"name":"Castelnau-Valence","latitude":"44.0091","longitude":"4.2524","population":"382","region":"76","departement":"30","arrondissement":"301","commune":"30072"},
{"name":"Saint-Dézéry","latitude":"44.00111","longitude":"4.26972","population":"380","region":"76","departement":"30","arrondissement":"302","commune":"30248"},
{"name":"Vallabrix","latitude":"44.06139","longitude":"4.47861","population":"375","region":"76","departement":"30","arrondissement":"302","commune":"30337"},
{"name":"Foissac","latitude":"44.04306","longitude":"4.29806","population":"370","region":"76","departement":"30","arrondissement":"302","commune":"30111"},
{"name":"Bourdic","latitude":"43.98333","longitude":"4.33083","population":"355","region":"76","departement":"30","arrondissement":"302","commune":"30049"},
{"name":"Argilliers","latitude":"43.97972","longitude":"4.49528","population":"354","region":"76","departement":"30","arrondissement":"302","commune":"30013"},
{"name":"Aubussargues","latitude":"44.00722","longitude":"4.325","population":"350","region":"76","departement":"30","arrondissement":"302","commune":"30021"},
{"name":"Baron","latitude":"44.0496","longitude":"4.2812","population":"327","region":"76","departement":"30","arrondissement":"302","commune":"30030"},
{"name":"Flaux","latitude":"44.02056","longitude":"4.50361","population":"322","region":"76","departement":"30","arrondissement":"302","commune":"30110"},
{"name":"Saint-Victor-des-Oules","latitude":"44.04194","longitude":"4.48389","population":"277","region":"76","departement":"30","arrondissement":"302","commune":"30301"},
{"name":"Belvézet","latitude":"44.08472","longitude":"4.365","population":"243","region":"76","departement":"30","arrondissement":"302","commune":"30035"},
{"name":"Saint-Hippolyte-de-Montaigu","latitude":"44.03222","longitude":"4.49278","population":"240","region":"76","departement":"30","arrondissement":"302","commune":"30262"},
{"name":"Saint-Jean-de-Ceyrargues","latitude":"44.05139","longitude":"4.22694","population":"158","region":"76","departement":"30","arrondissement":"301","commune":"30264"}
]