[
{"name":"Valenciennes","latitude":"50.35917","longitude":"3.525","population":"42649","region":"32","departement":"59","arrondissement":"596","commune":"59606"},
{"name":"Bruay-sur-l'Escaut","latitude":"50.3982","longitude":"3.5405","population":"12238","region":"32","departement":"59","arrondissement":"596","commune":"59112"},
{"name":"Marly","latitude":"50.34889","longitude":"3.54417","population":"11983","region":"32","departement":"59","arrondissement":"596","commune":"59383"},
{"name":"Saint-Saulve","latitude":"50.36972","longitude":"3.55472","population":"11059","region":"32","departement":"59","arrondissement":"596","commune":"59544"},
{"name":"Vieux-Condé","latitude":"50.45944","longitude":"3.56833","population":"10529","region":"32","departement":"59","arrondissement":"596","commune":"59616"},
{"name":"Condé-sur-l'Escaut","latitude":"50.44917","longitude":"3.59056","population":"9720","region":"32","departement":"59","arrondissement":"596","commune":"59153"},
{"name":"Onnaing","latitude":"50.38778","longitude":"3.59806","population":"8708","region":"32","departement":"59","arrondissement":"596","commune":"59447"},
{"name":"Fresnes-sur-Escaut","latitude":"50.43361","longitude":"3.57694","population":"7700","region":"32","departement":"59","arrondissement":"596","commune":"59253"},
{"name":"Aulnoy-lez-Valenciennes","latitude":"50.3316","longitude":"3.5306","population":"7301","region":"32","departement":"59","arrondissement":"596","commune":"59032"},
{"name":"Quiévrechain","latitude":"50.39528","longitude":"3.66694","population":"5843","region":"32","departement":"59","arrondissement":"596","commune":"59484"},
{"name":"Crespin","latitude":"50.42","longitude":"3.66139","population":"4458","region":"32","departement":"59","arrondissement":"596","commune":"59160"},
{"name":"Hergnies","latitude":"50.47444","longitude":"3.52194","population":"4246","region":"32","departement":"59","arrondissement":"596","commune":"59301"},
{"name":"Escautpont","latitude":"50.42444","longitude":"3.55861","population":"4194","region":"32","departement":"59","arrondissement":"596","commune":"59207"},
{"name":"Bavay","latitude":"50.2975","longitude":"3.79806","population":"3520","region":"32","departement":"59","arrondissement":"591","commune":"59053"},
{"name":"Quarouble","latitude":"50.38889","longitude":"3.62306","population":"3120","region":"32","departement":"59","arrondissement":"596","commune":"59479"},
{"name":"Famars","latitude":"50.31556","longitude":"3.51917","population":"2531","region":"32","departement":"59","arrondissement":"596","commune":"59221"},
{"name":"Saultain","latitude":"50.33778","longitude":"3.57611","population":"2037","region":"32","departement":"59","arrondissement":"596","commune":"59557"},
{"name":"Préseau","latitude":"50.31083","longitude":"3.57417","population":"1895","region":"32","departement":"59","arrondissement":"596","commune":"59471"},
{"name":"Sebourg","latitude":"50.34222","longitude":"3.64667","population":"1866","region":"32","departement":"59","arrondissement":"596","commune":"59559"},
{"name":"Bruille-Saint-Amand","latitude":"50.4549","longitude":"3.5198","population":"1575","region":"32","departement":"59","arrondissement":"596","commune":"59114"},
{"name":"Vicq","latitude":"50.40861","longitude":"3.605","population":"1415","region":"32","departement":"59","arrondissement":"596","commune":"59613"},
{"name":"Curgies","latitude":"50.32944","longitude":"3.60306","population":"1111","region":"32","departement":"59","arrondissement":"596","commune":"59166"},
{"name":"Jenlain","latitude":"50.31222","longitude":"3.62944","population":"1067","region":"32","departement":"59","arrondissement":"591","commune":"59323"},
{"name":"Wargnies-le-Grand","latitude":"50.30806","longitude":"3.66028","population":"1062","region":"32","departement":"59","arrondissement":"591","commune":"59639"},
{"name":"Artres","latitude":"50.29333","longitude":"3.54028","population":"1040","region":"32","departement":"59","arrondissement":"596","commune":"59019"},
{"name":"Estreux","latitude":"50.35083","longitude":"3.59417","population":"947","region":"32","departement":"59","arrondissement":"596","commune":"59215"},
{"name":"Odomez","latitude":"50.45556","longitude":"3.5375","population":"922","region":"32","departement":"59","arrondissement":"596","commune":"59444"},
{"name":"Taisnières-sur-Hon","latitude":"50.31889","longitude":"3.83583","population":"913","region":"32","departement":"59","arrondissement":"591","commune":"59584"},
{"name":"Bellignies","latitude":"50.32861","longitude":"3.76917","population":"905","region":"32","departement":"59","arrondissement":"591","commune":"59065"},
{"name":"Maresches","latitude":"50.29306","longitude":"3.57667","population":"901","region":"32","departement":"59","arrondissement":"591","commune":"59381"},
{"name":"Houdain-lez-Bavay","latitude":"50.31401","longitude":"3.78342","population":"857","region":"32","departement":"59","arrondissement":"591","commune":"59315"},
{"name":"Hon-Hergies","latitude":"50.32651","longitude":"3.81912","population":"833","region":"32","departement":"59","arrondissement":"591","commune":"59310"},
{"name":"Thivencelle","latitude":"50.44167","longitude":"3.63667","population":"794","region":"32","departement":"59","arrondissement":"596","commune":"59591"},
{"name":"Wargnies-le-Petit","latitude":"50.29528","longitude":"3.67389","population":"791","region":"32","departement":"59","arrondissement":"591","commune":"59640"},
{"name":"Rombies-et-Marchipont","latitude":"50.36556","longitude":"3.64611","population":"749","region":"32","departement":"59","arrondissement":"596","commune":"59505"},
{"name":"Saint-Waast","latitude":"50.3046","longitude":"3.7484","population":"608","region":"32","departement":"59","arrondissement":"591","commune":"59548"},
{"name":"La Flamengrie","latitude":"50.31528","longitude":"3.71639","population":"436","region":"32","departement":"59","arrondissement":"591","commune":"59232"},
{"name":"Bry","latitude":"50.31806","longitude":"3.67944","population":"364","region":"32","departement":"59","arrondissement":"591","commune":"59116"},
{"name":"Saint-Aybert","latitude":"50.44833","longitude":"3.65417","population":"359","region":"32","departement":"59","arrondissement":"596","commune":"59530"},
{"name":"Gussignies","latitude":"50.3375","longitude":"3.74139","population":"346","region":"32","departement":"59","arrondissement":"591","commune":"59277"},
{"name":"Eth","latitude":"50.32583","longitude":"3.66806","population":"330","region":"32","departement":"59","arrondissement":"591","commune":"59217"},
{"name":"Bettrechies","latitude":"50.32444","longitude":"3.74389","population":"245","region":"32","departement":"59","arrondissement":"591","commune":"59077"}
]