[
{"name":"Bernay","latitude":"49.0887","longitude":"0.5993","population":"10285","region":"28","departement":"27","arrondissement":"272","commune":"27056"},
{"name":"Orbec","latitude":"49.0221","longitude":"0.4076","population":"2381","region":"28","departement":"14","arrondissement":"143","commune":"14478"},
{"name":"Thiberville","latitude":"49.13778","longitude":"0.455","population":"1761","region":"28","departement":"27","arrondissement":"272","commune":"27629"},
{"name":"Menneval","latitude":"49.09722","longitude":"0.62389","population":"1461","region":"28","departement":"27","arrondissement":"272","commune":"27398"},
{"name":"Broglie","latitude":"49.00905","longitude":"0.52855","population":"1110","region":"28","departement":"27","arrondissement":"272","commune":"27117"},
{"name":"La Vespière-Friardel","latitude":"49.01119","longitude":"0.42475","population":"957","region":"28","departement":"14","arrondissement":"143","commune":"14740"},
{"name":"Saint-Aubin-le-Vertueux","latitude":"49.05056","longitude":"0.60611","population":"883","region":"28","departement":"27","arrondissement":"272","commune":"27516"},
{"name":"Saint-Germain-la-Campagne","latitude":"49.04833","longitude":"0.40556","population":"837","region":"28","departement":"27","arrondissement":"272","commune":"27547"},
{"name":"Montreuil-l'Argillé","latitude":"48.93947","longitude":"0.48057","population":"794","region":"28","departement":"27","arrondissement":"272","commune":"27414"},
{"name":"Courbépine","latitude":"49.12694","longitude":"0.56111","population":"688","region":"28","departement":"27","arrondissement":"272","commune":"27179"},
{"name":"Marolles","latitude":"49.13833","longitude":"0.37222","population":"675","region":"28","departement":"14","arrondissement":"143","commune":"14403"},
{"name":"Plasnes","latitude":"49.13639","longitude":"0.62417","population":"653","region":"28","departement":"27","arrondissement":"272","commune":"27463"},
{"name":"Courtonne-les-Deux-Églises","latitude":"49.0851","longitude":"0.3716","population":"625","region":"28","departement":"14","arrondissement":"143","commune":"14194"},
{"name":"Drucourt","latitude":"49.11583","longitude":"0.46528","population":"608","region":"28","departement":"27","arrondissement":"272","commune":"27207"},
{"name":"Fontaine-l'Abbé","latitude":"49.09111","longitude":"0.69306","population":"596","region":"28","departement":"27","arrondissement":"272","commune":"27251"},
{"name":"Caorches-Saint-Nicolas","latitude":"49.0833","longitude":"0.5525","population":"582","region":"28","departement":"27","arrondissement":"272","commune":"27129"},
{"name":"Saint-Martin-de-Bienfaite-la-Cressonnière","latitude":"49.0455","longitude":"0.3626","population":"492","region":"28","departement":"14","arrondissement":"143","commune":"14621"},
{"name":"Saint-Victor-de-Chrétienville","latitude":"49.07361","longitude":"0.51694","population":"447","region":"28","departement":"27","arrondissement":"272","commune":"27608"},
{"name":"Grand-Camp","latitude":"49.04528","longitude":"0.52694","population":"446","region":"28","departement":"27","arrondissement":"272","commune":"27295"},
{"name":"Saint-Léger-de-Rôtes","latitude":"49.10972","longitude":"0.64806","population":"415","region":"28","departement":"27","arrondissement":"272","commune":"27557"},
{"name":"Ferrières-Saint-Hilaire","latitude":"49.03333","longitude":"0.56667","population":"397","region":"28","departement":"27","arrondissement":"272","commune":"27239"},
{"name":"Bournainville-Faverolles","latitude":"49.1274","longitude":"0.4886","population":"396","region":"28","departement":"27","arrondissement":"272","commune":"27106"},
{"name":"Capelle-les-Grands","latitude":"49.0464","longitude":"0.4751","population":"396","region":"28","departement":"27","arrondissement":"272","commune":"27130"},
{"name":"La Chapelle-Gauthier","latitude":"48.98664","longitude":"0.46143","population":"382","region":"28","departement":"27","arrondissement":"272","commune":"27148"},
{"name":"Valailles","latitude":"49.12164","longitude":"0.60073","population":"379","region":"28","departement":"27","arrondissement":"272","commune":"27667"},
{"name":"Chamblac","latitude":"48.98833","longitude":"0.54444","population":"365","region":"28","departement":"27","arrondissement":"272","commune":"27138"},
{"name":"Saint-Aubin-du-Thenney","latitude":"49.0202","longitude":"0.49001","population":"356","region":"28","departement":"27","arrondissement":"272","commune":"27514"},
{"name":"Saint-Mards-de-Fresne","latitude":"49.07306","longitude":"0.46361","population":"346","region":"28","departement":"27","arrondissement":"272","commune":"27564"},
{"name":"Saint-Clair-d'Arcey","latitude":"49.06444","longitude":"0.66306","population":"323","region":"28","departement":"27","arrondissement":"272","commune":"27523"},
{"name":"L'Hôtellerie","latitude":"49.14167","longitude":"0.40611","population":"310","region":"28","departement":"14","arrondissement":"143","commune":"14334"},
{"name":"Saint-Vincent-du-Boulay","latitude":"49.10306","longitude":"0.48972","population":"307","region":"28","departement":"27","arrondissement":"272","commune":"27613"},
{"name":"Carsix","latitude":"49.13778","longitude":"0.66917","population":"254","region":"28","departement":"27","arrondissement":"272","commune":"27131"},
{"name":"La Trinité-de-Réville","latitude":"48.97028","longitude":"0.51361","population":"253","region":"28","departement":"27","arrondissement":"272","commune":"27660"},
{"name":"Saint-Martin-du-Tilleul","latitude":"49.10972","longitude":"0.53083","population":"240","region":"28","departement":"27","arrondissement":"272","commune":"27569"},
{"name":"Saint-Quentin-des-Isles","latitude":"49.04944","longitude":"0.57861","population":"237","region":"28","departement":"27","arrondissement":"272","commune":"27600"},
{"name":"Saint-Pierre-de-Cernières","latitude":"48.94556","longitude":"0.51556","population":"233","region":"28","departement":"27","arrondissement":"272","commune":"27590"},
{"name":"Saint-Jean-du-Thenney","latitude":"49.01444","longitude":"0.465","population":"210","region":"28","departement":"27","arrondissement":"272","commune":"27552"},
{"name":"Plainville","latitude":"49.08472","longitude":"0.49917","population":"192","region":"28","departement":"27","arrondissement":"272","commune":"27460"},
{"name":"La Goulafrière","latitude":"48.9499","longitude":"0.43628","population":"173","region":"28","departement":"27","arrondissement":"272","commune":"27289"},
{"name":"Saint-Germain-d'Aunay","latitude":"48.92556","longitude":"0.37944","population":"173","region":"28","departement":"61","arrondissement":"612","commune":"61392"},
{"name":"Bois-Anzeray","latitude":"48.92611","longitude":"0.68556","population":"170","region":"28","departement":"27","arrondissement":"273","commune":"27068"},
{"name":"Duranville","latitude":"49.149","longitude":"0.5102","population":"163","region":"28","departement":"27","arrondissement":"272","commune":"27208"},
{"name":"Saint-Aubin-de-Bonneval","latitude":"48.94128","longitude":"0.37834","population":"158","region":"28","departement":"61","arrondissement":"612","commune":"61366"},
{"name":"La Folletière-Abenon","latitude":"48.98222","longitude":"0.42389","population":"154","region":"28","departement":"14","arrondissement":"143","commune":"14273"},
{"name":"Le Planquay","latitude":"49.09667","longitude":"0.43056","population":"147","region":"28","departement":"27","arrondissement":"272","commune":"27462"},
{"name":"Cordebugle","latitude":"49.11111","longitude":"0.37972","population":"137","region":"28","departement":"14","arrondissement":"143","commune":"14179"},
{"name":"Saint-Agnan-de-Cernières","latitude":"48.95379","longitude":"0.51627","population":"136","region":"28","departement":"27","arrondissement":"272","commune":"27505"},
{"name":"Malouy","latitude":"49.12889","longitude":"0.52111","population":"130","region":"28","departement":"27","arrondissement":"272","commune":"27381"},
{"name":"Saint-Denis-d'Augerons","latitude":"48.92556","longitude":"0.47389","population":"84","region":"28","departement":"27","arrondissement":"272","commune":"27530"},
{"name":"La Chapelle-Hareng","latitude":"49.11389","longitude":"0.415","population":"83","region":"28","departement":"27","arrondissement":"272","commune":"27149"},
{"name":"Les Places","latitude":"49.1526","longitude":"0.4148","population":"76","region":"28","departement":"27","arrondissement":"272","commune":"27459"}
]