[
{"name":"Vitré","latitude":"48.12333","longitude":"-1.20944","population":"16712","region":"53","departement":"35","arrondissement":"351","commune":"35360"},
{"name":"Châteaubourg","latitude":"48.11111","longitude":"-1.40333","population":"5966","region":"53","departement":"35","arrondissement":"351","commune":"35068"},
{"name":"Argentré-du-Plessis","latitude":"48.05722","longitude":"-1.15389","population":"4185","region":"53","departement":"35","arrondissement":"351","commune":"35006"},
{"name":"Étrelles","latitude":"48.06028","longitude":"-1.19361","population":"2546","region":"53","departement":"35","arrondissement":"351","commune":"35109"},
{"name":"Val-d'Izé","latitude":"48.17722","longitude":"-1.30472","population":"2452","region":"53","departement":"35","arrondissement":"351","commune":"35347"},
{"name":"Domagné","latitude":"48.0708","longitude":"-1.3906","population":"2136","region":"53","departement":"35","arrondissement":"351","commune":"35096"},
{"name":"Balazé","latitude":"48.16889","longitude":"-1.19167","population":"2125","region":"53","departement":"35","arrondissement":"351","commune":"35015"},
{"name":"Bais","latitude":"48.01056","longitude":"-1.29056","population":"2082","region":"53","departement":"35","arrondissement":"351","commune":"35014"},
{"name":"Domalain","latitude":"47.99611","longitude":"-1.24167","population":"1929","region":"53","departement":"35","arrondissement":"351","commune":"35097"},
{"name":"Saint-Didier","latitude":"48.09472","longitude":"-1.37167","population":"1740","region":"53","departement":"35","arrondissement":"351","commune":"35264"},
{"name":"Louvigné-de-Bais","latitude":"48.04861","longitude":"-1.33056","population":"1722","region":"53","departement":"35","arrondissement":"351","commune":"35161"},
{"name":"Erbrée","latitude":"48.09889","longitude":"-1.12444","population":"1665","region":"53","departement":"35","arrondissement":"351","commune":"35105"},
{"name":"Livré-sur-Changeon","latitude":"48.21889","longitude":"-1.34333","population":"1612","region":"53","departement":"35","arrondissement":"353","commune":"35154"},
{"name":"Saint-M'Hervé","latitude":"48.17861","longitude":"-1.11611","population":"1372","region":"53","departement":"35","arrondissement":"351","commune":"35300"},
{"name":"Torcé","latitude":"48.06167","longitude":"-1.26583","population":"1145","region":"53","departement":"35","arrondissement":"351","commune":"35338"},
{"name":"Montreuil-sous-Pérouse","latitude":"48.15083","longitude":"-1.23667","population":"1069","region":"53","departement":"35","arrondissement":"351","commune":"35194"},
{"name":"Saint-Jean-sur-Vilaine","latitude":"48.11694","longitude":"-1.36083","population":"1056","region":"53","departement":"35","arrondissement":"351","commune":"35283"},
{"name":"Pocé-les-Bois","latitude":"48.11667","longitude":"-1.25","population":"1037","region":"53","departement":"35","arrondissement":"351","commune":"35229"},
{"name":"Marpiré","latitude":"48.14306","longitude":"-1.33972","population":"1032","region":"53","departement":"35","arrondissement":"351","commune":"35166"},
{"name":"Dourdain","latitude":"48.19306","longitude":"-1.37","population":"1026","region":"53","departement":"35","arrondissement":"353","commune":"35101"},
{"name":"Taillis","latitude":"48.18889","longitude":"-1.23889","population":"985","region":"53","departement":"35","arrondissement":"351","commune":"35330"},
{"name":"Saint-Aubin-des-Landes","latitude":"48.09417","longitude":"-1.29528","population":"908","region":"53","departement":"35","arrondissement":"351","commune":"35252"},
{"name":"Saint-Germain-du-Pinel","latitude":"48.01222","longitude":"-1.16611","population":"857","region":"53","departement":"35","arrondissement":"351","commune":"35272"},
{"name":"Cornillé","latitude":"48.08028","longitude":"-1.30694","population":"827","region":"53","departement":"35","arrondissement":"351","commune":"35087"},
{"name":"Mondevert","latitude":"48.08417","longitude":"-1.09889","population":"775","region":"53","departement":"35","arrondissement":"351","commune":"35183"},
{"name":"Vergéal","latitude":"48.03583","longitude":"-1.26583","population":"726","region":"53","departement":"35","arrondissement":"351","commune":"35350"},
{"name":"Brielles","latitude":"48.00861","longitude":"-1.09056","population":"661","region":"53","departement":"35","arrondissement":"351","commune":"35042"},
{"name":"Moulins","latitude":"48.0025","longitude":"-1.37222","population":"654","region":"53","departement":"35","arrondissement":"351","commune":"35198"},
{"name":"La Croixille","latitude":"48.205","longitude":"-1.05583","population":"650","region":"52","departement":"53","arrondissement":"532","commune":"53086"},
{"name":"Bréal-sous-Vitré","latitude":"48.10306","longitude":"-1.06111","population":"644","region":"53","departement":"35","arrondissement":"351","commune":"35038"},
{"name":"La Chapelle-Erbrée","latitude":"48.14111","longitude":"-1.10056","population":"628","region":"53","departement":"35","arrondissement":"351","commune":"35061"},
{"name":"Bourgon","latitude":"48.16667","longitude":"-1.06667","population":"622","region":"52","departement":"53","arrondissement":"532","commune":"53040"},
{"name":"Landavran","latitude":"48.15889","longitude":"-1.28944","population":"585","region":"53","departement":"35","arrondissement":"351","commune":"35141"},
{"name":"Champeaux","latitude":"48.14722","longitude":"-1.31111","population":"471","region":"53","departement":"35","arrondissement":"351","commune":"35052"},
{"name":"Princé","latitude":"48.21639","longitude":"-1.08833","population":"368","region":"53","departement":"35","arrondissement":"351","commune":"35232"},
{"name":"Chancé","latitude":"48.03583","longitude":"-1.38","population":"303","region":"53","departement":"35","arrondissement":"353","commune":"35053"},
{"name":"Montautour","latitude":"48.20389","longitude":"-1.14694","population":"251","region":"53","departement":"35","arrondissement":"351","commune":"35185"}
]