[
{"name":"Capavenir Vosges","latitude":"48.25056","longitude":"6.42","population":"8028","region":"44","departement":"88","arrondissement":"881","commune":"88465"},
{"name":"Rambervillers","latitude":"48.34583","longitude":"6.63472","population":"5633","region":"44","departement":"88","arrondissement":"881","commune":"88367"},
{"name":"Vincey","latitude":"48.33694","longitude":"6.32861","population":"2273","region":"44","departement":"88","arrondissement":"881","commune":"88513"},
{"name":"Nomexy","latitude":"48.30639","longitude":"6.385","population":"2191","region":"44","departement":"88","arrondissement":"881","commune":"88327"},
{"name":"Châtel-sur-Moselle","latitude":"48.3147","longitude":"6.3935","population":"1661","region":"44","departement":"88","arrondissement":"881","commune":"88094"},
{"name":"Chavelot","latitude":"48.23722","longitude":"6.43694","population":"1506","region":"44","departement":"88","arrondissement":"881","commune":"88099"},
{"name":"Portieux","latitude":"48.34389","longitude":"6.34472","population":"1321","region":"44","departement":"88","arrondissement":"881","commune":"88355"},
{"name":"Igney","latitude":"48.27472","longitude":"6.39556","population":"1143","region":"44","departement":"88","arrondissement":"881","commune":"88247"},
{"name":"Grandvillers","latitude":"48.23917","longitude":"6.66056","population":"696","region":"44","departement":"88","arrondissement":"881","commune":"88216"},
{"name":"Vaxoncourt","latitude":"48.29083","longitude":"6.41139","population":"493","region":"44","departement":"88","arrondissement":"881","commune":"88497"},
{"name":"Padoux","latitude":"48.28","longitude":"6.56972","population":"488","region":"44","departement":"88","arrondissement":"881","commune":"88340"},
{"name":"Villacourt","latitude":"48.45583","longitude":"6.34917","population":"470","region":"44","departement":"54","arrondissement":"542","commune":"54567"},
{"name":"Sainte-Hélène","latitude":"48.29028","longitude":"6.65667","population":"465","region":"44","departement":"88","arrondissement":"881","commune":"88418"},
{"name":"Frizon","latitude":"48.2859","longitude":"6.3638","population":"440","region":"44","departement":"88","arrondissement":"881","commune":"88190"},
{"name":"Moriville","latitude":"48.34833","longitude":"6.43139","population":"440","region":"44","departement":"88","arrondissement":"881","commune":"88313"},
{"name":"Roville-aux-Chênes","latitude":"48.385","longitude":"6.60333","population":"414","region":"44","departement":"88","arrondissement":"881","commune":"88402"},
{"name":"Longchamp","latitude":"48.22472","longitude":"6.51333","population":"410","region":"44","departement":"88","arrondissement":"881","commune":"88273"},
{"name":"Hadigny-les-Verrières","latitude":"48.32222","longitude":"6.46111","population":"395","region":"44","departement":"88","arrondissement":"881","commune":"88224"},
{"name":"Saint-Gorgon","latitude":"48.32417","longitude":"6.64833","population":"385","region":"44","departement":"88","arrondissement":"881","commune":"88417"},
{"name":"Romont","latitude":"48.35667","longitude":"6.58611","population":"345","region":"44","departement":"88","arrondissement":"881","commune":"88395"},
{"name":"Magnières","latitude":"48.44556","longitude":"6.56556","population":"341","region":"44","departement":"54","arrondissement":"542","commune":"54331"},
{"name":"Rehaincourt","latitude":"48.36194","longitude":"6.46917","population":"340","region":"44","departement":"88","arrondissement":"881","commune":"88379"},
{"name":"Domptail","latitude":"48.44667","longitude":"6.61611","population":"329","region":"44","departement":"88","arrondissement":"881","commune":"88153"},
{"name":"Girecourt-sur-Durbion","latitude":"48.24694","longitude":"6.6","population":"310","region":"44","departement":"88","arrondissement":"881","commune":"88203"},
{"name":"Bult","latitude":"48.29389","longitude":"6.60528","population":"309","region":"44","departement":"88","arrondissement":"881","commune":"88080"},
{"name":"Fontenoy-la-Joûte","latitude":"48.45556","longitude":"6.65944","population":"294","region":"44","departement":"54","arrondissement":"542","commune":"54201"},
{"name":"Dompierre","latitude":"48.25278","longitude":"6.56389","population":"288","region":"44","departement":"88","arrondissement":"881","commune":"88152"},
{"name":"Bayecourt","latitude":"48.26639","longitude":"6.48833","population":"284","region":"44","departement":"88","arrondissement":"881","commune":"88040"},
{"name":"Damas-aux-Bois","latitude":"48.39806","longitude":"6.45194","population":"273","region":"44","departement":"88","arrondissement":"881","commune":"88121"},
{"name":"Sercœur","latitude":"48.25472","longitude":"6.5325","population":"265","region":"44","departement":"88","arrondissement":"881","commune":"88454"},
{"name":"Vomécourt","latitude":"48.3084","longitude":"6.614","population":"259","region":"44","departement":"88","arrondissement":"881","commune":"88521"},
{"name":"Domèvre-sur-Durbion","latitude":"48.28528","longitude":"6.47083","population":"255","region":"44","departement":"88","arrondissement":"881","commune":"88143"},
{"name":"Mazeley","latitude":"48.24194","longitude":"6.33861","population":"255","region":"44","departement":"88","arrondissement":"881","commune":"88294"},
{"name":"Destord","latitude":"48.27278","longitude":"6.62139","population":"231","region":"44","departement":"88","arrondissement":"881","commune":"88130"},
{"name":"Moyemont","latitude":"48.35083","longitude":"6.53889","population":"220","region":"44","departement":"88","arrondissement":"881","commune":"88318"},
{"name":"Clézentaine","latitude":"48.40861","longitude":"6.53889","population":"218","region":"44","departement":"88","arrondissement":"881","commune":"88110"},
{"name":"Viménil","latitude":"48.22667","longitude":"6.6325","population":"206","region":"44","departement":"88","arrondissement":"881","commune":"88512"},
{"name":"Gugnécourt","latitude":"48.24417","longitude":"6.62361","population":"188","region":"44","departement":"88","arrondissement":"881","commune":"88222"},
{"name":"Dignonville","latitude":"48.24361","longitude":"6.50556","population":"184","region":"44","departement":"88","arrondissement":"881","commune":"88133"},
{"name":"Saint-Maurice-sur-Mortagne","latitude":"48.38667","longitude":"6.58361","population":"182","region":"44","departement":"88","arrondissement":"881","commune":"88425"},
{"name":"Rozelieures","latitude":"48.45056","longitude":"6.43444","population":"175","region":"44","departement":"54","arrondissement":"542","commune":"54467"},
{"name":"Anglemont","latitude":"48.38","longitude":"6.66889","population":"173","region":"44","departement":"88","arrondissement":"881","commune":"88008"},
{"name":"Vaudéville","latitude":"48.22972","longitude":"6.54222","population":"170","region":"44","departement":"88","arrondissement":"881","commune":"88495"},
{"name":"Haillainville","latitude":"48.39278","longitude":"6.48194","population":"165","region":"44","departement":"88","arrondissement":"881","commune":"88228"},
{"name":"Pallegney","latitude":"48.29361","longitude":"6.44472","population":"162","region":"44","departement":"88","arrondissement":"881","commune":"88342"},
{"name":"Pierrepont-sur-l'Arentèle","latitude":"48.26333","longitude":"6.64889","population":"161","region":"44","departement":"88","arrondissement":"881","commune":"88348"},
{"name":"Xaffévillers","latitude":"48.40917","longitude":"6.61194","population":"158","region":"44","departement":"88","arrondissement":"881","commune":"88527"},
{"name":"Saint-Pierremont","latitude":"48.43778","longitude":"6.57667","population":"156","region":"44","departement":"88","arrondissement":"881","commune":"88432"},
{"name":"Saint-Germain","latitude":"48.43111","longitude":"6.33889","population":"150","region":"44","departement":"54","arrondissement":"542","commune":"54475"},
{"name":"Doncières","latitude":"48.39389","longitude":"6.63583","population":"149","region":"44","departement":"88","arrondissement":"881","commune":"88156"},
{"name":"Badménil-aux-Bois","latitude":"48.30222","longitude":"6.51917","population":"133","region":"44","departement":"88","arrondissement":"881","commune":"88027"},
{"name":"Saint-Genest","latitude":"48.35444","longitude":"6.52444","population":"125","region":"44","departement":"88","arrondissement":"881","commune":"88416"},
{"name":"Fauconcourt","latitude":"48.37306","longitude":"6.54056","population":"121","region":"44","departement":"88","arrondissement":"881","commune":"88168"},
{"name":"Villoncourt","latitude":"48.26278","longitude":"6.51111","population":"108","region":"44","departement":"88","arrondissement":"881","commune":"88509"},
{"name":"Seranville","latitude":"48.45778","longitude":"6.51667","population":"100","region":"44","departement":"54","arrondissement":"542","commune":"54501"},
{"name":"Nossoncourt","latitude":"48.39917","longitude":"6.67222","population":"99","region":"44","departement":"88","arrondissement":"881","commune":"88333"},
{"name":"Borville","latitude":"48.44833","longitude":"6.39306","population":"96","region":"44","departement":"54","arrondissement":"542","commune":"54085"},
{"name":"Zincourt","latitude":"48.30806","longitude":"6.43972","population":"91","region":"44","departement":"88","arrondissement":"881","commune":"88532"},
{"name":"Bazien","latitude":"48.41139","longitude":"6.67694","population":"90","region":"44","departement":"88","arrondissement":"881","commune":"88042"},
{"name":"Essey-la-Côte","latitude":"48.42444","longitude":"6.46806","population":"88","region":"44","departement":"54","arrondissement":"542","commune":"54183"},
{"name":"Loromontzey","latitude":"48.43556","longitude":"6.3775","population":"85","region":"44","departement":"54","arrondissement":"542","commune":"54325"},
{"name":"Ortoncourt","latitude":"48.36667","longitude":"6.51194","population":"81","region":"44","departement":"88","arrondissement":"881","commune":"88338"},
{"name":"Saint-Boingt","latitude":"48.43028","longitude":"6.4375","population":"78","region":"44","departement":"54","arrondissement":"542","commune":"54471"},
{"name":"Giriviller","latitude":"48.44361","longitude":"6.48833","population":"76","region":"44","departement":"54","arrondissement":"542","commune":"54228"},
{"name":"Saint-Rémy-aux-Bois","latitude":"48.41583","longitude":"6.39333","population":"70","region":"44","departement":"54","arrondissement":"542","commune":"54487"},
{"name":"Mattexey","latitude":"48.44361","longitude":"6.51611","population":"70","region":"44","departement":"54","arrondissement":"542","commune":"54356"},
{"name":"Deinvillers","latitude":"48.4125","longitude":"6.55722","population":"64","region":"44","departement":"88","arrondissement":"881","commune":"88127"},
{"name":"Gigney","latitude":"48.23","longitude":"6.33833","population":"63","region":"44","departement":"88","arrondissement":"881","commune":"88200"},
{"name":"Ménarmont","latitude":"48.42083","longitude":"6.64306","population":"51","region":"44","departement":"88","arrondissement":"881","commune":"88298"},
{"name":"Hardancourt","latitude":"48.37806","longitude":"6.56806","population":"44","region":"44","departement":"88","arrondissement":"881","commune":"88230"},
{"name":"Nonzeville","latitude":"48.265","longitude":"6.63389","population":"43","region":"44","departement":"88","arrondissement":"881","commune":"88331"},
{"name":"Vennezey","latitude":"48.44444","longitude":"6.46833","population":"41","region":"44","departement":"54","arrondissement":"542","commune":"54561"}
]