[
{"name":"Nangis","latitude":"48.555","longitude":"3.01472","population":"7815","region":"11","departement":"77","arrondissement":"773","commune":"77327"},
{"name":"Mormant","latitude":"48.60694","longitude":"2.89","population":"4356","region":"11","departement":"77","arrondissement":"772","commune":"77317"},
{"name":"Verneuil-l'Étang","latitude":"48.6441","longitude":"2.8358","population":"3139","region":"11","departement":"77","arrondissement":"772","commune":"77493"},
{"name":"Chaumes-en-Brie","latitude":"48.66778","longitude":"2.84333","population":"2998","region":"11","departement":"77","arrondissement":"772","commune":"77107"},
{"name":"Donnemarie-Dontilly","latitude":"48.4785","longitude":"3.131","population":"2788","region":"11","departement":"77","arrondissement":"773","commune":"77159"},
{"name":"Rozay-en-Brie","latitude":"48.68333","longitude":"2.95833","population":"2715","region":"11","departement":"77","arrondissement":"773","commune":"77393"},
{"name":"La Chapelle-Gauthier","latitude":"48.55","longitude":"2.9","population":"1437","region":"11","departement":"77","arrondissement":"772","commune":"77086"},
{"name":"Jouy-le-Châtel","latitude":"48.66528","longitude":"3.12833","population":"1426","region":"11","departement":"77","arrondissement":"773","commune":"77239"},
{"name":"Courpalay","latitude":"48.64833","longitude":"2.95944","population":"1391","region":"11","departement":"77","arrondissement":"773","commune":"77135"},
{"name":"Fontenailles","latitude":"48.55333","longitude":"2.95167","population":"1056","region":"11","departement":"77","arrondissement":"772","commune":"77191"},
{"name":"Grandpuits-Bailly-Carrois","latitude":"48.5838","longitude":"2.9663","population":"977","region":"11","departement":"77","arrondissement":"772","commune":"77211"},
{"name":"Bombon","latitude":"48.57167","longitude":"2.85917","population":"957","region":"11","departement":"77","arrondissement":"772","commune":"77044"},
{"name":"La Chapelle-Rablais","latitude":"48.51111","longitude":"2.97167","population":"938","region":"11","departement":"77","arrondissement":"773","commune":"77089"},
{"name":"Pamfou","latitude":"48.4614","longitude":"2.8718","population":"936","region":"11","departement":"77","arrondissement":"772","commune":"77354"},
{"name":"Aubepierre-Ozouer-le-Repos","latitude":"48.6315","longitude":"2.8871","population":"905","region":"11","departement":"77","arrondissement":"772","commune":"77010"},
{"name":"Maison-Rouge","latitude":"48.55861","longitude":"3.15111","population":"868","region":"11","departement":"77","arrondissement":"773","commune":"77272"},
{"name":"Saint-Ouen-en-Brie","latitude":"48.55778","longitude":"2.91806","population":"846","region":"11","departement":"77","arrondissement":"772","commune":"77428"},
{"name":"Bernay-Vilbert","latitude":"48.6765","longitude":"2.9375","population":"831","region":"11","departement":"77","arrondissement":"773","commune":"77031"},
{"name":"Vaudoy-en-Brie","latitude":"48.68861","longitude":"3.07944","population":"826","region":"11","departement":"77","arrondissement":"773","commune":"77486"},
{"name":"Pécy","latitude":"48.65583","longitude":"3.07861","population":"821","region":"11","departement":"77","arrondissement":"773","commune":"77357"},
{"name":"Rampillon","latitude":"48.55","longitude":"3.06667","population":"791","region":"11","departement":"77","arrondissement":"773","commune":"77383"},
{"name":"Quiers","latitude":"48.6075","longitude":"2.97","population":"671","region":"11","departement":"77","arrondissement":"772","commune":"77381"},
{"name":"La Croix-en-Brie","latitude":"48.5937","longitude":"3.0752","population":"664","region":"11","departement":"77","arrondissement":"773","commune":"77147"},
{"name":"Gastins","latitude":"48.62833","longitude":"3.01972","population":"654","region":"11","departement":"77","arrondissement":"773","commune":"77201"},
{"name":"Les Écrennes","latitude":"48.50333","longitude":"2.85889","population":"615","region":"11","departement":"77","arrondissement":"772","commune":"77165"},
{"name":"Villeneuve-les-Bordes","latitude":"48.48639","longitude":"3.04278","population":"590","region":"11","departement":"77","arrondissement":"773","commune":"77509"},
{"name":"Voinsles","latitude":"48.69083","longitude":"3.00472","population":"577","region":"11","departement":"77","arrondissement":"773","commune":"77527"},
{"name":"Gurcy-le-Châtel","latitude":"48.47083","longitude":"3.08694","population":"550","region":"11","departement":"77","arrondissement":"773","commune":"77223"},
{"name":"Courtomer","latitude":"48.65444","longitude":"2.90222","population":"539","region":"11","departement":"77","arrondissement":"772","commune":"77138"},
{"name":"Échouboulains","latitude":"48.46389","longitude":"2.94556","population":"516","region":"11","departement":"77","arrondissement":"772","commune":"77164"},
{"name":"Mons-en-Montois","latitude":"48.48917","longitude":"3.14667","population":"473","region":"11","departement":"77","arrondissement":"773","commune":"77298"},
{"name":"Saint-Méry","latitude":"48.5775","longitude":"2.8268","population":"397","region":"11","departement":"77","arrondissement":"772","commune":"77426"},
{"name":"Argentières","latitude":"48.65361","longitude":"2.86778","population":"383","region":"11","departement":"77","arrondissement":"772","commune":"77007"},
{"name":"Bréau","latitude":"48.5613","longitude":"2.879","population":"358","region":"11","departement":"77","arrondissement":"772","commune":"77052"},
{"name":"Châteaubleau","latitude":"48.58778","longitude":"3.1075","population":"322","region":"11","departement":"77","arrondissement":"773","commune":"77098"},
{"name":"Andrezel","latitude":"48.6108","longitude":"2.8142","population":"306","region":"11","departement":"77","arrondissement":"772","commune":"77004"},
{"name":"Coutençon","latitude":"48.47111","longitude":"2.99611","population":"274","region":"11","departement":"77","arrondissement":"773","commune":"77140"},
{"name":"Fontains","latitude":"48.52639","longitude":"3.00083","population":"265","region":"11","departement":"77","arrondissement":"773","commune":"77190"},
{"name":"Clos-Fontaine","latitude":"48.6072","longitude":"3.0167","population":"255","region":"11","departement":"77","arrondissement":"772","commune":"77119"},
{"name":"Saint-Just-en-Brie","latitude":"48.6135","longitude":"3.1166","population":"251","region":"11","departement":"77","arrondissement":"773","commune":"77416"},
{"name":"Meigneux","latitude":"48.51194","longitude":"3.10361","population":"222","region":"11","departement":"77","arrondissement":"773","commune":"77286"},
{"name":"Châtillon-la-Borde","latitude":"48.53028","longitude":"2.83528","population":"218","region":"11","departement":"77","arrondissement":"772","commune":"77103"},
{"name":"Cessoy-en-Montois","latitude":"48.50472","longitude":"3.14639","population":"217","region":"11","departement":"77","arrondissement":"773","commune":"77068"},
{"name":"Beauvoir","latitude":"48.645","longitude":"2.8655","population":"194","region":"11","departement":"77","arrondissement":"772","commune":"77029"},
{"name":"Vieux-Champagne","latitude":"48.57944","longitude":"3.13778","population":"178","region":"11","departement":"77","arrondissement":"773","commune":"77496"},
{"name":"Vanvillé","latitude":"48.55528","longitude":"3.10694","population":"170","region":"11","departement":"77","arrondissement":"773","commune":"77481"},
{"name":"La Chapelle-Iger","latitude":"48.65306","longitude":"2.98833","population":"161","region":"11","departement":"77","arrondissement":"773","commune":"77087"}
]