[
{"name":"Berck","latitude":"50.4081","longitude":"1.5938","population":"15565","region":"32","departement":"62","arrondissement":"624","commune":"62108"},
{"name":"Cucq","latitude":"50.47694","longitude":"1.61861","population":"5167","region":"32","departement":"62","arrondissement":"624","commune":"62261"},
{"name":"Rang-du-Fliers","latitude":"50.4175","longitude":"1.63972","population":"4065","region":"32","departement":"62","arrondissement":"624","commune":"62688"},
{"name":"Merlimont","latitude":"50.4558","longitude":"1.6145","population":"3092","region":"32","departement":"62","arrondissement":"624","commune":"62571"},
{"name":"Verton","latitude":"50.40222","longitude":"1.64944","population":"2272","region":"32","departement":"62","arrondissement":"624","commune":"62849"},
{"name":"Groffliers","latitude":"50.38472","longitude":"1.61583","population":"1472","region":"32","departement":"62","arrondissement":"624","commune":"62390"},
{"name":"Quend","latitude":"50.31639","longitude":"1.63611","population":"1383","region":"32","departement":"80","arrondissement":"801","commune":"80649"},
{"name":"Fort-Mahon-Plage","latitude":"50.34139","longitude":"1.56861","population":"1311","region":"32","departement":"80","arrondissement":"801","commune":"80333"},
{"name":"Saint-Josse","latitude":"50.46778","longitude":"1.66472","population":"1193","region":"32","departement":"62","arrondissement":"624","commune":"62752"},
{"name":"Conchil-le-Temple","latitude":"50.3675","longitude":"1.66444","population":"1004","region":"32","departement":"62","arrondissement":"624","commune":"62233"},
{"name":"Wailly-Beaucamp","latitude":"50.41333","longitude":"1.72611","population":"986","region":"32","departement":"62","arrondissement":"624","commune":"62870"},
{"name":"Vron","latitude":"50.31306","longitude":"1.75361","population":"854","region":"32","departement":"80","arrondissement":"801","commune":"80815"},
{"name":"Attin","latitude":"50.48639","longitude":"1.74778","population":"714","region":"32","departement":"62","arrondissement":"624","commune":"62044"},
{"name":"Bréxent-Énocq","latitude":"50.51028","longitude":"1.72944","population":"655","region":"32","departement":"62","arrondissement":"624","commune":"62176"},
{"name":"Sorrus","latitude":"50.45889","longitude":"1.7225","population":"632","region":"32","departement":"62","arrondissement":"624","commune":"62799"},
{"name":"La Calotterie","latitude":"50.4765","longitude":"1.7279","population":"630","region":"32","departement":"62","arrondissement":"624","commune":"62196"},
{"name":"Campigneulles-les-Petites","latitude":"50.44528","longitude":"1.73361","population":"587","region":"32","departement":"62","arrondissement":"624","commune":"62207"},
{"name":"Beutin","latitude":"50.4909","longitude":"1.727","population":"497","region":"32","departement":"62","arrondissement":"624","commune":"62124"},
{"name":"Waben","latitude":"50.37944","longitude":"1.65222","population":"411","region":"32","departement":"62","arrondissement":"624","commune":"62866"},
{"name":"Villers-sur-Authie","latitude":"50.31694","longitude":"1.69333","population":"411","region":"32","departement":"80","arrondissement":"801","commune":"80806"},
{"name":"Campigneulles-les-Grandes","latitude":"50.43556","longitude":"1.71333","population":"300","region":"32","departement":"62","arrondissement":"624","commune":"62206"},
{"name":"Lépine","latitude":"50.37778","longitude":"1.72611","population":"281","region":"32","departement":"62","arrondissement":"624","commune":"62499"},
{"name":"Nampont","latitude":"50.3487","longitude":"1.7459","population":"260","region":"32","departement":"80","arrondissement":"801","commune":"80580"},
{"name":"Saint-Aubin","latitude":"50.4567","longitude":"1.6667","population":"256","region":"32","departement":"62","arrondissement":"624","commune":"62742"},
{"name":"Airon-Saint-Vaast","latitude":"50.43167","longitude":"1.66722","population":"206","region":"32","departement":"62","arrondissement":"624","commune":"62016"},
{"name":"Airon-Notre-Dame","latitude":"50.43667","longitude":"1.65917","population":"196","region":"32","departement":"62","arrondissement":"624","commune":"62015"},
{"name":"Nempont-Saint-Firmin","latitude":"50.355","longitude":"1.7333","population":"192","region":"32","departement":"62","arrondissement":"624","commune":"62602"},
{"name":"La Madelaine-sous-Montreuil","latitude":"50.4684","longitude":"1.7495","population":"174","region":"32","departement":"62","arrondissement":"624","commune":"62535"},
{"name":"Tigny-Noyelle","latitude":"50.35278","longitude":"1.70583","population":"153","region":"32","departement":"62","arrondissement":"624","commune":"62815"},
{"name":"Colline-Beaumont","latitude":"50.3397","longitude":"1.682","population":"136","region":"32","departement":"62","arrondissement":"624","commune":"62231"},
{"name":"Vercourt","latitude":"50.3","longitude":"1.7","population":"113","region":"32","departement":"80","arrondissement":"801","commune":"80787"}
]