[
{"name":"Loudun","latitude":"47.01","longitude":"0.08361","population":"7089","region":"75","departement":"86","arrondissement":"861","commune":"86137"},
{"name":"Lencloître","latitude":"46.81417","longitude":"0.32806","population":"2448","region":"75","departement":"86","arrondissement":"861","commune":"86128"},
{"name":"Richelieu","latitude":"47.01417","longitude":"0.32361","population":"1956","region":"24","departement":"37","arrondissement":"371","commune":"37196"},
{"name":"Saint-Jean-de-Sauves","latitude":"46.84028","longitude":"0.09306","population":"1319","region":"75","departement":"86","arrondissement":"861","commune":"86225"},
{"name":"Chouppes","latitude":"46.81167","longitude":"0.16417","population":"745","region":"75","departement":"86","arrondissement":"861","commune":"86075"},
{"name":"Mouterre-Silly","latitude":"46.97528","longitude":"0.04472","population":"723","region":"75","departement":"86","arrondissement":"861","commune":"86173"},
{"name":"Monts-sur-Guesnes","latitude":"46.91889","longitude":"0.21167","population":"678","region":"75","departement":"86","arrondissement":"861","commune":"86167"},
{"name":"Angliers","latitude":"46.9467","longitude":"0.1178","population":"662","region":"75","departement":"86","arrondissement":"861","commune":"86005"},
{"name":"Sammarçolles","latitude":"47.03278","longitude":"0.14639","population":"614","region":"75","departement":"86","arrondissement":"861","commune":"86252"},
{"name":"Doussay","latitude":"46.8441","longitude":"0.2762","population":"611","region":"75","departement":"86","arrondissement":"861","commune":"86096"},
{"name":"Ceaux-en-Loudun","latitude":"47.02611","longitude":"0.23889","population":"599","region":"75","departement":"86","arrondissement":"861","commune":"86044"},
{"name":"Chaveignes","latitude":"47.03778","longitude":"0.34972","population":"556","region":"24","departement":"37","arrondissement":"371","commune":"37065"},
{"name":"La Roche-Rigault","latitude":"46.9692","longitude":"0.179","population":"531","region":"75","departement":"86","arrondissement":"861","commune":"86079"},
{"name":"Chalais","latitude":"46.97861","longitude":"0.10139","population":"515","region":"75","departement":"86","arrondissement":"861","commune":"86049"},
{"name":"Cernay","latitude":"46.83361","longitude":"0.30389","population":"433","region":"75","departement":"86","arrondissement":"861","commune":"86047"},
{"name":"Pouant","latitude":"47.00583","longitude":"0.27111","population":"411","region":"75","departement":"86","arrondissement":"861","commune":"86197"},
{"name":"Arçay","latitude":"46.96861","longitude":"0.01389","population":"402","region":"75","departement":"86","arrondissement":"861","commune":"86008"},
{"name":"Orches","latitude":"46.88278","longitude":"0.32139","population":"399","region":"75","departement":"86","arrondissement":"861","commune":"86182"},
{"name":"La Grimaudière","latitude":"46.80778","longitude":"0.01778","population":"387","region":"75","departement":"86","arrondissement":"861","commune":"86108"},
{"name":"Martaizé","latitude":"46.91667","longitude":"0.06111","population":"379","region":"75","departement":"86","arrondissement":"861","commune":"86149"},
{"name":"Verrue","latitude":"46.86306","longitude":"0.17222","population":"367","region":"75","departement":"86","arrondissement":"861","commune":"86286"},
{"name":"Basses","latitude":"47.03722","longitude":"0.11861","population":"346","region":"75","departement":"86","arrondissement":"861","commune":"86018"},
{"name":"Savigny-sous-Faye","latitude":"46.87028","longitude":"0.28583","population":"333","region":"75","departement":"86","arrondissement":"861","commune":"86257"},
{"name":"Braye-sous-Faye","latitude":"46.99139","longitude":"0.34667","population":"328","region":"24","departement":"37","arrondissement":"371","commune":"37035"},
{"name":"Faye-la-Vineuse","latitude":"46.95694","longitude":"0.34028","population":"304","region":"24","departement":"37","arrondissement":"371","commune":"37105"},
{"name":"Sérigny","latitude":"46.90611","longitude":"0.34944","population":"290","region":"75","departement":"86","arrondissement":"861","commune":"86260"},
{"name":"Berthegon","latitude":"46.89722","longitude":"0.26333","population":"277","region":"75","departement":"86","arrondissement":"861","commune":"86023"},
{"name":"Coussay","latitude":"46.8375","longitude":"0.20278","population":"273","region":"75","departement":"86","arrondissement":"861","commune":"86085"},
{"name":"Nueil-sous-Faye","latitude":"46.9791","longitude":"0.2807","population":"250","region":"75","departement":"86","arrondissement":"861","commune":"86181"},
{"name":"Prinçay","latitude":"46.93333","longitude":"0.24444","population":"240","region":"75","departement":"86","arrondissement":"861","commune":"86201"},
{"name":"Guesnes","latitude":"46.91667","longitude":"0.16278","population":"228","region":"75","departement":"86","arrondissement":"861","commune":"86109"},
{"name":"Messemé","latitude":"47.01167","longitude":"0.17639","population":"219","region":"75","departement":"86","arrondissement":"861","commune":"86156"},
{"name":"Saint-Clair","latitude":"46.88083","longitude":"0.06306","population":"205","region":"75","departement":"86","arrondissement":"861","commune":"86218"},
{"name":"Maulay","latitude":"46.97833","longitude":"0.21667","population":"197","region":"75","departement":"86","arrondissement":"861","commune":"86151"},
{"name":"La Chaussée","latitude":"46.88556","longitude":"0.11056","population":"169","region":"75","departement":"86","arrondissement":"861","commune":"86069"},
{"name":"Dercé","latitude":"46.9413","longitude":"0.2177","population":"160","region":"75","departement":"86","arrondissement":"861","commune":"86093"},
{"name":"Saires","latitude":"46.88472","longitude":"0.24333","population":"145","region":"75","departement":"86","arrondissement":"861","commune":"86249"},
{"name":"Aulnay","latitude":"46.90556","longitude":"0.09194","population":"106","region":"75","departement":"86","arrondissement":"861","commune":"86013"}
]