[
{"name":"Pont-l'Abbé","latitude":"47.86722","longitude":"-4.22306","population":"8065","region":"53","departement":"29","arrondissement":"294","commune":"29220"},
{"name":"Penmarch","latitude":"47.8125","longitude":"-4.3372","population":"5749","region":"53","departement":"29","arrondissement":"294","commune":"29158"},
{"name":"Plonéour-Lanvern","latitude":"47.90306","longitude":"-4.28389","population":"5725","region":"53","departement":"29","arrondissement":"294","commune":"29174"},
{"name":"Plomeur","latitude":"47.84028","longitude":"-4.28472","population":"3634","region":"53","departement":"29","arrondissement":"294","commune":"29171"},
{"name":"Plobannalec-Lesconil","latitude":"47.82333","longitude":"-4.22972","population":"3326","region":"53","departement":"29","arrondissement":"294","commune":"29165"},
{"name":"Plozévet","latitude":"47.98667","longitude":"-4.42528","population":"2988","region":"53","departement":"29","arrondissement":"294","commune":"29215"},
{"name":"Guilvinec","latitude":"47.7954","longitude":"-4.2832","population":"2945","region":"53","departement":"29","arrondissement":"294","commune":"29072"},
{"name":"Treffiagat","latitude":"47.8035","longitude":"-4.2625","population":"2343","region":"53","departement":"29","arrondissement":"294","commune":"29284"},
{"name":"Pouldreuzic","latitude":"47.955","longitude":"-4.36056","population":"1909","region":"53","departement":"29","arrondissement":"294","commune":"29225"},
{"name":"Plogastel-Saint-Germain","latitude":"47.98361","longitude":"-4.27139","population":"1830","region":"53","departement":"29","arrondissement":"294","commune":"29167"},
{"name":"Saint-Jean-Trolimon","latitude":"47.86611","longitude":"-4.28056","population":"996","region":"53","departement":"29","arrondissement":"294","commune":"29252"},
{"name":"Peumerit","latitude":"47.93861","longitude":"-4.30917","population":"781","region":"53","departement":"29","arrondissement":"294","commune":"29159"},
{"name":"Plovan","latitude":"47.91583","longitude":"-4.36278","population":"684","region":"53","departement":"29","arrondissement":"294","commune":"29214"},
{"name":"Tréogat","latitude":"47.91944","longitude":"-4.32333","population":"533","region":"53","departement":"29","arrondissement":"294","commune":"29298"},
{"name":"Tréguennec","latitude":"47.89167","longitude":"-4.33333","population":"348","region":"53","departement":"29","arrondissement":"294","commune":"29292"}
]