[
{"name":"Le Bugue","latitude":"44.92","longitude":"0.92722","population":"2800","region":"75","departement":"24","arrondissement":"244","commune":"24067"},
{"name":"Le Buisson-de-Cadouin","latitude":"44.8452","longitude":"0.9107","population":"2143","region":"75","departement":"24","arrondissement":"241","commune":"24068"},
{"name":"Vergt","latitude":"45.027","longitude":"0.719","population":"1710","region":"75","departement":"24","arrondissement":"243","commune":"24571"},
{"name":"Saint-Cyprien","latitude":"44.86972","longitude":"1.04361","population":"1570","region":"75","departement":"24","arrondissement":"244","commune":"24396"},
{"name":"Rouffignac-Saint-Cernin-de-Reilhac","latitude":"45.0477","longitude":"0.9782","population":"1552","region":"75","departement":"24","arrondissement":"244","commune":"24356"},
{"name":"La Douze","latitude":"45.06139","longitude":"0.86361","population":"1043","region":"75","departement":"24","arrondissement":"243","commune":"24156"},
{"name":"Sainte-Alvère-Saint-Laurent Les Bâtons","latitude":"44.9469","longitude":"0.8099","population":"900","region":"75","departement":"24","arrondissement":"241","commune":"24362"},
{"name":"Mauzac-et-Grand-Castang","latitude":"44.86444","longitude":"0.79722","population":"845","region":"75","departement":"24","arrondissement":"241","commune":"24260"},
{"name":"Les Eyzies-de-Tayac-Sireuil","latitude":"44.93556","longitude":"1.01694","population":"839","region":"75","departement":"24","arrondissement":"244","commune":"24172"},
{"name":"Plazac","latitude":"45.035","longitude":"1.03944","population":"725","region":"75","departement":"24","arrondissement":"244","commune":"24330"},
{"name":"Castels","latitude":"44.86667","longitude":"1.05","population":"647","region":"75","departement":"24","arrondissement":"244","commune":"24087"},
{"name":"Lacropte","latitude":"45.0369","longitude":"0.8315","population":"628","region":"75","departement":"24","arrondissement":"243","commune":"24220"},
{"name":"Trémolat","latitude":"44.87583","longitude":"0.83056","population":"606","region":"75","departement":"24","arrondissement":"241","commune":"24558"},
{"name":"Cendrieux","latitude":"44.99611","longitude":"0.82278","population":"549","region":"75","departement":"24","arrondissement":"243","commune":"24092"},
{"name":"Saint-Chamassy","latitude":"44.87278","longitude":"0.9275","population":"525","region":"75","departement":"24","arrondissement":"244","commune":"24388"},
{"name":"Pressignac-Vicq","latitude":"44.8956","longitude":"0.7226","population":"461","region":"75","departement":"24","arrondissement":"241","commune":"24338"},
{"name":"Église-Neuve-de-Vergt","latitude":"45.08306","longitude":"0.73222","population":"428","region":"75","departement":"24","arrondissement":"243","commune":"24160"},
{"name":"Journiac","latitude":"44.96556","longitude":"0.88333","population":"409","region":"75","departement":"24","arrondissement":"244","commune":"24217"},
{"name":"Calès","latitude":"44.85667","longitude":"0.8125","population":"370","region":"75","departement":"24","arrondissement":"241","commune":"24073"},
{"name":"Campagne","latitude":"44.9075","longitude":"0.96694","population":"367","region":"75","departement":"24","arrondissement":"244","commune":"24076"},
{"name":"Alles-sur-Dordogne","latitude":"44.85861","longitude":"0.8675","population":"344","region":"75","departement":"24","arrondissement":"241","commune":"24005"},
{"name":"Limeuil","latitude":"44.88528","longitude":"0.88889","population":"328","region":"75","departement":"24","arrondissement":"241","commune":"24240"},
{"name":"Mauzens-et-Miremont","latitude":"44.99306","longitude":"0.91861","population":"324","region":"75","departement":"24","arrondissement":"244","commune":"24261"},
{"name":"Tursac","latitude":"44.96889","longitude":"1.04444","population":"319","region":"75","departement":"24","arrondissement":"244","commune":"24559"},
{"name":"Paunat","latitude":"44.90583","longitude":"0.85889","population":"310","region":"75","departement":"24","arrondissement":"241","commune":"24318"},
{"name":"Saint-Michel-de-Villadeix","latitude":"44.98639","longitude":"0.72111","population":"296","region":"75","departement":"24","arrondissement":"243","commune":"24468"},
{"name":"Audrix","latitude":"44.88111","longitude":"0.94694","population":"294","region":"75","departement":"24","arrondissement":"244","commune":"24015"},
{"name":"Fleurac","latitude":"45.00778","longitude":"1.00194","population":"252","region":"75","departement":"24","arrondissement":"244","commune":"24183"},
{"name":"Salon","latitude":"45.0198","longitude":"0.773","population":"245","region":"75","departement":"24","arrondissement":"243","commune":"24518"},
{"name":"Saint-Geyrac","latitude":"45.0882","longitude":"0.9152","population":"242","region":"75","departement":"24","arrondissement":"243","commune":"24421"},
{"name":"Veyrines-de-Vergt","latitude":"45.00278","longitude":"0.77139","population":"241","region":"75","departement":"24","arrondissement":"243","commune":"24576"},
{"name":"Sainte-Foy-de-Longas","latitude":"44.92528","longitude":"0.75056","population":"236","region":"75","departement":"24","arrondissement":"241","commune":"24407"},
{"name":"Breuilh","latitude":"45.05694","longitude":"0.75417","population":"228","region":"75","departement":"24","arrondissement":"243","commune":"24065"},
{"name":"Badefols-sur-Dordogne","latitude":"44.84333","longitude":"0.79139","population":"211","region":"75","departement":"24","arrondissement":"241","commune":"24022"},
{"name":"Saint-Félix-de-Reillac-et-Mortemart","latitude":"45.0198","longitude":"0.9161","population":"196","region":"75","departement":"24","arrondissement":"244","commune":"24404"},
{"name":"Savignac-de-Miremont","latitude":"44.97222","longitude":"0.94472","population":"158","region":"75","departement":"24","arrondissement":"244","commune":"24524"},
{"name":"Manaurie","latitude":"44.96028","longitude":"0.99139","population":"157","region":"75","departement":"24","arrondissement":"244","commune":"24249"},
{"name":"Saint-Marcel-du-Périgord","latitude":"44.91556","longitude":"0.71222","population":"148","region":"75","departement":"24","arrondissement":"241","commune":"24445"},
{"name":"Saint-Avit-de-Vialard","latitude":"44.94306","longitude":"0.86861","population":"145","region":"75","departement":"24","arrondissement":"244","commune":"24377"},
{"name":"Pezuls","latitude":"44.91333","longitude":"0.8075","population":"128","region":"75","departement":"24","arrondissement":"241","commune":"24327"},
{"name":"Saint-Cirq","latitude":"44.92583","longitude":"0.96917","population":"109","region":"75","departement":"24","arrondissement":"244","commune":"24389"}
]