[
{"name":"Beaumont-de-Lomagne","latitude":"43.88306","longitude":"0.98833","population":"3809","region":"76","departement":"82","arrondissement":"821","commune":"82013"},
{"name":"Saint-Nicolas-de-la-Grave","latitude":"44.06361","longitude":"1.02278","population":"2140","region":"76","departement":"82","arrondissement":"821","commune":"82169"},
{"name":"Lavit","latitude":"43.95722","longitude":"0.92","population":"1523","region":"76","departement":"82","arrondissement":"821","commune":"82097"},
{"name":"Dunes","latitude":"44.08722","longitude":"0.77056","population":"1155","region":"76","departement":"82","arrondissement":"821","commune":"82050"},
{"name":"Castelmayran","latitude":"44.02861","longitude":"1.03889","population":"1102","region":"76","departement":"82","arrondissement":"821","commune":"82031"},
{"name":"Saint-Clar","latitude":"43.89194","longitude":"0.77","population":"977","region":"76","departement":"32","arrondissement":"322","commune":"32370"},
{"name":"Auvillar","latitude":"44.06917","longitude":"0.89972","population":"959","region":"76","departement":"82","arrondissement":"821","commune":"82008"},
{"name":"Miradoux","latitude":"43.99778","longitude":"0.75583","population":"531","region":"76","departement":"32","arrondissement":"322","commune":"32253"},
{"name":"Sérignac","latitude":"43.92111","longitude":"1.02194","population":"491","region":"76","departement":"82","arrondissement":"821","commune":"82180"},
{"name":"Saint-Loup","latitude":"44.08556","longitude":"0.85694","population":"480","region":"76","departement":"82","arrondissement":"821","commune":"82165"},
{"name":"Espalais","latitude":"44.07639","longitude":"0.90306","population":"410","region":"76","departement":"82","arrondissement":"821","commune":"82054"},
{"name":"Gimbrède","latitude":"44.03972","longitude":"0.71833","population":"329","region":"76","departement":"32","arrondissement":"322","commune":"32146"},
{"name":"Caumont","latitude":"44.01889","longitude":"1.00111","population":"319","region":"76","departement":"82","arrondissement":"821","commune":"82035"},
{"name":"Escazeaux","latitude":"43.83528","longitude":"1.0225","population":"289","region":"76","departement":"82","arrondissement":"821","commune":"82053"},
{"name":"Tournecoupe","latitude":"43.86333","longitude":"0.81111","population":"281","region":"76","departement":"32","arrondissement":"322","commune":"32452"},
{"name":"Mansonville","latitude":"44.01639","longitude":"0.84083","population":"270","region":"76","departement":"82","arrondissement":"821","commune":"82102"},
{"name":"Bardigues","latitude":"44.04","longitude":"0.88917","population":"257","region":"76","departement":"82","arrondissement":"821","commune":"82010"},
{"name":"Brugnens","latitude":"43.8399","longitude":"0.7298","population":"254","region":"76","departement":"32","arrondissement":"322","commune":"32066"},
{"name":"Esparsac","latitude":"43.9025","longitude":"0.94194","population":"249","region":"76","departement":"82","arrondissement":"821","commune":"82055"},
{"name":"Merles","latitude":"44.05806","longitude":"0.96917","population":"249","region":"76","departement":"82","arrondissement":"821","commune":"82109"},
{"name":"Saint-Michel","latitude":"44.03278","longitude":"0.945","population":"247","region":"76","departement":"82","arrondissement":"821","commune":"82166"},
{"name":"L'Isle-Bouzon","latitude":"43.9272","longitude":"0.7289","population":"239","region":"76","departement":"32","arrondissement":"322","commune":"32158"},
{"name":"Castelnau-d'Arbieu","latitude":"43.88278","longitude":"0.70472","population":"208","region":"76","departement":"32","arrondissement":"322","commune":"32078"},
{"name":"Angeville","latitude":"44","longitude":"1.02694","population":"205","region":"76","departement":"82","arrondissement":"821","commune":"82003"},
{"name":"Saint-Antoine","latitude":"44.03639","longitude":"0.84028","population":"201","region":"76","departement":"32","arrondissement":"322","commune":"32358"},
{"name":"Sistels","latitude":"44.06028","longitude":"0.78361","population":"201","region":"76","departement":"82","arrondissement":"821","commune":"82181"},
{"name":"Castet-Arrouy","latitude":"43.97972","longitude":"0.71583","population":"181","region":"76","departement":"32","arrondissement":"322","commune":"32085"},
{"name":"Marsac","latitude":"43.94278","longitude":"0.82194","population":"178","region":"76","departement":"82","arrondissement":"821","commune":"82104"},
{"name":"Gimat","latitude":"43.85194","longitude":"0.9425","population":"171","region":"76","departement":"82","arrondissement":"821","commune":"82068"},
{"name":"Saint-Cirice","latitude":"44.05056","longitude":"0.84833","population":"171","region":"76","departement":"82","arrondissement":"821","commune":"82158"},
{"name":"Saint-Léonard","latitude":"43.85917","longitude":"0.76889","population":"170","region":"76","departement":"32","arrondissement":"322","commune":"32385"},
{"name":"Plieux","latitude":"43.95","longitude":"0.73333","population":"164","region":"76","departement":"32","arrondissement":"322","commune":"32320"},
{"name":"Pessoulens","latitude":"43.8525","longitude":"0.87667","population":"153","region":"76","departement":"32","arrondissement":"322","commune":"32313"},
{"name":"Gramont","latitude":"43.93694","longitude":"0.76722","population":"153","region":"76","departement":"82","arrondissement":"821","commune":"82074"},
{"name":"Saint-Arroumex","latitude":"43.9925","longitude":"0.99694","population":"144","region":"76","departement":"82","arrondissement":"821","commune":"82156"},
{"name":"Mauroux","latitude":"43.9119","longitude":"0.8108","population":"140","region":"76","departement":"32","arrondissement":"322","commune":"32248"},
{"name":"Asques","latitude":"43.9893","longitude":"0.9503","population":"135","region":"76","departement":"82","arrondissement":"821","commune":"82004"},
{"name":"Estramiac","latitude":"43.83639","longitude":"0.84861","population":"131","region":"76","departement":"32","arrondissement":"322","commune":"32129"},
{"name":"Lachapelle","latitude":"43.98528","longitude":"0.8425","population":"120","region":"76","departement":"82","arrondissement":"821","commune":"82083"},
{"name":"Flamarens","latitude":"44.01694","longitude":"0.79278","population":"119","region":"76","departement":"32","arrondissement":"322","commune":"32131"},
{"name":"Lamothe-Cumont","latitude":"43.8777","longitude":"0.9161","population":"119","region":"76","departement":"82","arrondissement":"821","commune":"82091"},
{"name":"Gaudonville","latitude":"43.88444","longitude":"0.84611","population":"118","region":"76","departement":"32","arrondissement":"322","commune":"32139"},
{"name":"Le Pin","latitude":"44.0352","longitude":"0.9692","population":"117","region":"76","departement":"82","arrondissement":"821","commune":"82139"},
{"name":"Castéra-Bouzet","latitude":"44.00056","longitude":"0.91944","population":"115","region":"76","departement":"82","arrondissement":"821","commune":"82034"},
{"name":"Gensac","latitude":"43.95306","longitude":"0.95528","population":"110","region":"76","departement":"82","arrondissement":"821","commune":"82067"},
{"name":"Fajolles","latitude":"43.9675","longitude":"1.01417","population":"107","region":"76","departement":"82","arrondissement":"821","commune":"82058"},
{"name":"Coutures","latitude":"43.95222","longitude":"0.98611","population":"105","region":"76","departement":"82","arrondissement":"821","commune":"82046"},
{"name":"Marignac","latitude":"43.8435","longitude":"0.9125","population":"103","region":"76","departement":"82","arrondissement":"821","commune":"82103"},
{"name":"Saint-Créac","latitude":"43.9218","longitude":"0.8027","population":"101","region":"76","departement":"32","arrondissement":"322","commune":"32371"},
{"name":"Poupas","latitude":"43.96722","longitude":"0.84056","population":"93","region":"76","departement":"82","arrondissement":"821","commune":"82143"},
{"name":"Montgaillard","latitude":"43.93278","longitude":"0.87611","population":"92","region":"76","departement":"82","arrondissement":"821","commune":"82129"},
{"name":"Peyrecave","latitude":"43.99694","longitude":"0.81972","population":"77","region":"76","departement":"32","arrondissement":"322","commune":"32314"},
{"name":"Avezan","latitude":"43.87583","longitude":"0.79583","population":"75","region":"76","departement":"32","arrondissement":"322","commune":"32023"},
{"name":"Magnas","latitude":"43.8948","longitude":"0.7307","population":"69","region":"76","departement":"32","arrondissement":"322","commune":"32223"},
{"name":"Glatens","latitude":"43.8939","longitude":"0.9179","population":"67","region":"76","departement":"82","arrondissement":"821","commune":"82070"},
{"name":"Saint-Jean-du-Bouzet","latitude":"43.99","longitude":"0.875","population":"66","region":"76","departement":"82","arrondissement":"821","commune":"82163"},
{"name":"Castéron","latitude":"43.89194","longitude":"0.86111","population":"63","region":"76","departement":"32","arrondissement":"322","commune":"32084"},
{"name":"Puygaillard-de-Lomagne","latitude":"43.9677","longitude":"0.8972","population":"61","region":"76","departement":"82","arrondissement":"821","commune":"82146"},
{"name":"Auterive","latitude":"43.86","longitude":"0.96639","population":"60","region":"76","departement":"82","arrondissement":"821","commune":"82006"},
{"name":"Cumont","latitude":"43.87556","longitude":"0.9","population":"60","region":"76","departement":"82","arrondissement":"821","commune":"82047"},
{"name":"Maumusson","latitude":"43.9175","longitude":"0.90278","population":"50","region":"76","departement":"82","arrondissement":"821","commune":"82107"},
{"name":"Balignac","latitude":"43.95528","longitude":"0.87444","population":"30","region":"76","departement":"82","arrondissement":"821","commune":"82009"}
]