[
{"name":"Patay","latitude":"48.04806","longitude":"1.69556","population":"2085","region":"24","departement":"45","arrondissement":"452","commune":"45248"},
{"name":"Orgères-en-Beauce","latitude":"48.14611","longitude":"1.685","population":"1113","region":"24","departement":"28","arrondissement":"282","commune":"28287"},
{"name":"Terminiers","latitude":"48.0825","longitude":"1.73972","population":"981","region":"24","departement":"28","arrondissement":"282","commune":"28382"},
{"name":"Sancheville","latitude":"48.19194","longitude":"1.57667","population":"786","region":"24","departement":"28","arrondissement":"282","commune":"28364"},
{"name":"Saint-Péravy-la-Colombe","latitude":"48","longitude":"1.7","population":"666","region":"24","departement":"45","arrondissement":"452","commune":"45296"},
{"name":"Coinces","latitude":"48.01028","longitude":"1.74028","population":"532","region":"24","departement":"45","arrondissement":"452","commune":"45099"},
{"name":"Guillonville","latitude":"48.0906","longitude":"1.6631","population":"449","region":"24","departement":"28","arrondissement":"282","commune":"28190"},
{"name":"Ozoir-le-Breuil","latitude":"48.01361","longitude":"1.47944","population":"431","region":"24","departement":"28","arrondissement":"282","commune":"28295"},
{"name":"Lutz-en-Dunois","latitude":"48.05917","longitude":"1.41417","population":"430","region":"24","departement":"28","arrondissement":"282","commune":"28224"},
{"name":"Saint-Maur-sur-le-Loir","latitude":"48.1525","longitude":"1.41889","population":"377","region":"24","departement":"28","arrondissement":"282","commune":"28353"},
{"name":"Conie-Molitard","latitude":"48.11361","longitude":"1.44056","population":"377","region":"24","departement":"28","arrondissement":"282","commune":"28106"},
{"name":"Tournoisis","latitude":"48.00556","longitude":"1.63028","population":"370","region":"24","departement":"45","arrondissement":"452","commune":"45326"},
{"name":"Civry","latitude":"48.09056","longitude":"1.49111","population":"354","region":"24","departement":"28","arrondissement":"282","commune":"28101"},
{"name":"Neuvy-en-Dunois","latitude":"48.20722","longitude":"1.53889","population":"329","region":"24","departement":"28","arrondissement":"282","commune":"28277"},
{"name":"Eole-en-Beauce","latitude":"48.21667","longitude":"1.7025","population":"315","region":"24","departement":"28","arrondissement":"281","commune":"28406"},
{"name":"Villampuy","latitude":"48.03472","longitude":"1.50944","population":"315","region":"24","departement":"28","arrondissement":"282","commune":"28410"},
{"name":"Péronville","latitude":"48.0627","longitude":"1.5839","population":"312","region":"24","departement":"28","arrondissement":"282","commune":"28296"},
{"name":"Pré-Saint-Évroult","latitude":"48.18444","longitude":"1.4675","population":"306","region":"24","departement":"28","arrondissement":"282","commune":"28305"},
{"name":"Nottonville","latitude":"48.1125","longitude":"1.50556","population":"300","region":"24","departement":"28","arrondissement":"282","commune":"28283"},
{"name":"Villamblain","latitude":"48.01","longitude":"1.55222","population":"275","region":"24","departement":"45","arrondissement":"452","commune":"45337"},
{"name":"Bazoches-en-Dunois","latitude":"48.10278","longitude":"1.56528","population":"263","region":"24","departement":"28","arrondissement":"282","commune":"28028"},
{"name":"Loigny-la-Bataille","latitude":"48.12306","longitude":"1.73306","population":"232","region":"24","departement":"28","arrondissement":"282","commune":"28212"},
{"name":"Cormainville","latitude":"48.13722","longitude":"1.60694","population":"229","region":"24","departement":"28","arrondissement":"282","commune":"28108"},
{"name":"Saint-Cloud-en-Dunois","latitude":"48.0402","longitude":"1.4705","population":"228","region":"24","departement":"28","arrondissement":"282","commune":"28330"},
{"name":"Dancy","latitude":"48.15","longitude":"1.46278","population":"217","region":"24","departement":"28","arrondissement":"282","commune":"28126"},
{"name":"Varize","latitude":"48.0951","longitude":"1.5146","population":"212","region":"24","departement":"28","arrondissement":"282","commune":"28400"},
{"name":"Moriers","latitude":"48.215","longitude":"1.43806","population":"210","region":"24","departement":"28","arrondissement":"282","commune":"28270"},
{"name":"Villeneuve-sur-Conie","latitude":"48.04472","longitude":"1.65083","population":"205","region":"24","departement":"45","arrondissement":"452","commune":"45341"},
{"name":"Villiers-Saint-Orien","latitude":"48.13361","longitude":"1.48944","population":"172","region":"24","departement":"28","arrondissement":"282","commune":"28418"},
{"name":"Pré-Saint-Martin","latitude":"48.22139","longitude":"1.47639","population":"162","region":"24","departement":"28","arrondissement":"282","commune":"28306"},
{"name":"Rouvray-Sainte-Croix","latitude":"48.05917","longitude":"1.73222","population":"145","region":"24","departement":"45","arrondissement":"452","commune":"45262"},
{"name":"Fontenay-sur-Conie","latitude":"48.16444","longitude":"1.66778","population":"138","region":"24","departement":"28","arrondissement":"282","commune":"28157"},
{"name":"Courbehaye","latitude":"48.15806","longitude":"1.60917","population":"120","region":"24","departement":"28","arrondissement":"282","commune":"28114"},
{"name":"Bullainville","latitude":"48.17111","longitude":"1.51028","population":"115","region":"24","departement":"28","arrondissement":"282","commune":"28065"},
{"name":"La Chapelle-Onzerain","latitude":"48.03333","longitude":"1.61194","population":"112","region":"24","departement":"45","arrondissement":"452","commune":"45074"}
]