[
{"name":"Avallon","latitude":"47.49","longitude":"3.90833","population":"7252","region":"27","departement":"89","arrondissement":"892","commune":"89025"},
{"name":"La Roche-en-Brenil","latitude":"47.3805","longitude":"4.1795","population":"908","region":"27","departement":"21","arrondissement":"213","commune":"21525"},
{"name":"Magny","latitude":"47.48083","longitude":"3.97722","population":"820","region":"27","departement":"89","arrondissement":"892","commune":"89235"},
{"name":"Époisses","latitude":"47.50694","longitude":"4.17361","population":"794","region":"27","departement":"21","arrondissement":"213","commune":"21247"},
{"name":"Sauvigny-le-Bois","latitude":"47.5128","longitude":"3.941","population":"754","region":"27","departement":"89","arrondissement":"892","commune":"89378"},
{"name":"Quarré-les-Tombes","latitude":"47.36806","longitude":"3.9975","population":"720","region":"27","departement":"89","arrondissement":"892","commune":"89318"},
{"name":"Rouvray","latitude":"47.4246","longitude":"4.1048","population":"624","region":"27","departement":"21","arrondissement":"213","commune":"21531"},
{"name":"Toutry","latitude":"47.50083","longitude":"4.12167","population":"471","region":"27","departement":"21","arrondissement":"213","commune":"21642"},
{"name":"Guillon","latitude":"47.51417","longitude":"4.09333","population":"456","region":"27","departement":"89","arrondissement":"892","commune":"89197"},
{"name":"Sainte-Magnance","latitude":"47.45028","longitude":"4.07806","population":"424","region":"27","departement":"89","arrondissement":"892","commune":"89351"},
{"name":"Saint-Léger-Vauban","latitude":"47.38694","longitude":"4.04083","population":"411","region":"27","departement":"89","arrondissement":"892","commune":"89349"},
{"name":"Saint-Germain-des-Champs","latitude":"47.41056","longitude":"3.92167","population":"387","region":"27","departement":"89","arrondissement":"892","commune":"89347"},
{"name":"Dun-les-Places","latitude":"47.28556","longitude":"4.01583","population":"355","region":"27","departement":"58","arrondissement":"582","commune":"58106"},
{"name":"Cussy-les-Forges","latitude":"47.47","longitude":"4.02694","population":"336","region":"27","departement":"89","arrondissement":"892","commune":"89134"},
{"name":"Marigny-l'Église","latitude":"47.3553","longitude":"3.9374","population":"331","region":"27","departement":"58","arrondissement":"582","commune":"58157"},
{"name":"Saint-Brancher","latitude":"47.42611","longitude":"3.99583","population":"327","region":"27","departement":"89","arrondissement":"892","commune":"89336"},
{"name":"Saint-Martin-du-Puy","latitude":"47.33444","longitude":"3.86778","population":"289","region":"27","departement":"58","arrondissement":"582","commune":"58255"},
{"name":"Montberthault","latitude":"47.46833","longitude":"4.15861","population":"249","region":"27","departement":"21","arrondissement":"213","commune":"21426"},
{"name":"Saint-Didier","latitude":"47.3301","longitude":"4.1831","population":"213","region":"27","departement":"21","arrondissement":"213","commune":"21546"},
{"name":"Saint-André-en-Terre-Plaine","latitude":"47.48028","longitude":"4.05944","population":"191","region":"27","departement":"89","arrondissement":"892","commune":"89333"},
{"name":"Saint-Germain-de-Modéon","latitude":"47.37944","longitude":"4.13167","population":"179","region":"27","departement":"21","arrondissement":"213","commune":"21548"},
{"name":"Saint-Agnan","latitude":"47.3184","longitude":"4.0958","population":"162","region":"27","departement":"58","arrondissement":"581","commune":"58226"},
{"name":"Chastellux-sur-Cure","latitude":"47.38611","longitude":"3.8875","population":"158","region":"27","departement":"89","arrondissement":"892","commune":"89089"},
{"name":"Savigny-en-Terre-Plaine","latitude":"47.49583","longitude":"4.08583","population":"147","region":"27","departement":"89","arrondissement":"892","commune":"89379"},
{"name":"Molphey","latitude":"47.34444","longitude":"4.21056","population":"141","region":"27","departement":"21","arrondissement":"213","commune":"21422"},
{"name":"Saint-Andeux","latitude":"47.4","longitude":"4.1","population":"127","region":"27","departement":"21","arrondissement":"213","commune":"21538"},
{"name":"Bussières","latitude":"47.4255","longitude":"4.0544","population":"126","region":"27","departement":"89","arrondissement":"892","commune":"89058"},
{"name":"Courcelles-Frémoy","latitude":"47.45028","longitude":"4.17306","population":"124","region":"27","departement":"21","arrondissement":"213","commune":"21203"},
{"name":"Sincey-lès-Rouvray","latitude":"47.43111","longitude":"4.13167","population":"118","region":"27","departement":"21","arrondissement":"213","commune":"21608"},
{"name":"Vieux-Château","latitude":"47.47","longitude":"4.13389","population":"100","region":"27","departement":"21","arrondissement":"213","commune":"21681"},
{"name":"Beauvilliers","latitude":"47.41444","longitude":"4.04139","population":"96","region":"27","departement":"89","arrondissement":"892","commune":"89032"},
{"name":"Forléans","latitude":"47.48361","longitude":"4.205","population":"89","region":"27","departement":"21","arrondissement":"213","commune":"21282"},
{"name":"Chalaux","latitude":"47.33889","longitude":"3.91167","population":"74","region":"27","departement":"58","arrondissement":"582","commune":"58049"},
{"name":"Sauvigny-le-Beuréal","latitude":"47.48694","longitude":"4.10917","population":"61","region":"27","departement":"89","arrondissement":"892","commune":"89377"},
{"name":"Cisery","latitude":"47.51083","longitude":"4.06111","population":"54","region":"27","departement":"89","arrondissement":"892","commune":"89109"}
]