[
{"name":"Condé-sur-Vire","latitude":"49.05222","longitude":"-1.03722","population":"3300","region":"28","departement":"50","arrondissement":"504","commune":"50139"},
{"name":"Torigny-les-Villes","latitude":"49.03556","longitude":"-0.97944","population":"2393","region":"28","departement":"50","arrondissement":"504","commune":"50601"},
{"name":"Saint-Amand","latitude":"49.04278","longitude":"-0.96389","population":"2228","region":"28","departement":"50","arrondissement":"504","commune":"50444"},
{"name":"Cahagnes","latitude":"49.06639","longitude":"-0.76861","population":"1356","region":"28","departement":"14","arrondissement":"144","commune":"14120"},
{"name":"Caumont-l'Éventé","latitude":"49.09028","longitude":"-0.80528","population":"1348","region":"28","departement":"14","arrondissement":"141","commune":"14143"},
{"name":"Saint-Jean-d'Elle","latitude":"49.09306","longitude":"-0.97417","population":"1183","region":"28","departement":"50","arrondissement":"504","commune":"50492"},
{"name":"Anctoville","latitude":"49.10528","longitude":"-0.70667","population":"1056","region":"28","departement":"14","arrondissement":"141","commune":"14011"},
{"name":"Souleuvre en Bocage","latitude":"48.93694","longitude":"-0.83917","population":"1007","region":"28","departement":"14","arrondissement":"144","commune":"14061"},
{"name":"Domjean","latitude":"48.98694","longitude":"-1.0325","population":"1007","region":"28","departement":"50","arrondissement":"504","commune":"50164"},
{"name":"La Barre-de-Semilly","latitude":"49.11139","longitude":"-1.03417","population":"941","region":"28","departement":"50","arrondissement":"504","commune":"50032"},
{"name":"Livry","latitude":"49.10806","longitude":"-0.76583","population":"783","region":"28","departement":"14","arrondissement":"141","commune":"14372"},
{"name":"Jurques","latitude":"49.01778","longitude":"-0.7425","population":"653","region":"28","departement":"14","arrondissement":"144","commune":"14347"},
{"name":"Pont-Farcy","latitude":"48.9366","longitude":"-1.0351","population":"527","region":"28","departement":"14","arrondissement":"144","commune":"14513"},
{"name":"Saint-André-de-l'Épine","latitude":"49.13944","longitude":"-1.01083","population":"526","region":"28","departement":"50","arrondissement":"504","commune":"50446"},
{"name":"Saint-Pierre-de-Semilly","latitude":"49.12028","longitude":"-1.00583","population":"417","region":"28","departement":"50","arrondissement":"504","commune":"50538"},
{"name":"Sept-Vents","latitude":"49.07583","longitude":"-0.82028","population":"409","region":"28","departement":"14","arrondissement":"141","commune":"14672"},
{"name":"Cormolain","latitude":"49.13028","longitude":"-0.85556","population":"398","region":"28","departement":"14","arrondissement":"141","commune":"14182"},
{"name":"Saint-Georges-d'Elle","latitude":"49.14833","longitude":"-0.97139","population":"381","region":"28","departement":"50","arrondissement":"504","commune":"50473"},
{"name":"Bérigny","latitude":"49.14278","longitude":"-0.94083","population":"379","region":"28","departement":"50","arrondissement":"504","commune":"50046"},
{"name":"Torteval-Quesnay","latitude":"49.1373","longitude":"-0.73","population":"347","region":"28","departement":"14","arrondissement":"141","commune":"14695"},
{"name":"Saint-Germain-d'Ectot","latitude":"49.12333","longitude":"-0.71778","population":"332","region":"28","departement":"14","arrondissement":"141","commune":"14581"},
{"name":"Le Mesnil-Auzouf","latitude":"48.98055","longitude":"-0.75265","population":"317","region":"28","departement":"14","arrondissement":"144","commune":"14413"},
{"name":"Sallen","latitude":"49.11417","longitude":"-0.82861","population":"290","region":"28","departement":"14","arrondissement":"141","commune":"14664"},
{"name":"La Vacquerie","latitude":"49.09222","longitude":"-0.85833","population":"286","region":"28","departement":"14","arrondissement":"141","commune":"14722"},
{"name":"Brémoy","latitude":"48.99058","longitude":"-0.77986","population":"218","region":"28","departement":"14","arrondissement":"144","commune":"14096"},
{"name":"Placy-Montaigu","latitude":"49.03028","longitude":"-0.90583","population":"217","region":"28","departement":"50","arrondissement":"504","commune":"50404"},
{"name":"Saint-Jean-des-Essartiers","latitude":"49.04472","longitude":"-0.83778","population":"203","region":"28","departement":"14","arrondissement":"144","commune":"14596"},
{"name":"Amayé-sur-Seulles","latitude":"49.08028","longitude":"-0.71444","population":"202","region":"28","departement":"14","arrondissement":"142","commune":"14007"},
{"name":"Saint-Pierre-du-Fresne","latitude":"49.03505","longitude":"-0.76123","population":"200","region":"28","departement":"14","arrondissement":"144","commune":"14650"},
{"name":"Saint-Louet-sur-Vire","latitude":"48.99139","longitude":"-0.99222","population":"194","region":"28","departement":"50","arrondissement":"504","commune":"50504"},
{"name":"Saint-Germain-d'Elle","latitude":"49.1225","longitude":"-0.91972","population":"194","region":"28","departement":"50","arrondissement":"504","commune":"50476"},
{"name":"La Bigne","latitude":"49.01167","longitude":"-0.72167","population":"192","region":"28","departement":"14","arrondissement":"144","commune":"14073"},
{"name":"Foulognes","latitude":"49.14222","longitude":"-0.81417","population":"187","region":"28","departement":"14","arrondissement":"141","commune":"14282"},
{"name":"Le Perron","latitude":"49.0525","longitude":"-0.90139","population":"185","region":"28","departement":"50","arrondissement":"504","commune":"50398"},
{"name":"Biéville","latitude":"49.08139","longitude":"-0.88833","population":"164","region":"28","departement":"50","arrondissement":"504","commune":"50054"},
{"name":"Lamberville","latitude":"49.08","longitude":"-0.90861","population":"164","region":"28","departement":"50","arrondissement":"504","commune":"50261"},
{"name":"Beuvrigny","latitude":"48.96806","longitude":"-1.00444","population":"149","region":"28","departement":"50","arrondissement":"504","commune":"50050"},
{"name":"Les Loges","latitude":"49.0428","longitude":"-0.8056","population":"140","region":"28","departement":"14","arrondissement":"144","commune":"14374"},
{"name":"Sainte-Honorine-de-Ducy","latitude":"49.14639","longitude":"-0.7775","population":"132","region":"28","departement":"14","arrondissement":"141","commune":"14590"},
{"name":"Dampierre","latitude":"49.04333","longitude":"-0.86917","population":"116","region":"28","departement":"14","arrondissement":"144","commune":"14217"},
{"name":"Montrabot","latitude":"49.10833","longitude":"-0.89083","population":"85","region":"28","departement":"50","arrondissement":"504","commune":"50351"},
{"name":"Fourneaux","latitude":"48.96444","longitude":"-1.03611","population":"84","region":"28","departement":"50","arrondissement":"504","commune":"50192"},
{"name":"Sainte-Marie-Outre-l'Eau","latitude":"48.93556","longitude":"-1.02389","population":"81","region":"28","departement":"14","arrondissement":"144","commune":"14619"},
{"name":"Pont-Bellanger","latitude":"48.93167","longitude":"-0.98","population":"66","region":"28","departement":"14","arrondissement":"144","commune":"14511"},
{"name":"La Lande-sur-Drôme","latitude":"49.06917","longitude":"-0.86917","population":"63","region":"28","departement":"14","arrondissement":"141","commune":"14350"},
{"name":"La Luzerne","latitude":"49.13889","longitude":"-1.05028","population":"46","region":"28","departement":"50","arrondissement":"504","commune":"50283"}
]