[
{"name":"Concarneau","latitude":"47.87528","longitude":"-3.91889","population":"19352","region":"53","departement":"29","arrondissement":"294","commune":"29039"},
{"name":"Fouesnant","latitude":"47.89333","longitude":"-4.01222","population":"9356","region":"53","departement":"29","arrondissement":"294","commune":"29058"},
{"name":"Loctudy","latitude":"47.83361","longitude":"-4.16917","population":"4207","region":"53","departement":"29","arrondissement":"294","commune":"29135"},
{"name":"Plomelin","latitude":"47.93556","longitude":"-4.15306","population":"4097","region":"53","departement":"29","arrondissement":"294","commune":"29170"},
{"name":"Combrit","latitude":"47.88694","longitude":"-4.16","population":"3495","region":"53","departement":"29","arrondissement":"294","commune":"29037"},
{"name":"Pluguffan","latitude":"47.98083","longitude":"-4.17889","population":"3464","region":"53","departement":"29","arrondissement":"294","commune":"29216"},
{"name":"Saint-Évarzec","latitude":"47.93694","longitude":"-4.02028","population":"3442","region":"53","departement":"29","arrondissement":"294","commune":"29247"},
{"name":"La Forêt-Fouesnant","latitude":"47.90917","longitude":"-3.97917","population":"3299","region":"53","departement":"29","arrondissement":"294","commune":"29057"},
{"name":"Bénodet","latitude":"47.87667","longitude":"-4.11278","population":"3271","region":"53","departement":"29","arrondissement":"294","commune":"29006"},
{"name":"Saint-Yvi","latitude":"47.9675","longitude":"-3.93472","population":"2755","region":"53","departement":"29","arrondissement":"294","commune":"29272"},
{"name":"Pleuven","latitude":"47.90611","longitude":"-4.04333","population":"2636","region":"53","departement":"29","arrondissement":"294","commune":"29161"},
{"name":"Gouesnach","latitude":"47.91111","longitude":"-4.115","population":"2535","region":"53","departement":"29","arrondissement":"294","commune":"29060"},
{"name":"Clohars-Fouesnant","latitude":"47.89778","longitude":"-4.06806","population":"2156","region":"53","departement":"29","arrondissement":"294","commune":"29032"},
{"name":"Tréméoc","latitude":"47.90528","longitude":"-4.21194","population":"1208","region":"53","departement":"29","arrondissement":"294","commune":"29296"},
{"name":"Île-Tudy","latitude":"47.8425","longitude":"-4.16806","population":"710","region":"53","departement":"29","arrondissement":"294","commune":"29085"}
]