[
{"name":"Roullet-Saint-Estèphe","latitude":"45.5832","longitude":"0.0476","population":"3856","region":"75","departement":"16","arrondissement":"161","commune":"16287"},
{"name":"Mouthiers-sur-Boëme","latitude":"45.555","longitude":"0.12333","population":"2462","region":"75","departement":"16","arrondissement":"161","commune":"16236"},
{"name":"Dignac","latitude":"45.55639","longitude":"0.28028","population":"1308","region":"75","departement":"16","arrondissement":"161","commune":"16119"},
{"name":"Montmoreau-Saint-Cybard","latitude":"45.3987","longitude":"0.1313","population":"1064","region":"75","departement":"16","arrondissement":"161","commune":"16230"},
{"name":"Claix","latitude":"45.55556","longitude":"0.04278","population":"917","region":"75","departement":"16","arrondissement":"161","commune":"16101"},
{"name":"Blanzac-Porcheresse","latitude":"45.4761","longitude":"0.0323","population":"842","region":"75","departement":"16","arrondissement":"161","commune":"16046"},
{"name":"Torsac","latitude":"45.56333","longitude":"0.21472","population":"777","region":"75","departement":"16","arrondissement":"161","commune":"16382"},
{"name":"Villebois-Lavalette","latitude":"45.48278","longitude":"0.27944","population":"734","region":"75","departement":"16","arrondissement":"161","commune":"16408"},
{"name":"Saint-Amant-de-Montmoreau","latitude":"45.39556","longitude":"0.15667","population":"679","region":"75","departement":"16","arrondissement":"161","commune":"16294"},
{"name":"Fouquebrune","latitude":"45.52806","longitude":"0.21083","population":"663","region":"75","departement":"16","arrondissement":"161","commune":"16143"},
{"name":"Ronsenac","latitude":"45.47639","longitude":"0.25","population":"562","region":"75","departement":"16","arrondissement":"161","commune":"16283"},
{"name":"Chadurie","latitude":"45.49556","longitude":"0.1375","population":"524","region":"75","departement":"16","arrondissement":"161","commune":"16072"},
{"name":"Pérignac","latitude":"45.46444","longitude":"0.07722","population":"519","region":"75","departement":"16","arrondissement":"161","commune":"16258"},
{"name":"Magnac-Lavalette-Villars","latitude":"45.5004","longitude":"0.251","population":"434","region":"75","departement":"16","arrondissement":"161","commune":"16198"},
{"name":"Juignac","latitude":"45.37806","longitude":"0.16361","population":"406","region":"75","departement":"16","arrondissement":"161","commune":"16170"},
{"name":"Champagne-et-Fontaine","latitude":"45.42167","longitude":"0.31722","population":"392","region":"75","departement":"24","arrondissement":"243","commune":"24097"},
{"name":"Saint-Laurent-de-Belzagot","latitude":"45.39028","longitude":"0.11806","population":"360","region":"75","departement":"16","arrondissement":"161","commune":"16328"},
{"name":"Salles-Lavalette","latitude":"45.38333","longitude":"0.23333","population":"355","region":"75","departement":"16","arrondissement":"161","commune":"16362"},
{"name":"Plassac-Rouffiac","latitude":"45.52667","longitude":"0.065","population":"353","region":"75","departement":"16","arrondissement":"161","commune":"16263"},
{"name":"Boisné-La Tude","latitude":"45.49611","longitude":"0.18389","population":"316","region":"75","departement":"16","arrondissement":"161","commune":"16082"},
{"name":"Nonac","latitude":"45.42056","longitude":"0.05639","population":"305","region":"75","departement":"16","arrondissement":"161","commune":"16246"},
{"name":"Nanteuil-Auriac-de-Bourzac","latitude":"45.3843","longitude":"0.2915","population":"278","region":"75","departement":"24","arrondissement":"243","commune":"24303"},
{"name":"Gardes-le-Pontaroux","latitude":"45.5193","longitude":"0.305","population":"267","region":"75","departement":"16","arrondissement":"161","commune":"16147"},
{"name":"Voulgézac","latitude":"45.5125","longitude":"0.12028","population":"267","region":"75","departement":"16","arrondissement":"161","commune":"16420"},
{"name":"Bécheresse","latitude":"45.5","longitude":"0.08333","population":"261","region":"75","departement":"16","arrondissement":"161","commune":"16036"},
{"name":"Palluaud","latitude":"45.34833","longitude":"0.24833","population":"260","region":"75","departement":"16","arrondissement":"161","commune":"16254"},
{"name":"Aignes-et-Puypéroux","latitude":"45.45083","longitude":"0.14444","population":"260","region":"75","departement":"16","arrondissement":"161","commune":"16004"},
{"name":"Blanzaguet-Saint-Cybard","latitude":"45.4698","longitude":"0.3212","population":"254","region":"75","departement":"16","arrondissement":"161","commune":"16047"},
{"name":"Bors (Canton de Tude-et-Lavalette)","latitude":"45.3447","longitude":"0.1682","population":"253","region":"75","departement":"16","arrondissement":"161","commune":"16052"},
{"name":"Champagne-Vigny","latitude":"45.5076","longitude":"0.0377","population":"215","region":"75","departement":"16","arrondissement":"161","commune":"16075"},
{"name":"Saint-Martial-Viveyrol","latitude":"45.3575","longitude":"0.33861","population":"214","region":"75","departement":"24","arrondissement":"243","commune":"24452"},
{"name":"Courgeac","latitude":"45.39389","longitude":"0.08472","population":"204","region":"75","departement":"16","arrondissement":"161","commune":"16111"},
{"name":"Bouteilles-Saint-Sébastien","latitude":"45.3447","longitude":"0.305","population":"190","region":"75","departement":"24","arrondissement":"243","commune":"24062"},
{"name":"Gurat","latitude":"45.42944","longitude":"0.26972","population":"189","region":"75","departement":"16","arrondissement":"161","commune":"16162"},
{"name":"Saint-Eutrope","latitude":"45.41806","longitude":"0.11139","population":"170","region":"75","departement":"16","arrondissement":"161","commune":"16314"},
{"name":"Deviat","latitude":"45.41778","longitude":"0.00889","population":"167","region":"75","departement":"16","arrondissement":"161","commune":"16118"},
{"name":"Vendoire","latitude":"45.41528","longitude":"0.30278","population":"150","region":"75","departement":"24","arrondissement":"243","commune":"24569"},
{"name":"Cressac-Saint-Genis","latitude":"45.4464","longitude":"0.0125","population":"146","region":"75","departement":"16","arrondissement":"161","commune":"16115"},
{"name":"Saint-Martial","latitude":"45.3717","longitude":"0.0575","population":"142","region":"75","departement":"16","arrondissement":"161","commune":"16334"},
{"name":"La Chapelle-Grésignac","latitude":"45.39361","longitude":"0.3375","population":"125","region":"75","departement":"24","arrondissement":"243","commune":"24109"},
{"name":"Saint-Félix","latitude":"45.3753","longitude":"0.0116","population":"115","region":"75","departement":"16","arrondissement":"162","commune":"16315"},
{"name":"Saint-Léger","latitude":"45.4599","longitude":"0.0458","population":"108","region":"75","departement":"16","arrondissement":"161","commune":"16332"},
{"name":"Vaux-Lavalette","latitude":"45.42083","longitude":"0.23361","population":"99","region":"75","departement":"16","arrondissement":"161","commune":"16394"},
{"name":"Saint-Laurent-des-Combes","latitude":"45.35556","longitude":"0.03639","population":"96","region":"75","departement":"16","arrondissement":"162","commune":"16331"}
]