[
{"name":"Pont-Audemer","latitude":"49.35417","longitude":"0.51389","population":"8599","region":"28","departement":"27","arrondissement":"272","commune":"27467"},
{"name":"Saint-Germain-Village","latitude":"49.34917","longitude":"0.50389","population":"1522","region":"28","departement":"27","arrondissement":"272","commune":"27549"},
{"name":"Manneville-sur-Risle","latitude":"49.3575","longitude":"0.53944","population":"1433","region":"28","departement":"27","arrondissement":"272","commune":"27385"},
{"name":"Lieurey","latitude":"49.23","longitude":"0.49917","population":"1387","region":"28","departement":"27","arrondissement":"272","commune":"27367"},
{"name":"Moyaux","latitude":"49.19528","longitude":"0.35534","population":"1356","region":"28","departement":"14","arrondissement":"143","commune":"14460"},
{"name":"Épaignes","latitude":"49.27956","longitude":"0.44031","population":"1332","region":"28","departement":"27","arrondissement":"272","commune":"27218"},
{"name":"Corneville-sur-Risle","latitude":"49.33694","longitude":"0.59417","population":"1232","region":"28","departement":"27","arrondissement":"272","commune":"27174"},
{"name":"Toutainville","latitude":"49.36361","longitude":"0.46222","population":"1204","region":"28","departement":"27","arrondissement":"272","commune":"27656"},
{"name":"Cormeilles","latitude":"49.24792","longitude":"0.37697","population":"1185","region":"28","departement":"27","arrondissement":"272","commune":"27170"},
{"name":"Boulleville","latitude":"49.36806","longitude":"0.39222","population":"967","region":"28","departement":"27","arrondissement":"272","commune":"27100"},
{"name":"Campigny","latitude":"49.31056","longitude":"0.55389","population":"965","region":"28","departement":"27","arrondissement":"272","commune":"27126"},
{"name":"Appeville-Annebault","latitude":"49.3299","longitude":"0.6434","population":"882","region":"28","departement":"27","arrondissement":"272","commune":"27018"},
{"name":"Montfort-sur-Risle","latitude":"49.29528","longitude":"0.66444","population":"824","region":"28","departement":"27","arrondissement":"272","commune":"27413"},
{"name":"Saint-Philbert-sur-Risle","latitude":"49.2948","longitude":"0.6506","population":"808","region":"28","departement":"27","arrondissement":"272","commune":"27587"},
{"name":"Saint-Mards-de-Blacarville","latitude":"49.3785","longitude":"0.5147","population":"771","region":"28","departement":"27","arrondissement":"272","commune":"27563"},
{"name":"Saint-Georges-du-Vièvre","latitude":"49.24417","longitude":"0.58583","population":"720","region":"28","departement":"27","arrondissement":"272","commune":"27542"},
{"name":"Tourville-sur-Pont-Audemer","latitude":"49.33139","longitude":"0.50833","population":"716","region":"28","departement":"27","arrondissement":"272","commune":"27655"},
{"name":"Pont-Authou","latitude":"49.24333","longitude":"0.70083","population":"711","region":"28","departement":"27","arrondissement":"272","commune":"27468"},
{"name":"Fourmetot","latitude":"49.38167","longitude":"0.57194","population":"638","region":"28","departement":"27","arrondissement":"272","commune":"27263"},
{"name":"Saint-Pierre-de-Cormeilles","latitude":"49.23694","longitude":"0.38417","population":"620","region":"28","departement":"27","arrondissement":"272","commune":"27591"},
{"name":"Étréville","latitude":"49.37194","longitude":"0.65028","population":"606","region":"28","departement":"27","arrondissement":"272","commune":"27227"},
{"name":"Saint-Maclou","latitude":"49.36472","longitude":"0.41","population":"559","region":"28","departement":"27","arrondissement":"272","commune":"27561"},
{"name":"Condé-sur-Risle","latitude":"49.31361","longitude":"0.61639","population":"543","region":"28","departement":"27","arrondissement":"272","commune":"27167"},
{"name":"Saint-Étienne-l'Allier","latitude":"49.26556","longitude":"0.55306","population":"495","region":"28","departement":"27","arrondissement":"272","commune":"27538"},
{"name":"Brestot","latitude":"49.35167","longitude":"0.68528","population":"476","region":"28","departement":"27","arrondissement":"272","commune":"27110"},
{"name":"Glos-sur-Risle","latitude":"49.26972","longitude":"0.68083","population":"433","region":"28","departement":"27","arrondissement":"272","commune":"27288"},
{"name":"Les Préaux","latitude":"49.32417","longitude":"0.47694","population":"430","region":"28","departement":"27","arrondissement":"272","commune":"27476"},
{"name":"Selles","latitude":"49.30194","longitude":"0.50611","population":"423","region":"28","departement":"27","arrondissement":"272","commune":"27620"},
{"name":"Saint-Symphorien","latitude":"49.31417","longitude":"0.46694","population":"409","region":"28","departement":"27","arrondissement":"272","commune":"27606"},
{"name":"Saint-Christophe-sur-Condé","latitude":"49.28722","longitude":"0.59972","population":"397","region":"28","departement":"27","arrondissement":"272","commune":"27522"},
{"name":"Fort-Moville","latitude":"49.33333","longitude":"0.41889","population":"387","region":"28","departement":"27","arrondissement":"272","commune":"27258"},
{"name":"Morainville-Jouveaux","latitude":"49.2219","longitude":"0.4463","population":"370","region":"28","departement":"27","arrondissement":"272","commune":"27415"},
{"name":"Authou","latitude":"49.23139","longitude":"0.69278","population":"355","region":"28","departement":"27","arrondissement":"272","commune":"27028"},
{"name":"Saint-Aubin-de-Scellon","latitude":"49.1725","longitude":"0.47472","population":"344","region":"28","departement":"27","arrondissement":"272","commune":"27512"},
{"name":"Freneuse-sur-Risle","latitude":"49.25306","longitude":"0.67361","population":"338","region":"28","departement":"27","arrondissement":"272","commune":"27267"},
{"name":"Saint-Grégoire-du-Vièvre","latitude":"49.24361","longitude":"0.63556","population":"338","region":"28","departement":"27","arrondissement":"272","commune":"27550"},
{"name":"Valletot","latitude":"49.36389","longitude":"0.62306","population":"337","region":"28","departement":"27","arrondissement":"272","commune":"27669"},
{"name":"La Chapelle-Bayvel","latitude":"49.27194","longitude":"0.40278","population":"320","region":"28","departement":"27","arrondissement":"272","commune":"27146"},
{"name":"Saint-Victor-d'Épine","latitude":"49.20944","longitude":"0.60667","population":"319","region":"28","departement":"27","arrondissement":"272","commune":"27609"},
{"name":"Martainville","latitude":"49.30667","longitude":"0.40639","population":"317","region":"28","departement":"27","arrondissement":"272","commune":"27393"},
{"name":"Giverville","latitude":"49.19583","longitude":"0.56917","population":"316","region":"28","departement":"27","arrondissement":"272","commune":"27286"},
{"name":"Saint-Siméon","latitude":"49.285","longitude":"0.52","population":"315","region":"28","departement":"27","arrondissement":"272","commune":"27603"},
{"name":"Le Torpt","latitude":"49.33278","longitude":"0.37389","population":"312","region":"28","departement":"27","arrondissement":"272","commune":"27646"},
{"name":"Triqueville","latitude":"49.33639","longitude":"0.44083","population":"308","region":"28","departement":"27","arrondissement":"272","commune":"27662"},
{"name":"Fontaine-la-Louvet","latitude":"49.165","longitude":"0.44833","population":"298","region":"28","departement":"27","arrondissement":"272","commune":"27252"},
{"name":"La Lande-Saint-Léger","latitude":"49.2993","longitude":"0.3653","population":"296","region":"28","departement":"27","arrondissement":"272","commune":"27361"},
{"name":"Berthouville","latitude":"49.1796","longitude":"0.6353","population":"288","region":"28","departement":"27","arrondissement":"272","commune":"27061"},
{"name":"Franqueville","latitude":"49.175","longitude":"0.69","population":"287","region":"28","departement":"27","arrondissement":"272","commune":"27266"},
{"name":"Asnières","latitude":"49.19556","longitude":"0.39833","population":"286","region":"28","departement":"27","arrondissement":"272","commune":"27021"},
{"name":"Éturqueraye","latitude":"49.37028","longitude":"0.69417","population":"283","region":"28","departement":"27","arrondissement":"272","commune":"27228"},
{"name":"Boissy-Lamberville","latitude":"49.16722","longitude":"0.57667","population":"282","region":"28","departement":"27","arrondissement":"272","commune":"27079"},
{"name":"Boisney","latitude":"49.15444","longitude":"0.655","population":"277","region":"28","departement":"27","arrondissement":"272","commune":"27074"},
{"name":"Fumichon","latitude":"49.17306","longitude":"0.37083","population":"274","region":"28","departement":"14","arrondissement":"143","commune":"14293"},
{"name":"Saint-Pierre-des-Ifs","latitude":"49.27","longitude":"0.60833","population":"254","region":"28","departement":"27","arrondissement":"272","commune":"27594"},
{"name":"Saint-Pierre-de-Salerne","latitude":"49.20167","longitude":"0.66389","population":"254","region":"28","departement":"27","arrondissement":"272","commune":"27592"},
{"name":"Saint-Martin-Saint-Firmin","latitude":"49.28833","longitude":"0.56056","population":"253","region":"28","departement":"27","arrondissement":"272","commune":"27571"},
{"name":"Le Bois-Hellain","latitude":"49.2786","longitude":"0.3905","population":"234","region":"28","departement":"27","arrondissement":"272","commune":"27071"},
{"name":"Le Theil-Nolent","latitude":"49.15417","longitude":"0.53861","population":"221","region":"28","departement":"27","arrondissement":"272","commune":"27627"},
{"name":"Saint-Cyr-de-Salerne","latitude":"49.18306","longitude":"0.65778","population":"213","region":"28","departement":"27","arrondissement":"272","commune":"27527"},
{"name":"Fresne-Cauverville","latitude":"49.20111","longitude":"0.46444","population":"206","region":"28","departement":"27","arrondissement":"272","commune":"27269"},
{"name":"Saint-Sylvestre-de-Cormeilles","latitude":"49.2444","longitude":"0.4292","population":"203","region":"28","departement":"27","arrondissement":"272","commune":"27605"},
{"name":"Cauverville-en-Roumois","latitude":"49.35083","longitude":"0.64639","population":"202","region":"28","departement":"27","arrondissement":"272","commune":"27134"},
{"name":"La Noë-Poulain","latitude":"49.26667","longitude":"0.51667","population":"201","region":"28","departement":"27","arrondissement":"272","commune":"27435"},
{"name":"Neuville-sur-Authou","latitude":"49.21139","longitude":"0.63722","population":"192","region":"28","departement":"27","arrondissement":"272","commune":"27433"},
{"name":"Folleville","latitude":"49.15361","longitude":"0.50611","population":"190","region":"28","departement":"27","arrondissement":"272","commune":"27248"},
{"name":"Saint-Sulpice-de-Grimbouville","latitude":"49.3767","longitude":"0.4472","population":"182","region":"28","departement":"27","arrondissement":"272","commune":"27604"},
{"name":"Épreville-en-Lieuvin","latitude":"49.20222","longitude":"0.53639","population":"178","region":"28","departement":"27","arrondissement":"272","commune":"27222"},
{"name":"Piencourt","latitude":"49.16667","longitude":"0.4","population":"173","region":"28","departement":"27","arrondissement":"272","commune":"27455"},
{"name":"Brétigny","latitude":"49.21361","longitude":"0.67667","population":"170","region":"28","departement":"27","arrondissement":"272","commune":"27113"},
{"name":"Le Favril","latitude":"49.18278","longitude":"0.53139","population":"166","region":"28","departement":"27","arrondissement":"272","commune":"27237"},
{"name":"Colletot","latitude":"49.35028","longitude":"0.61889","population":"162","region":"28","departement":"27","arrondissement":"272","commune":"27163"},
{"name":"Bazoques","latitude":"49.17028","longitude":"0.54917","population":"162","region":"28","departement":"27","arrondissement":"272","commune":"27046"},
{"name":"Livet-sur-Authou","latitude":"49.22861","longitude":"0.66778","population":"147","region":"28","departement":"27","arrondissement":"272","commune":"27371"},
{"name":"La Poterie-Mathieu","latitude":"49.25778","longitude":"0.51806","population":"144","region":"28","departement":"27","arrondissement":"272","commune":"27475"},
{"name":"Vannecrocq","latitude":"49.30639","longitude":"0.42556","population":"131","region":"28","departement":"27","arrondissement":"272","commune":"27671"},
{"name":"Hecmanville","latitude":"49.17389","longitude":"0.66","population":"127","region":"28","departement":"27","arrondissement":"272","commune":"27325"},
{"name":"Bailleul-la-Vallée","latitude":"49.2","longitude":"0.42778","population":"120","region":"28","departement":"27","arrondissement":"272","commune":"27035"},
{"name":"Morsan","latitude":"49.18194","longitude":"0.59417","population":"120","region":"28","departement":"27","arrondissement":"272","commune":"27418"},
{"name":"Saint-Benoît-des-Ombres","latitude":"49.23139","longitude":"0.62194","population":"117","region":"28","departement":"27","arrondissement":"272","commune":"27520"},
{"name":"Saint-Georges-du-Mesnil","latitude":"49.21306","longitude":"0.55667","population":"106","region":"28","departement":"27","arrondissement":"272","commune":"27541"},
{"name":"Heudreville-en-Lieuvin","latitude":"49.19583","longitude":"0.50417","population":"105","region":"28","departement":"27","arrondissement":"272","commune":"27334"},
{"name":"Barville","latitude":"49.1571","longitude":"0.4787","population":"76","region":"28","departement":"27","arrondissement":"272","commune":"27042"},
{"name":"Notre-Dame-d'Épine","latitude":"49.19722","longitude":"0.60083","population":"75","region":"28","departement":"27","arrondissement":"272","commune":"27441"},
{"name":"Noards","latitude":"49.21389","longitude":"0.50778","population":"61","region":"28","departement":"27","arrondissement":"272","commune":"27434"},
{"name":"Saint-Jean-de-la-Léqueraye","latitude":"49.22389","longitude":"0.56278","population":"48","region":"28","departement":"27","arrondissement":"272","commune":"27551"}
]