[
{"name":"Alès","latitude":"44.12722","longitude":"4.08083","population":"41432","region":"76","departement":"30","arrondissement":"301","commune":"30007"},
{"name":"La Grand-Combe","latitude":"44.21111","longitude":"4.02944","population":"5150","region":"76","departement":"30","arrondissement":"301","commune":"30132"},
{"name":"Saint-Privat-des-Vieux","latitude":"44.1441","longitude":"4.13","population":"4430","region":"76","departement":"30","arrondissement":"301","commune":"30294"},
{"name":"Saint-Martin-de-Valgalgues","latitude":"44.16306","longitude":"4.08222","population":"4162","region":"76","departement":"30","arrondissement":"301","commune":"30284"},
{"name":"Rousson","latitude":"44.1783","longitude":"4.1507","population":"3643","region":"76","departement":"30","arrondissement":"301","commune":"30223"},
{"name":"Saint-Ambroix","latitude":"44.2602","longitude":"4.1984","population":"3349","region":"76","departement":"30","arrondissement":"301","commune":"30227"},
{"name":"Bessèges","latitude":"44.29167","longitude":"4.10056","population":"3169","region":"76","departement":"30","arrondissement":"301","commune":"30037"},
{"name":"Salindres","latitude":"44.17139","longitude":"4.15778","population":"3058","region":"76","departement":"30","arrondissement":"301","commune":"30305"},
{"name":"Saint-Julien-les-Rosiers","latitude":"44.1738","longitude":"4.1102","population":"3021","region":"76","departement":"30","arrondissement":"301","commune":"30274"},
{"name":"Saint-Jean-du-Gard","latitude":"44.10472","longitude":"3.88611","population":"2687","region":"76","departement":"30","arrondissement":"301","commune":"30269"},
{"name":"Les Salles-du-Gardon","latitude":"44.20694","longitude":"4.03472","population":"2551","region":"76","departement":"30","arrondissement":"301","commune":"30307"},
{"name":"Cendras","latitude":"44.15528","longitude":"4.05361","population":"1930","region":"76","departement":"30","arrondissement":"301","commune":"30077"},
{"name":"Les Mages","latitude":"44.22806","longitude":"4.16583","population":"1827","region":"76","departement":"30","arrondissement":"301","commune":"30152"},
{"name":"Molières-sur-Cèze","latitude":"44.2602","longitude":"4.1606","population":"1595","region":"76","departement":"30","arrondissement":"301","commune":"30171"},
{"name":"Mons","latitude":"44.1144","longitude":"4.175","population":"1458","region":"76","departement":"30","arrondissement":"301","commune":"30173"},
{"name":"Branoux-les-Taillades","latitude":"44.22028","longitude":"3.99028","population":"1336","region":"76","departement":"30","arrondissement":"301","commune":"30051"},
{"name":"Saint-Jean-du-Pin","latitude":"44.1162","longitude":"4.0508","population":"1320","region":"76","departement":"30","arrondissement":"301","commune":"30270"},
{"name":"Laval-Pradel","latitude":"44.23167","longitude":"4.05889","population":"1174","region":"76","departement":"30","arrondissement":"301","commune":"30142"},
{"name":"Saint-Florent-sur-Auzonnet","latitude":"44.24222","longitude":"4.11139","population":"1150","region":"76","departement":"30","arrondissement":"301","commune":"30253"},
{"name":"Gagnières","latitude":"44.30665","longitude":"4.12897","population":"1090","region":"76","departement":"30","arrondissement":"301","commune":"30120"},
{"name":"Méjannes-lès-Alès","latitude":"44.10083","longitude":"4.15472","population":"1073","region":"76","departement":"30","arrondissement":"301","commune":"30165"},
{"name":"Meyrannes","latitude":"44.27083","longitude":"4.16778","population":"861","region":"76","departement":"30","arrondissement":"301","commune":"30167"},
{"name":"Robiac-Rochessadoule","latitude":"44.27889","longitude":"4.08639","population":"848","region":"76","departement":"30","arrondissement":"301","commune":"30216"},
{"name":"Le Martinet","latitude":"44.25306","longitude":"4.085","population":"795","region":"76","departement":"30","arrondissement":"301","commune":"30159"},
{"name":"Chamborigaud","latitude":"44.30139","longitude":"3.97778","population":"783","region":"76","departement":"30","arrondissement":"301","commune":"30080"},
{"name":"Saint-Jean-de-Valériscle","latitude":"44.23306","longitude":"4.14222","population":"727","region":"76","departement":"30","arrondissement":"301","commune":"30268"},
{"name":"Le Collet-de-Dèze","latitude":"44.24556","longitude":"3.92333","population":"676","region":"76","departement":"48","arrondissement":"481","commune":"48051"},
{"name":"Saint-Brès","latitude":"44.2773","longitude":"4.1975","population":"646","region":"76","departement":"30","arrondissement":"301","commune":"30237"},
{"name":"Saint-Julien-de-Cassagnas","latitude":"44.2116","longitude":"4.1984","population":"636","region":"76","departement":"30","arrondissement":"301","commune":"30271"},
{"name":"Monteils","latitude":"44.0892","longitude":"4.1822","population":"607","region":"76","departement":"30","arrondissement":"301","commune":"30177"},
{"name":"Mialet","latitude":"44.11083","longitude":"3.94306","population":"575","region":"76","departement":"30","arrondissement":"301","commune":"30168"},
{"name":"Sainte-Cécile-d'Andorge","latitude":"44.25194","longitude":"3.97611","population":"564","region":"76","departement":"30","arrondissement":"301","commune":"30239"},
{"name":"Saint-Sébastien-d'Aigrefeuille","latitude":"44.1072","longitude":"3.995","population":"507","region":"76","departement":"30","arrondissement":"301","commune":"30298"},
{"name":"Saint-André-de-Cruzières","latitude":"44.31472","longitude":"4.21639","population":"492","region":"84","departement":"07","arrondissement":"071","commune":"07211"},
{"name":"Vialas","latitude":"44.33361","longitude":"3.89583","population":"430","region":"76","departement":"48","arrondissement":"481","commune":"48194"},
{"name":"Bordezac","latitude":"44.31472","longitude":"4.07667","population":"366","region":"76","departement":"30","arrondissement":"301","commune":"30045"},
{"name":"Portes","latitude":"44.27056","longitude":"4.02056","population":"363","region":"76","departement":"30","arrondissement":"301","commune":"30203"},
{"name":"La Vernarède","latitude":"44.28861","longitude":"4.00917","population":"354","region":"76","departement":"30","arrondissement":"301","commune":"30345"},
{"name":"Courry","latitude":"44.29917","longitude":"4.15583","population":"309","region":"76","departement":"30","arrondissement":"301","commune":"30097"},
{"name":"Chambon","latitude":"44.30194","longitude":"4.01806","population":"281","region":"76","departement":"30","arrondissement":"301","commune":"30079"},
{"name":"Saint-Paul-la-Coste","latitude":"44.1495","longitude":"3.9698","population":"279","region":"76","departement":"30","arrondissement":"301","commune":"30291"},
{"name":"Peyremale","latitude":"44.30056","longitude":"4.06222","population":"278","region":"76","departement":"30","arrondissement":"301","commune":"30194"},
{"name":"Sénéchas","latitude":"44.32528","longitude":"4.02778","population":"228","region":"76","departement":"30","arrondissement":"301","commune":"30316"},
{"name":"Les Plans","latitude":"44.14222","longitude":"4.21083","population":"219","region":"76","departement":"30","arrondissement":"301","commune":"30197"},
{"name":"Saint-Michel-de-Dèze","latitude":"44.2503","longitude":"3.8969","population":"210","region":"76","departement":"48","arrondissement":"481","commune":"48173"},
{"name":"Servas","latitude":"44.1575","longitude":"4.19611","population":"195","region":"76","departement":"30","arrondissement":"301","commune":"30318"},
{"name":"Saint-Martin-de-Boubaux","latitude":"44.2","longitude":"3.92222","population":"174","region":"76","departement":"48","arrondissement":"481","commune":"48170"},
{"name":"Soustelle","latitude":"44.175","longitude":"4.01139","population":"151","region":"76","departement":"30","arrondissement":"301","commune":"30323"},
{"name":"Saint-Julien-des-Points","latitude":"44.2557","longitude":"3.9662","population":"108","region":"76","departement":"48","arrondissement":"481","commune":"48163"},
{"name":"Lamelouze","latitude":"44.19389","longitude":"3.96389","population":"94","region":"76","departement":"30","arrondissement":"301","commune":"30137"}
]