[
{"name":"Thiviers","latitude":"45.4175","longitude":"0.92139","population":"3121","region":"75","departement":"24","arrondissement":"242","commune":"24551"},
{"name":"La Coquille","latitude":"45.54222","longitude":"0.97639","population":"1364","region":"75","departement":"24","arrondissement":"242","commune":"24133"},
{"name":"Saint-Pardoux-la-Rivière","latitude":"45.49333","longitude":"0.74583","population":"1172","region":"75","departement":"24","arrondissement":"242","commune":"24479"},
{"name":"Nantheuil","latitude":"45.41389","longitude":"0.94444","population":"1047","region":"75","departement":"24","arrondissement":"242","commune":"24304"},
{"name":"Saint-Saud-Lacoussière","latitude":"45.5436","longitude":"0.8198","population":"864","region":"75","departement":"24","arrondissement":"242","commune":"24498"},
{"name":"Négrondes","latitude":"45.34444","longitude":"0.86417","population":"818","region":"75","departement":"24","arrondissement":"243","commune":"24308"},
{"name":"Corgnac-sur-l'Isle","latitude":"45.37639","longitude":"0.9475","population":"801","region":"75","departement":"24","arrondissement":"242","commune":"24134"},
{"name":"Mialet","latitude":"45.54972","longitude":"0.90417","population":"665","region":"75","departement":"24","arrondissement":"242","commune":"24269"},
{"name":"Saint-Jory-de-Chalais","latitude":"45.4986","longitude":"0.8999","population":"615","region":"75","departement":"24","arrondissement":"242","commune":"24428"},
{"name":"Milhac-de-Nontron","latitude":"45.4675","longitude":"0.78056","population":"594","region":"75","departement":"24","arrondissement":"242","commune":"24271"},
{"name":"Eyzerac","latitude":"45.38889","longitude":"0.92111","population":"573","region":"75","departement":"24","arrondissement":"242","commune":"24171"},
{"name":"Saint-Front-la-Rivière","latitude":"45.47222","longitude":"0.72639","population":"527","region":"75","departement":"24","arrondissement":"242","commune":"24410"},
{"name":"Saint-Germain-des-Prés","latitude":"45.34194","longitude":"0.99139","population":"512","region":"75","departement":"24","arrondissement":"243","commune":"24417"},
{"name":"Saint-Paul-la-Roche","latitude":"45.4775","longitude":"0.99889","population":"512","region":"75","departement":"24","arrondissement":"242","commune":"24481"},
{"name":"Condat-sur-Trincou","latitude":"45.38222","longitude":"0.70806","population":"502","region":"75","departement":"24","arrondissement":"242","commune":"24129"},
{"name":"Villars","latitude":"45.42028","longitude":"0.755","population":"466","region":"75","departement":"24","arrondissement":"242","commune":"24582"},
{"name":"Chalais","latitude":"45.50806","longitude":"0.9275","population":"455","region":"75","departement":"24","arrondissement":"242","commune":"24095"},
{"name":"Saint-Pierre-de-Côle","latitude":"45.37139","longitude":"0.79222","population":"451","region":"75","departement":"24","arrondissement":"242","commune":"24485"},
{"name":"Saint-Pierre-de-Frugie","latitude":"45.5733","longitude":"0.9998","population":"413","region":"75","departement":"24","arrondissement":"242","commune":"24486"},
{"name":"Saint-Priest-les-Fougères","latitude":"45.54306","longitude":"1.01083","population":"393","region":"75","departement":"24","arrondissement":"242","commune":"24489"},
{"name":"Saint-Martin-de-Fressengeas","latitude":"45.4437","longitude":"0.8459","population":"393","region":"75","departement":"24","arrondissement":"242","commune":"24453"},
{"name":"La Chapelle-Faucher","latitude":"45.37083","longitude":"0.75194","population":"386","region":"75","departement":"24","arrondissement":"242","commune":"24107"},
{"name":"Quinsac","latitude":"45.42917","longitude":"0.70583","population":"384","region":"75","departement":"24","arrondissement":"242","commune":"24346"},
{"name":"Sarrazac","latitude":"45.43611","longitude":"1.03","population":"381","region":"75","departement":"24","arrondissement":"242","commune":"24522"},
{"name":"Saint-Jean-de-Côle","latitude":"45.42083","longitude":"0.83833","population":"351","region":"75","departement":"24","arrondissement":"242","commune":"24425"},
{"name":"Saint-Romain-et-Saint-Clément","latitude":"45.42389","longitude":"0.86361","population":"322","region":"75","departement":"24","arrondissement":"242","commune":"24496"},
{"name":"Saint-Sulpice-d'Excideuil","latitude":"45.38944","longitude":"1.00667","population":"318","region":"75","departement":"24","arrondissement":"242","commune":"24505"},
{"name":"Champs-Romain","latitude":"45.53111","longitude":"0.775","population":"313","region":"75","departement":"24","arrondissement":"242","commune":"24101"},
{"name":"Nanthiat","latitude":"45.40806","longitude":"0.98556","population":"282","region":"75","departement":"24","arrondissement":"242","commune":"24305"},
{"name":"Clermont-d'Excideuil","latitude":"45.365","longitude":"1.05111","population":"265","region":"75","departement":"24","arrondissement":"243","commune":"24124"},
{"name":"Vaunac","latitude":"45.36417","longitude":"0.86417","population":"261","region":"75","departement":"24","arrondissement":"242","commune":"24567"},
{"name":"Saint-Jory-las-Bloux","latitude":"45.36222","longitude":"0.96583","population":"255","region":"75","departement":"24","arrondissement":"243","commune":"24429"},
{"name":"Savignac-de-Nontron","latitude":"45.54194","longitude":"0.72306","population":"194","region":"75","departement":"24","arrondissement":"242","commune":"24525"},
{"name":"Lempzours","latitude":"45.36139","longitude":"0.81833","population":"156","region":"75","departement":"24","arrondissement":"242","commune":"24238"}
]