[
{"name":"Limoges","latitude":"45.8343","longitude":"1.2626","population":"139216","region":"75","departement":"87","arrondissement":"872","commune":"87085"},
{"name":"Panazol","latitude":"45.83889","longitude":"1.31","population":"10303","region":"75","departement":"87","arrondissement":"872","commune":"87114"},
{"name":"Couzeix","latitude":"45.87611","longitude":"1.23861","population":"8056","region":"75","departement":"87","arrondissement":"872","commune":"87050"},
{"name":"Le Palais-sur-Vienne","latitude":"45.86417","longitude":"1.32306","population":"5946","region":"75","departement":"87","arrondissement":"872","commune":"87113"},
{"name":"Ambazac","latitude":"45.95778","longitude":"1.4","population":"5445","region":"75","departement":"87","arrondissement":"872","commune":"87002"},
{"name":"Verneuil-sur-Vienne","latitude":"45.84889","longitude":"1.12667","population":"4209","region":"75","departement":"87","arrondissement":"872","commune":"87201"},
{"name":"Rilhac-Rancon","latitude":"45.89694","longitude":"1.31861","population":"4141","region":"75","departement":"87","arrondissement":"872","commune":"87125"},
{"name":"Saint-Priest-Taurion","latitude":"45.88667","longitude":"1.4","population":"2736","region":"75","departement":"87","arrondissement":"872","commune":"87178"},
{"name":"Saint-Just-le-Martel","latitude":"45.8625","longitude":"1.38778","population":"2455","region":"75","departement":"87","arrondissement":"872","commune":"87156"},
{"name":"Saint-Gence","latitude":"45.92167","longitude":"1.13778","population":"1989","region":"75","departement":"87","arrondissement":"872","commune":"87143"},
{"name":"Veyrac","latitude":"45.89611","longitude":"1.10583","population":"1965","region":"75","departement":"87","arrondissement":"872","commune":"87202"},
{"name":"Chaptelat","latitude":"45.90889","longitude":"1.25944","population":"1730","region":"75","departement":"87","arrondissement":"872","commune":"87038"},
{"name":"Compreignac","latitude":"45.99194","longitude":"1.27472","population":"1713","region":"75","departement":"87","arrondissement":"871","commune":"87047"},
{"name":"Saint-Jouvent","latitude":"45.9575","longitude":"1.20472","population":"1618","region":"75","departement":"87","arrondissement":"872","commune":"87152"},
{"name":"Nantiat","latitude":"46.00917","longitude":"1.17333","population":"1614","region":"75","departement":"87","arrondissement":"871","commune":"87103"},
{"name":"Nieul","latitude":"45.92444","longitude":"1.17139","population":"1600","region":"75","departement":"87","arrondissement":"872","commune":"87107"},
{"name":"Bonnac-la-Côte","latitude":"45.94139","longitude":"1.28472","population":"1534","region":"75","departement":"87","arrondissement":"872","commune":"87020"},
{"name":"Peyrilhac","latitude":"45.94972","longitude":"1.13583","population":"1182","region":"75","departement":"87","arrondissement":"872","commune":"87118"},
{"name":"Razès","latitude":"46.0325","longitude":"1.33861","population":"1107","region":"75","departement":"87","arrondissement":"871","commune":"87122"},
{"name":"Saint-Sylvestre","latitude":"45.99583","longitude":"1.37694","population":"904","region":"75","departement":"87","arrondissement":"872","commune":"87183"},
{"name":"Chamboret","latitude":"46.00528","longitude":"1.13556","population":"760","region":"75","departement":"87","arrondissement":"871","commune":"87033"},
{"name":"Saint-Pardoux","latitude":"46.05806","longitude":"1.28139","population":"536","region":"75","departement":"87","arrondissement":"871","commune":"87173"},
{"name":"Thouron","latitude":"45.99889","longitude":"1.21917","population":"506","region":"75","departement":"87","arrondissement":"871","commune":"87197"},
{"name":"Berneuil","latitude":"46.06889","longitude":"1.10667","population":"414","region":"75","departement":"87","arrondissement":"871","commune":"87012"},
{"name":"Vaulry","latitude":"46.0225","longitude":"1.08583","population":"407","region":"75","departement":"87","arrondissement":"871","commune":"87198"},
{"name":"Saint-Yrieix-sous-Aixe","latitude":"45.85833","longitude":"1.0775","population":"398","region":"75","departement":"87","arrondissement":"872","commune":"87188"},
{"name":"Saint-Symphorien-sur-Couze","latitude":"46.05861","longitude":"1.235","population":"232","region":"75","departement":"87","arrondissement":"871","commune":"87184"},
{"name":"Le Buis","latitude":"46.03556","longitude":"1.2025","population":"197","region":"75","departement":"87","arrondissement":"871","commune":"87023"},
{"name":"Breuilaufa","latitude":"46.0425","longitude":"1.10472","population":"148","region":"75","departement":"87","arrondissement":"871","commune":"87022"}
]