[
{"name":"Lannemezan","latitude":"43.12389","longitude":"0.38472","population":"5789","region":"76","departement":"65","arrondissement":"652","commune":"65258"},
{"name":"Montréjeau","latitude":"43.08472","longitude":"0.56889","population":"2797","region":"76","departement":"31","arrondissement":"312","commune":"31390"},
{"name":"Boulogne-sur-Gesse","latitude":"43.29","longitude":"0.6452","population":"1612","region":"76","departement":"31","arrondissement":"312","commune":"31080"},
{"name":"Villeneuve-de-Rivière","latitude":"43.1208","longitude":"0.6668","population":"1569","region":"76","departement":"31","arrondissement":"312","commune":"31585"},
{"name":"Gourdan-Polignan","latitude":"43.07778","longitude":"0.57722","population":"1386","region":"76","departement":"31","arrondissement":"312","commune":"31224"},
{"name":"Labarthe-Rivière","latitude":"43.08028","longitude":"0.67194","population":"1351","region":"76","departement":"31","arrondissement":"312","commune":"31247"},
{"name":"La Barthe-de-Neste","latitude":"43.07944","longitude":"0.38333","population":"1167","region":"76","departement":"65","arrondissement":"652","commune":"65069"},
{"name":"Trie-sur-Baïse","latitude":"43.3215","longitude":"0.3707","population":"1080","region":"76","departement":"65","arrondissement":"653","commune":"65452"},
{"name":"Saint-Laurent-de-Neste","latitude":"43.0775","longitude":"0.48194","population":"920","region":"76","departement":"65","arrondissement":"652","commune":"65389"},
{"name":"Pointis-de-Rivière","latitude":"43.08694","longitude":"0.6175","population":"859","region":"76","departement":"31","arrondissement":"312","commune":"31426"},
{"name":"Castelnau-Magnoac","latitude":"43.29472","longitude":"0.5075","population":"773","region":"76","departement":"65","arrondissement":"653","commune":"65129"},
{"name":"Galan","latitude":"43.2216","longitude":"0.4085","population":"736","region":"76","departement":"65","arrondissement":"653","commune":"65183"},
{"name":"Clarac","latitude":"43.11372","longitude":"0.61619","population":"566","region":"76","departement":"31","arrondissement":"312","commune":"31147"},
{"name":"Ponlat-Taillebourg","latitude":"43.1118","longitude":"0.6002","population":"562","region":"76","departement":"31","arrondissement":"312","commune":"31430"},
{"name":"Villeneuve-Lécussan","latitude":"43.15","longitude":"0.49861","population":"556","region":"76","departement":"31","arrondissement":"312","commune":"31586"},
{"name":"Ausson","latitude":"43.08167","longitude":"0.59583","population":"538","region":"76","departement":"31","arrondissement":"312","commune":"31031"},
{"name":"Blajan","latitude":"43.26028","longitude":"0.64389","population":"505","region":"76","departement":"31","arrondissement":"312","commune":"31070"},
{"name":"Bordes-de-Rivière","latitude":"43.10667","longitude":"0.63333","population":"481","region":"76","departement":"31","arrondissement":"312","commune":"31076"},
{"name":"Huos","latitude":"43.0785","longitude":"0.5966","population":"469","region":"76","departement":"31","arrondissement":"312","commune":"31238"},
{"name":"Tuzaguet","latitude":"43.07694","longitude":"0.44056","population":"459","region":"76","departement":"65","arrondissement":"652","commune":"65455"},
{"name":"Pinas","latitude":"43.11528","longitude":"0.43611","population":"456","region":"76","departement":"65","arrondissement":"652","commune":"65363"},
{"name":"Clarens","latitude":"43.16278","longitude":"0.41444","population":"450","region":"76","departement":"65","arrondissement":"652","commune":"65150"},
{"name":"Cantaous","latitude":"43.1028","longitude":"0.4436","population":"439","region":"76","departement":"65","arrondissement":"652","commune":"65482"},
{"name":"Monléon-Magnoac","latitude":"43.25139","longitude":"0.51833","population":"439","region":"76","departement":"65","arrondissement":"653","commune":"65315"},
{"name":"Ardiège","latitude":"43.06944","longitude":"0.6425","population":"417","region":"76","departement":"31","arrondissement":"312","commune":"31013"},
{"name":"Le Cuing","latitude":"43.14528","longitude":"0.61167","population":"413","region":"76","departement":"31","arrondissement":"312","commune":"31159"},
{"name":"Escala","latitude":"43.0825","longitude":"0.405","population":"396","region":"76","departement":"65","arrondissement":"652","commune":"65159"},
{"name":"Les Tourreilles","latitude":"43.1127","longitude":"0.5525","population":"384","region":"76","departement":"31","arrondissement":"312","commune":"31556"},
{"name":"Saint-Plancard","latitude":"43.17","longitude":"0.57417","population":"378","region":"76","departement":"31","arrondissement":"312","commune":"31513"},
{"name":"Martres-de-Rivière","latitude":"43.07889","longitude":"0.64139","population":"376","region":"76","departement":"31","arrondissement":"312","commune":"31323"},
{"name":"Franquevielle","latitude":"43.13667","longitude":"0.53361","population":"354","region":"76","departement":"31","arrondissement":"312","commune":"31197"},
{"name":"Mazères-de-Neste","latitude":"43.0713","longitude":"0.5444","population":"326","region":"76","departement":"65","arrondissement":"652","commune":"65307"},
{"name":"Lécussan","latitude":"43.1604","longitude":"0.5012","population":"311","region":"76","departement":"31","arrondissement":"312","commune":"31289"},
{"name":"Larroque","latitude":"43.1955","longitude":"0.6101","population":"308","region":"76","departement":"31","arrondissement":"312","commune":"31276"},
{"name":"Campistrous","latitude":"43.15194","longitude":"0.37722","population":"303","region":"76","departement":"65","arrondissement":"652","commune":"65125"},
{"name":"Lodes","latitude":"43.16778","longitude":"0.67472","population":"278","region":"76","departement":"31","arrondissement":"312","commune":"31302"},
{"name":"Uglas","latitude":"43.14111","longitude":"0.43361","population":"278","region":"76","departement":"65","arrondissement":"652","commune":"65456"},
{"name":"Saint-Ignan","latitude":"43.15917","longitude":"0.69389","population":"277","region":"76","departement":"31","arrondissement":"312","commune":"31487"},
{"name":"Saint-Paul","latitude":"43.0812","longitude":"0.5057","population":"271","region":"76","departement":"65","arrondissement":"652","commune":"65394"},
{"name":"Cardeilhac","latitude":"43.19833","longitude":"0.68361","population":"257","region":"76","departement":"31","arrondissement":"312","commune":"31108"},
{"name":"Houeydets","latitude":"43.16056","longitude":"0.3525","population":"232","region":"76","departement":"65","arrondissement":"653","commune":"65224"},
{"name":"Montmaurin","latitude":"43.22417","longitude":"0.6375","population":"226","region":"76","departement":"31","arrondissement":"312","commune":"31385"},
{"name":"Charlas","latitude":"43.22722","longitude":"0.69361","population":"223","region":"76","departement":"31","arrondissement":"312","commune":"31138"},
{"name":"Puydarrieux","latitude":"43.28556","longitude":"0.38556","population":"218","region":"76","departement":"65","arrondissement":"653","commune":"65374"},
{"name":"Loudet","latitude":"43.14833","longitude":"0.5725","population":"215","region":"76","departement":"31","arrondissement":"312","commune":"31305"},
{"name":"Puntous","latitude":"43.30361","longitude":"0.47028","population":"208","region":"76","departement":"65","arrondissement":"653","commune":"65373"},
{"name":"Arné","latitude":"43.18583","longitude":"0.50528","population":"199","region":"76","departement":"65","arrondissement":"653","commune":"65028"},
{"name":"Cuguron","latitude":"43.1","longitude":"0.54056","population":"191","region":"76","departement":"31","arrondissement":"312","commune":"31158"},
{"name":"Thermes-Magnoac","latitude":"43.29917","longitude":"0.5925","population":"188","region":"76","departement":"65","arrondissement":"653","commune":"65442"},
{"name":"Bonrepos","latitude":"43.1925","longitude":"0.375","population":"186","region":"76","departement":"65","arrondissement":"653","commune":"65097"},
{"name":"Recurt","latitude":"43.21611","longitude":"0.43583","population":"180","region":"76","departement":"65","arrondissement":"653","commune":"65376"},
{"name":"Sadournin","latitude":"43.31556","longitude":"0.40083","population":"178","region":"76","departement":"65","arrondissement":"653","commune":"65383"},
{"name":"Réjaumont","latitude":"43.15944","longitude":"0.44972","population":"176","region":"76","departement":"65","arrondissement":"652","commune":"65377"},
{"name":"Balesta","latitude":"43.2","longitude":"0.56667","population":"175","region":"76","departement":"31","arrondissement":"312","commune":"31043"},
{"name":"Campuzan","latitude":"43.27139","longitude":"0.42833","population":"154","region":"76","departement":"65","arrondissement":"653","commune":"65126"},
{"name":"Sariac-Magnoac","latitude":"43.31083","longitude":"0.54167","population":"153","region":"76","departement":"65","arrondissement":"653","commune":"65404"},
{"name":"Libaros","latitude":"43.25361","longitude":"0.39111","population":"147","region":"76","departement":"65","arrondissement":"653","commune":"65274"},
{"name":"Tajan","latitude":"43.18833","longitude":"0.46","population":"141","region":"76","departement":"65","arrondissement":"652","commune":"65437"},
{"name":"Galez","latitude":"43.18889","longitude":"0.40667","population":"132","region":"76","departement":"65","arrondissement":"653","commune":"65184"},
{"name":"Saint-Pé-Delbosc","latitude":"43.26944","longitude":"0.69639","population":"128","region":"76","departement":"31","arrondissement":"312","commune":"31510"},
{"name":"Boudrac","latitude":"43.19083","longitude":"0.52667","population":"128","region":"76","departement":"31","arrondissement":"312","commune":"31078"},
{"name":"Bazordan","latitude":"43.22306","longitude":"0.55167","population":"126","region":"76","departement":"65","arrondissement":"653","commune":"65074"},
{"name":"Guizerix","latitude":"43.32361","longitude":"0.44667","population":"125","region":"76","departement":"65","arrondissement":"653","commune":"65213"},
{"name":"Cizos","latitude":"43.2603","longitude":"0.4904","population":"116","region":"76","departement":"65","arrondissement":"653","commune":"65148"},
{"name":"Tournous-Devant","latitude":"43.24778","longitude":"0.41806","population":"113","region":"76","departement":"65","arrondissement":"653","commune":"65449"},
{"name":"Castelbajac","latitude":"43.1825","longitude":"0.35528","population":"110","region":"76","departement":"65","arrondissement":"653","commune":"65128"},
{"name":"Gaussan","latitude":"43.23028","longitude":"0.48528","population":"109","region":"76","departement":"65","arrondissement":"653","commune":"65187"},
{"name":"Gensac-de-Boulogne","latitude":"43.25278","longitude":"0.58667","population":"104","region":"76","departement":"31","arrondissement":"312","commune":"31218"},
{"name":"Monlong","latitude":"43.20611","longitude":"0.46417","population":"103","region":"76","departement":"65","arrondissement":"653","commune":"65316"},
{"name":"Sarremezan","latitude":"43.20806","longitude":"0.66667","population":"93","region":"76","departement":"31","arrondissement":"312","commune":"31532"},
{"name":"Nizan-Gesse","latitude":"43.23333","longitude":"0.5975","population":"90","region":"76","departement":"31","arrondissement":"312","commune":"31398"},
{"name":"Larroque","latitude":"43.3107","longitude":"0.4913","population":"88","region":"76","departement":"65","arrondissement":"653","commune":"65263"},
{"name":"Tournous-Darré","latitude":"43.28722","longitude":"0.36111","population":"82","region":"76","departement":"65","arrondissement":"653","commune":"65448"},
{"name":"Sentous","latitude":"43.265","longitude":"0.37861","population":"81","region":"76","departement":"65","arrondissement":"653","commune":"65419"},
{"name":"Sarrecave","latitude":"43.215","longitude":"0.59583","population":"80","region":"76","departement":"31","arrondissement":"312","commune":"31531"},
{"name":"Lalanne","latitude":"43.2675","longitude":"0.57639","population":"80","region":"76","departement":"65","arrondissement":"653","commune":"65249"},
{"name":"Cazaril-Tambourès","latitude":"43.185","longitude":"0.54556","population":"75","region":"76","departement":"31","arrondissement":"312","commune":"31130"},
{"name":"Lespugue","latitude":"43.23333","longitude":"0.66667","population":"73","region":"76","departement":"31","arrondissement":"312","commune":"31295"},
{"name":"Betpouy","latitude":"43.275","longitude":"0.45889","population":"73","region":"76","departement":"65","arrondissement":"653","commune":"65090"},
{"name":"Aries-Espénan","latitude":"43.27694","longitude":"0.53056","population":"65","region":"76","departement":"65","arrondissement":"653","commune":"65026"},
{"name":"Villemur","latitude":"43.25472","longitude":"0.54944","population":"64","region":"76","departement":"65","arrondissement":"653","commune":"65475"},
{"name":"Devèze","latitude":"43.27167","longitude":"0.54722","population":"58","region":"76","departement":"65","arrondissement":"653","commune":"65155"},
{"name":"Sédeilhac","latitude":"43.15306","longitude":"0.55611","population":"57","region":"76","departement":"31","arrondissement":"312","commune":"31539"},
{"name":"Peyret-Saint-André","latitude":"43.31944","longitude":"0.50806","population":"56","region":"76","departement":"65","arrondissement":"653","commune":"65358"},
{"name":"Vieuzos","latitude":"43.25833","longitude":"0.45","population":"49","region":"76","departement":"65","arrondissement":"653","commune":"65468"},
{"name":"Betbèze","latitude":"43.28444","longitude":"0.57194","population":"44","region":"76","departement":"65","arrondissement":"653","commune":"65088"},
{"name":"Laran","latitude":"43.23444","longitude":"0.48194","population":"44","region":"76","departement":"65","arrondissement":"653","commune":"65261"},
{"name":"Hachan","latitude":"43.28611","longitude":"0.45611","population":"43","region":"76","departement":"65","arrondissement":"653","commune":"65214"},
{"name":"Saint-Loup-en-Comminges","latitude":"43.245","longitude":"0.58306","population":"40","region":"76","departement":"31","arrondissement":"312","commune":"31498"},
{"name":"Caubous","latitude":"43.245","longitude":"0.4769","population":"40","region":"76","departement":"65","arrondissement":"653","commune":"65136"},
{"name":"Pouy","latitude":"43.2612","longitude":"0.557","population":"36","region":"76","departement":"65","arrondissement":"653","commune":"65368"},
{"name":"Sabarros","latitude":"43.23722","longitude":"0.43611","population":"33","region":"76","departement":"65","arrondissement":"653","commune":"65381"},
{"name":"Organ","latitude":"43.275","longitude":"0.48361","population":"33","region":"76","departement":"65","arrondissement":"653","commune":"65336"},
{"name":"Lassales","latitude":"43.21306","longitude":"0.48722","population":"23","region":"76","departement":"65","arrondissement":"653","commune":"65266"},
{"name":"Barthe","latitude":"43.28278","longitude":"0.46972","population":"16","region":"76","departement":"65","arrondissement":"653","commune":"65068"},
{"name":"Casterets","latitude":"43.31306","longitude":"0.58944","population":"14","region":"76","departement":"65","arrondissement":"653","commune":"65134"}
]