[
{"name":"Montaigu","latitude":"46.9728","longitude":"-1.3087","population":"5008","region":"52","departement":"85","arrondissement":"852","commune":"85146"},
{"name":"Saint-Hilaire-de-Loulay","latitude":"47.00306","longitude":"-1.33083","population":"4164","region":"52","departement":"85","arrondissement":"852","commune":"85224"},
{"name":"Saint-Georges-de-Montaigu","latitude":"46.94694","longitude":"-1.29472","population":"3805","region":"52","departement":"85","arrondissement":"852","commune":"85217"},
{"name":"La Bruffière","latitude":"47.01306","longitude":"-1.19778","population":"3563","region":"52","departement":"85","arrondissement":"852","commune":"85039"},
{"name":"Saint-Fulgent","latitude":"46.85306","longitude":"-1.17778","population":"3548","region":"52","departement":"85","arrondissement":"852","commune":"85215"},
{"name":"Chavagnes-en-Paillers","latitude":"46.89222","longitude":"-1.25278","population":"3341","region":"52","departement":"85","arrondissement":"852","commune":"85065"},
{"name":"La Gaubretière","latitude":"46.94333","longitude":"-1.06472","population":"2933","region":"52","departement":"85","arrondissement":"852","commune":"85097"},
{"name":"Treize-Septiers","latitude":"46.98444","longitude":"-1.23028","population":"2869","region":"52","departement":"85","arrondissement":"852","commune":"85295"},
{"name":"Boufféré","latitude":"46.96139","longitude":"-1.34028","population":"2829","region":"52","departement":"85","arrondissement":"852","commune":"85027"},
{"name":"L'Herbergement","latitude":"46.90917","longitude":"-1.37694","population":"2694","region":"52","departement":"85","arrondissement":"852","commune":"85108"},
{"name":"La Guyonnière","latitude":"46.96556","longitude":"-1.24972","population":"2674","region":"52","departement":"85","arrondissement":"852","commune":"85107"},
{"name":"Les Brouzils","latitude":"46.88694","longitude":"-1.32167","population":"2578","region":"52","departement":"85","arrondissement":"852","commune":"85038"},
{"name":"Les Landes-Genusson","latitude":"46.96556","longitude":"-1.11833","population":"2300","region":"52","departement":"85","arrondissement":"852","commune":"85119"},
{"name":"Chauché","latitude":"46.82917","longitude":"-1.27306","population":"2206","region":"52","departement":"85","arrondissement":"852","commune":"85064"},
{"name":"Beaurepaire","latitude":"46.91056","longitude":"-1.08889","population":"2153","region":"52","departement":"85","arrondissement":"852","commune":"85017"},
{"name":"Saint-Denis-la-Chevasse","latitude":"46.82194","longitude":"-1.35861","population":"2080","region":"52","departement":"85","arrondissement":"852","commune":"85208"},
{"name":"La Boissière-de-Montaigu","latitude":"46.95083","longitude":"-1.19139","population":"2028","region":"52","departement":"85","arrondissement":"852","commune":"85025"},
{"name":"Saint-André-Goule-d'Oie","latitude":"46.835","longitude":"-1.19194","population":"1645","region":"52","departement":"85","arrondissement":"852","commune":"85196"},
{"name":"Tiffauges","latitude":"47.01361","longitude":"-1.11139","population":"1450","region":"52","departement":"85","arrondissement":"852","commune":"85293"},
{"name":"Vendrennes","latitude":"46.82528","longitude":"-1.12389","population":"1447","region":"52","departement":"85","arrondissement":"852","commune":"85301"},
{"name":"Mesnard-la-Barotière","latitude":"46.85917","longitude":"-1.09972","population":"1240","region":"52","departement":"85","arrondissement":"852","commune":"85144"},
{"name":"Bazoges-en-Paillers","latitude":"46.90722","longitude":"-1.13417","population":"1075","region":"52","departement":"85","arrondissement":"852","commune":"85013"},
{"name":"La Copechagnière","latitude":"46.84917","longitude":"-1.34694","population":"882","region":"52","departement":"85","arrondissement":"852","commune":"85072"},
{"name":"La Rabatelière","latitude":"46.86139","longitude":"-1.26056","population":"830","region":"52","departement":"85","arrondissement":"852","commune":"85186"}
]