[
{"name":"Pont-sur-Yonne","latitude":"48.28583","longitude":"3.20306","population":"3206","region":"27","departement":"89","arrondissement":"893","commune":"89309"},
{"name":"Bray-sur-Seine","latitude":"48.41472","longitude":"3.23889","population":"2361","region":"11","departement":"77","arrondissement":"773","commune":"77051"},
{"name":"Thorigny-sur-Oreuse","latitude":"48.2925","longitude":"3.40167","population":"1477","region":"27","departement":"89","arrondissement":"893","commune":"89414"},
{"name":"Soucy","latitude":"48.24944","longitude":"3.32417","population":"1446","region":"27","departement":"89","arrondissement":"893","commune":"89399"},
{"name":"Sergines","latitude":"48.34222","longitude":"3.26139","population":"1201","region":"27","departement":"89","arrondissement":"893","commune":"89391"},
{"name":"Courlon-sur-Yonne","latitude":"48.33861","longitude":"3.16528","population":"1159","region":"27","departement":"89","arrondissement":"893","commune":"89124"},
{"name":"Traînel","latitude":"48.41472","longitude":"3.44083","population":"1058","region":"44","departement":"10","arrondissement":"102","commune":"10382"},
{"name":"Michery","latitude":"48.30944","longitude":"3.23472","population":"1030","region":"27","departement":"89","arrondissement":"893","commune":"89255"},
{"name":"Perceneige","latitude":"48.3534","longitude":"3.4082","population":"918","region":"27","departement":"89","arrondissement":"893","commune":"89469"},
{"name":"Bazoches-lès-Bray","latitude":"48.39917","longitude":"3.18861","population":"813","region":"11","departement":"77","arrondissement":"773","commune":"77025"},
{"name":"Courtois-sur-Yonne","latitude":"48.22611","longitude":"3.25528","population":"788","region":"27","departement":"89","arrondissement":"893","commune":"89127"},
{"name":"Cuy","latitude":"48.25778","longitude":"3.26472","population":"751","region":"27","departement":"89","arrondissement":"893","commune":"89136"},
{"name":"Mousseaux-lès-Bray","latitude":"48.41361","longitude":"3.22","population":"685","region":"11","departement":"77","arrondissement":"773","commune":"77321"},
{"name":"Saint-Denis-lès-Sens","latitude":"48.22861","longitude":"3.26639","population":"674","region":"27","departement":"89","arrondissement":"893","commune":"89342"},
{"name":"Villemanoche","latitude":"48.30028","longitude":"3.18139","population":"616","region":"27","departement":"89","arrondissement":"893","commune":"89456"},
{"name":"Gisy-les-Nobles","latitude":"48.28083","longitude":"3.24472","population":"605","region":"27","departement":"89","arrondissement":"893","commune":"89189"},
{"name":"Fontaine-Fourches","latitude":"48.41389","longitude":"3.39194","population":"589","region":"11","departement":"77","arrondissement":"773","commune":"77187"},
{"name":"La Chapelle-sur-Oreuse","latitude":"48.28944","longitude":"3.3075","population":"563","region":"27","departement":"89","arrondissement":"893","commune":"89080"},
{"name":"Serbonnes","latitude":"48.32083","longitude":"3.20472","population":"539","region":"27","departement":"89","arrondissement":"893","commune":"89390"},
{"name":"Vimpelles","latitude":"48.43972","longitude":"3.16417","population":"494","region":"11","departement":"77","arrondissement":"773","commune":"77524"},
{"name":"Villenauxe-la-Petite","latitude":"48.40778","longitude":"3.30944","population":"478","region":"11","departement":"77","arrondissement":"773","commune":"77507"},
{"name":"Saint-Maurice-aux-Riches-Hommes","latitude":"48.3507","longitude":"3.5144","population":"450","region":"27","departement":"89","arrondissement":"893","commune":"89359"},
{"name":"Voisines","latitude":"48.25139","longitude":"3.39389","population":"441","region":"27","departement":"89","arrondissement":"893","commune":"89483"},
{"name":"Noyen-sur-Seine","latitude":"48.4525","longitude":"3.34917","population":"373","region":"11","departement":"77","arrondissement":"773","commune":"77341"},
{"name":"Mouy-sur-Seine","latitude":"48.42056","longitude":"3.23806","population":"371","region":"11","departement":"77","arrondissement":"773","commune":"77325"},
{"name":"Évry","latitude":"48.26417","longitude":"3.25694","population":"362","region":"27","departement":"89","arrondissement":"893","commune":"89162"},
{"name":"Jaulnes","latitude":"48.4175","longitude":"3.27278","population":"354","region":"11","departement":"77","arrondissement":"773","commune":"77236"},
{"name":"Villeperrot","latitude":"48.26194","longitude":"3.22833","population":"322","region":"27","departement":"89","arrondissement":"893","commune":"89465"},
{"name":"Saint-Sauveur-lès-Bray","latitude":"48.43861","longitude":"3.20944","population":"322","region":"11","departement":"77","arrondissement":"773","commune":"77434"},
{"name":"Villiers-sur-Seine","latitude":"48.45528","longitude":"3.375","population":"313","region":"11","departement":"77","arrondissement":"773","commune":"77522"},
{"name":"Montigny-le-Guesdier","latitude":"48.38361","longitude":"3.25361","population":"301","region":"11","departement":"77","arrondissement":"773","commune":"77310"},
{"name":"La Louptière-Thénard","latitude":"48.38861","longitude":"3.43583","population":"271","region":"44","departement":"10","arrondissement":"102","commune":"10208"},
{"name":"Les Clérimois","latitude":"48.22806","longitude":"3.44111","population":"259","region":"27","departement":"89","arrondissement":"893","commune":"89111"},
{"name":"Villuis","latitude":"48.41083","longitude":"3.35833","population":"258","region":"11","departement":"77","arrondissement":"773","commune":"77523"},
{"name":"Pailly","latitude":"48.35222","longitude":"3.32306","population":"241","region":"27","departement":"89","arrondissement":"893","commune":"89285"},
{"name":"Gumery","latitude":"48.44833","longitude":"3.43056","population":"228","region":"44","departement":"10","arrondissement":"102","commune":"10169"},
{"name":"Soligny-les-Étangs","latitude":"48.40722","longitude":"3.51","population":"220","region":"44","departement":"10","arrondissement":"102","commune":"10370"},
{"name":"Plessis-Saint-Jean","latitude":"48.35222","longitude":"3.30583","population":"216","region":"27","departement":"89","arrondissement":"893","commune":"89302"},
{"name":"Villenavotte","latitude":"48.24889","longitude":"3.23833","population":"175","region":"27","departement":"89","arrondissement":"893","commune":"89458"},
{"name":"Compigny","latitude":"48.36528","longitude":"3.27583","population":"161","region":"27","departement":"89","arrondissement":"893","commune":"89115"},
{"name":"La Postolle","latitude":"48.28222","longitude":"3.44306","population":"156","region":"27","departement":"89","arrondissement":"893","commune":"89310"},
{"name":"Grisy-sur-Seine","latitude":"48.43889","longitude":"3.31861","population":"100","region":"11","departement":"77","arrondissement":"773","commune":"77218"},
{"name":"Fontenay-de-Bossery","latitude":"48.45333","longitude":"3.45611","population":"80","region":"44","departement":"10","arrondissement":"102","commune":"10154"},
{"name":"Baby","latitude":"48.39667","longitude":"3.34222","population":"76","region":"11","departement":"77","arrondissement":"773","commune":"77015"},
{"name":"Bouy-sur-Orvin","latitude":"48.4125","longitude":"3.49833","population":"59","region":"44","departement":"10","arrondissement":"102","commune":"10057"},
{"name":"Passy-sur-Seine","latitude":"48.425","longitude":"3.34722","population":"43","region":"11","departement":"77","arrondissement":"773","commune":"77356"}
]