[
{"name":"Chalonnes-sur-Loire","latitude":"47.35056","longitude":"-0.76389","population":"6421","region":"52","departement":"49","arrondissement":"491","commune":"49063"},
{"name":"Mauges-sur-Loire","latitude":"47.35528","longitude":"-0.86028","population":"3987","region":"52","departement":"49","arrondissement":"492","commune":"49244"},
{"name":"Loireauxence","latitude":"47.38444","longitude":"-1.03","population":"3518","region":"52","departement":"44","arrondissement":"444","commune":"44213"},
{"name":"Saint-Georges-sur-Loire","latitude":"47.40917","longitude":"-0.76222","population":"3292","region":"52","departement":"49","arrondissement":"491","commune":"49283"},
{"name":"Bécon-les-Granits","latitude":"47.5025","longitude":"-0.80111","population":"2672","region":"52","departement":"49","arrondissement":"491","commune":"49026"},
{"name":"Champtocé-sur-Loire","latitude":"47.41194","longitude":"-0.86333","population":"1763","region":"52","departement":"49","arrondissement":"491","commune":"49068"},
{"name":"Ingrandes-Le Fresne sur Loire","latitude":"47.40222","longitude":"-0.92333","population":"1608","region":"52","departement":"49","arrondissement":"491","commune":"49160"},
{"name":"Saint-Martin-du-Fouilloux","latitude":"47.43111","longitude":"-0.70472","population":"1600","region":"52","departement":"49","arrondissement":"491","commune":"49306"},
{"name":"Saint-Léger-des-Bois","latitude":"47.46028","longitude":"-0.70889","population":"1526","region":"52","departement":"49","arrondissement":"491","commune":"49298"},
{"name":"Saint-Germain-des-Prés","latitude":"47.40917","longitude":"-0.83417","population":"1352","region":"52","departement":"49","arrondissement":"491","commune":"49284"},
{"name":"Saint-Augustin-des-Bois","latitude":"47.45944","longitude":"-0.79528","population":"1017","region":"52","departement":"49","arrondissement":"491","commune":"49266"},
{"name":"Chaudefonds-sur-Layon","latitude":"47.32611","longitude":"-0.70583","population":"959","region":"52","departement":"49","arrondissement":"491","commune":"49082"},
{"name":"La Cornuaille","latitude":"47.51083","longitude":"-0.985","population":"951","region":"52","departement":"49","arrondissement":"491","commune":"49108"},
{"name":"Montrelais","latitude":"47.38889","longitude":"-0.96639","population":"829","region":"52","departement":"44","arrondissement":"444","commune":"44104"},
{"name":"Villemoisan","latitude":"47.46333","longitude":"-0.89222","population":"609","region":"52","departement":"49","arrondissement":"491","commune":"49376"},
{"name":"Saint-Sigismond","latitude":"47.45361","longitude":"-0.94278","population":"377","region":"52","departement":"49","arrondissement":"491","commune":"49321"}
]