[
{"name":"Toucy","latitude":"47.73639","longitude":"3.29333","population":"2671","region":"27","departement":"89","arrondissement":"891","commune":"89419"},
{"name":"Chevannes","latitude":"47.7522","longitude":"3.4928","population":"2261","region":"27","departement":"89","arrondissement":"891","commune":"89102"},
{"name":"Diges","latitude":"47.72944","longitude":"3.39806","population":"1147","region":"27","departement":"89","arrondissement":"891","commune":"89139"},
{"name":"Saint-Sauveur-en-Puisaye","latitude":"47.61833","longitude":"3.19722","population":"946","region":"27","departement":"89","arrondissement":"891","commune":"89368"},
{"name":"Treigny","latitude":"47.5506","longitude":"3.185","population":"884","region":"27","departement":"89","arrondissement":"891","commune":"89420"},
{"name":"Courson-les-Carrières","latitude":"47.6145","longitude":"3.5009","population":"863","region":"27","departement":"89","arrondissement":"891","commune":"89125"},
{"name":"Escamps","latitude":"47.72944","longitude":"3.47333","population":"835","region":"27","departement":"89","arrondissement":"891","commune":"89154"},
{"name":"Ouanne","latitude":"47.66194","longitude":"3.41833","population":"699","region":"27","departement":"89","arrondissement":"891","commune":"89283"},
{"name":"Saints-en-Puisaye","latitude":"47.62083","longitude":"3.26167","population":"596","region":"27","departement":"89","arrondissement":"891","commune":"89367"},
{"name":"Mézilles","latitude":"47.70139","longitude":"3.17333","population":"580","region":"27","departement":"89","arrondissement":"891","commune":"89254"},
{"name":"Fontaines","latitude":"47.69222","longitude":"3.25944","population":"471","region":"27","departement":"89","arrondissement":"891","commune":"89173"},
{"name":"Andryes","latitude":"47.51889","longitude":"3.48583","population":"471","region":"27","departement":"89","arrondissement":"891","commune":"89007"},
{"name":"Thury","latitude":"47.5866","longitude":"3.2948","population":"456","region":"27","departement":"89","arrondissement":"891","commune":"89416"},
{"name":"Lainsecq","latitude":"47.555","longitude":"3.27333","population":"376","region":"27","departement":"89","arrondissement":"891","commune":"89216"},
{"name":"Leugny","latitude":"47.68389","longitude":"3.375","population":"372","region":"27","departement":"89","arrondissement":"891","commune":"89221"},
{"name":"Sougères-en-Puisaye","latitude":"47.55917","longitude":"3.32833","population":"346","region":"27","departement":"89","arrondissement":"891","commune":"89400"},
{"name":"Sainpuits","latitude":"47.51806","longitude":"3.25944","population":"343","region":"27","departement":"89","arrondissement":"891","commune":"89331"},
{"name":"Fontenoy","latitude":"47.64889","longitude":"3.30694","population":"319","region":"27","departement":"89","arrondissement":"891","commune":"89179"},
{"name":"Druyes-les-Belles-Fontaines","latitude":"47.54778","longitude":"3.42028","population":"306","region":"27","departement":"89","arrondissement":"891","commune":"89148"},
{"name":"Taingy","latitude":"47.61611","longitude":"3.40389","population":"305","region":"27","departement":"89","arrondissement":"891","commune":"89405"},
{"name":"Moulins-sur-Ouanne","latitude":"47.70806","longitude":"3.33639","population":"299","region":"27","departement":"89","arrondissement":"891","commune":"89272"},
{"name":"Moutiers-en-Puisaye","latitude":"47.61","longitude":"3.176","population":"284","region":"27","departement":"89","arrondissement":"891","commune":"89273"},
{"name":"Levis","latitude":"47.65361","longitude":"3.325","population":"248","region":"27","departement":"89","arrondissement":"891","commune":"89222"},
{"name":"Coulangeron","latitude":"47.68083","longitude":"3.47","population":"201","region":"27","departement":"89","arrondissement":"891","commune":"89117"},
{"name":"Sainte-Colombe-sur-Loing","latitude":"47.56972","longitude":"3.23444","population":"183","region":"27","departement":"89","arrondissement":"891","commune":"89340"},
{"name":"Merry-Sec","latitude":"47.65639","longitude":"3.485","population":"174","region":"27","departement":"89","arrondissement":"891","commune":"89252"},
{"name":"Molesmes","latitude":"47.61472","longitude":"3.46611","population":"171","region":"27","departement":"89","arrondissement":"891","commune":"89260"},
{"name":"Lain","latitude":"47.61806","longitude":"3.34472","population":"162","region":"27","departement":"89","arrondissement":"891","commune":"89215"},
{"name":"Lalande","latitude":"47.68194","longitude":"3.32056","population":"129","region":"27","departement":"89","arrondissement":"891","commune":"89217"},
{"name":"Sementron","latitude":"47.6334","longitude":"3.3497","population":"119","region":"27","departement":"89","arrondissement":"891","commune":"89383"},
{"name":"Fontenailles","latitude":"47.63194","longitude":"3.46611","population":"72","region":"27","departement":"89","arrondissement":"891","commune":"89174"}
]