[
{"name":"Marle","latitude":"49.74","longitude":"3.77139","population":"2365","region":"32","departement":"02","arrondissement":"022","commune":"02468"},
{"name":"Crécy-sur-Serre","latitude":"49.69694","longitude":"3.6225","population":"1454","region":"32","departement":"02","arrondissement":"022","commune":"02237"},
{"name":"Couvron-et-Aumencourt","latitude":"49.64306","longitude":"3.51694","population":"1392","region":"32","departement":"02","arrondissement":"022","commune":"02231"},
{"name":"Aulnois-sous-Laon","latitude":"49.61222","longitude":"3.6075","population":"1294","region":"32","departement":"02","arrondissement":"022","commune":"02037"},
{"name":"Sains-Richaumont","latitude":"49.82389","longitude":"3.70917","population":"977","region":"32","departement":"02","arrondissement":"025","commune":"02668"},
{"name":"Vivaise","latitude":"49.62111","longitude":"3.56111","population":"772","region":"32","departement":"02","arrondissement":"022","commune":"02821"},
{"name":"Chéry-lès-Pouilly","latitude":"49.6575","longitude":"3.60528","population":"669","region":"32","departement":"02","arrondissement":"022","commune":"02180"},
{"name":"La Ferté-Chevresis","latitude":"49.73667","longitude":"3.55778","population":"591","region":"32","departement":"02","arrondissement":"023","commune":"02306"},
{"name":"Barenton-Bugny","latitude":"49.63306","longitude":"3.65139","population":"582","region":"32","departement":"02","arrondissement":"022","commune":"02046"},
{"name":"Pouilly-sur-Serre","latitude":"49.68167","longitude":"3.58833","population":"540","region":"32","departement":"02","arrondissement":"022","commune":"02617"},
{"name":"Lemé","latitude":"49.83778","longitude":"3.76389","population":"448","region":"32","departement":"02","arrondissement":"025","commune":"02416"},
{"name":"Pierrepont","latitude":"49.65361","longitude":"3.79194","population":"399","region":"32","departement":"02","arrondissement":"022","commune":"02600"},
{"name":"Dercy","latitude":"49.70361","longitude":"3.685","population":"368","region":"32","departement":"02","arrondissement":"022","commune":"02261"},
{"name":"Chivres-en-Laonnois","latitude":"49.63306","longitude":"3.8425","population":"363","region":"32","departement":"02","arrondissement":"022","commune":"02189"},
{"name":"Chevresis-Monceau","latitude":"49.75389","longitude":"3.57167","population":"349","region":"32","departement":"02","arrondissement":"023","commune":"02184"},
{"name":"Monceau-le-Neuf-et-Faucouzy","latitude":"49.76972","longitude":"3.61583","population":"344","region":"32","departement":"02","arrondissement":"025","commune":"02491"},
{"name":"Grandlup-et-Fay","latitude":"49.65778","longitude":"3.73694","population":"322","region":"32","departement":"02","arrondissement":"022","commune":"02353"},
{"name":"Saint-Gobert","latitude":"49.80139","longitude":"3.81583","population":"309","region":"32","departement":"02","arrondissement":"025","commune":"02681"},
{"name":"Montigny-sur-Crécy","latitude":"49.71583","longitude":"3.58472","population":"309","region":"32","departement":"02","arrondissement":"022","commune":"02517"},
{"name":"Landifay-et-Bertaignemont","latitude":"49.81694","longitude":"3.60639","population":"294","region":"32","departement":"02","arrondissement":"025","commune":"02403"},
{"name":"Mesbrecourt-Richecourt","latitude":"49.70194","longitude":"3.54167","population":"294","region":"32","departement":"02","arrondissement":"022","commune":"02480"},
{"name":"Erlon","latitude":"49.7295","longitude":"3.7142","population":"291","region":"32","departement":"02","arrondissement":"022","commune":"02283"},
{"name":"Voyenne","latitude":"49.72472","longitude":"3.73083","population":"285","region":"32","departement":"02","arrondissement":"022","commune":"02827"},
{"name":"Assis-sur-Serre","latitude":"49.68833","longitude":"3.55861","population":"274","region":"32","departement":"02","arrondissement":"022","commune":"02027"},
{"name":"Verneuil-sur-Serre","latitude":"49.65083","longitude":"3.67361","population":"272","region":"32","departement":"02","arrondissement":"022","commune":"02787"},
{"name":"Monceau-le-Waast","latitude":"49.61889","longitude":"3.71361","population":"241","region":"32","departement":"02","arrondissement":"022","commune":"02493"},
{"name":"Remies","latitude":"49.67889","longitude":"3.52028","population":"240","region":"32","departement":"02","arrondissement":"022","commune":"02638"},
{"name":"Le Hérie-la-Viéville","latitude":"49.82222","longitude":"3.64472","population":"236","region":"32","departement":"02","arrondissement":"025","commune":"02379"},
{"name":"Parpeville","latitude":"49.7853","longitude":"3.5468","population":"236","region":"32","departement":"02","arrondissement":"023","commune":"02592"},
{"name":"Froidmont-Cohartille","latitude":"49.68639","longitude":"3.70917","population":"235","region":"32","departement":"02","arrondissement":"022","commune":"02338"},
{"name":"Sons-et-Ronchères","latitude":"49.7628","longitude":"3.6746","population":"233","region":"32","departement":"02","arrondissement":"022","commune":"02727"},
{"name":"Vesles-et-Caumont","latitude":"49.67","longitude":"3.78472","population":"231","region":"32","departement":"02","arrondissement":"022","commune":"02790"},
{"name":"Rougeries","latitude":"49.80333","longitude":"3.78667","population":"229","region":"32","departement":"02","arrondissement":"025","commune":"02657"},
{"name":"Cilly","latitude":"49.73806","longitude":"3.83194","population":"222","region":"32","departement":"02","arrondissement":"022","commune":"02194"},
{"name":"Marcy-sous-Marle","latitude":"49.73889","longitude":"3.73639","population":"216","region":"32","departement":"02","arrondissement":"022","commune":"02460"},
{"name":"Mortiers","latitude":"49.68722","longitude":"3.66806","population":"212","region":"32","departement":"02","arrondissement":"022","commune":"02529"},
{"name":"Chalandry","latitude":"49.67694","longitude":"3.6425","population":"207","region":"32","departement":"02","arrondissement":"022","commune":"02156"},
{"name":"Bosmont-sur-Serre","latitude":"49.73167","longitude":"3.85944","population":"206","region":"32","departement":"02","arrondissement":"022","commune":"02101"},
{"name":"Autremencourt","latitude":"49.70417","longitude":"3.78639","population":"189","region":"32","departement":"02","arrondissement":"022","commune":"02039"},
{"name":"Pleine-Selve","latitude":"49.79083","longitude":"3.52722","population":"180","region":"32","departement":"02","arrondissement":"023","commune":"02605"},
{"name":"Bois-lès-Pargny","latitude":"49.7313","longitude":"3.6512","population":"177","region":"32","departement":"02","arrondissement":"022","commune":"02096"},
{"name":"La Neuville-Bosmont","latitude":"49.71278","longitude":"3.83944","population":"177","region":"32","departement":"02","arrondissement":"022","commune":"02545"},
{"name":"Housset","latitude":"49.7943","longitude":"3.7088","population":"175","region":"32","departement":"02","arrondissement":"025","commune":"02385"},
{"name":"Cuirieux","latitude":"49.68083","longitude":"3.81472","population":"164","region":"32","departement":"02","arrondissement":"022","commune":"02248"},
{"name":"Barenton-Cel","latitude":"49.6425","longitude":"3.65278","population":"142","region":"32","departement":"02","arrondissement":"022","commune":"02047"},
{"name":"Chevennes","latitude":"49.81528","longitude":"3.7325","population":"142","region":"32","departement":"02","arrondissement":"025","commune":"02182"},
{"name":"Pargny-les-Bois","latitude":"49.7259","longitude":"3.6242","population":"136","region":"32","departement":"02","arrondissement":"022","commune":"02591"},
{"name":"Goudelancourt-lès-Pierrepont","latitude":"49.6692","longitude":"3.8555","population":"131","region":"32","departement":"02","arrondissement":"022","commune":"02350"},
{"name":"Toulis-et-Attencourt","latitude":"49.6998","longitude":"3.7439","population":"131","region":"32","departement":"02","arrondissement":"022","commune":"02745"},
{"name":"Lugny","latitude":"49.78028","longitude":"3.80972","population":"128","region":"32","departement":"02","arrondissement":"025","commune":"02444"},
{"name":"Franqueville","latitude":"49.8105","longitude":"3.8096","population":"128","region":"32","departement":"02","arrondissement":"025","commune":"02331"},
{"name":"Mâchecourt","latitude":"49.6539","longitude":"3.8411","population":"128","region":"32","departement":"02","arrondissement":"022","commune":"02448"},
{"name":"Thiernu","latitude":"49.761","longitude":"3.7898","population":"115","region":"32","departement":"02","arrondissement":"022","commune":"02742"},
{"name":"Prisces","latitude":"49.77917","longitude":"3.86222","population":"113","region":"32","departement":"02","arrondissement":"025","commune":"02623"},
{"name":"Missy-lès-Pierrepont","latitude":"49.6325","longitude":"3.78639","population":"113","region":"32","departement":"02","arrondissement":"022","commune":"02486"},
{"name":"Barenton-sur-Serre","latitude":"49.67139","longitude":"3.68028","population":"113","region":"32","departement":"02","arrondissement":"022","commune":"02048"},
{"name":"Rogny","latitude":"49.76861","longitude":"3.81","population":"104","region":"32","departement":"02","arrondissement":"025","commune":"02652"},
{"name":"Berlancourt","latitude":"49.779","longitude":"3.7583","population":"103","region":"32","departement":"02","arrondissement":"025","commune":"02068"},
{"name":"Marfontaine","latitude":"49.80389","longitude":"3.76972","population":"88","region":"32","departement":"02","arrondissement":"025","commune":"02463"},
{"name":"Châtillon-lès-Sons","latitude":"49.75889","longitude":"3.68417","population":"78","region":"32","departement":"02","arrondissement":"022","commune":"02169"},
{"name":"Voharies","latitude":"49.78833","longitude":"3.79472","population":"71","region":"32","departement":"02","arrondissement":"025","commune":"02823"},
{"name":"Montigny-sous-Marle","latitude":"49.74833","longitude":"3.79222","population":"71","region":"32","departement":"02","arrondissement":"022","commune":"02516"},
{"name":"Houry","latitude":"49.78333","longitude":"3.85","population":"63","region":"32","departement":"02","arrondissement":"025","commune":"02384"},
{"name":"La Neuville-Housset","latitude":"49.79139","longitude":"3.72861","population":"63","region":"32","departement":"02","arrondissement":"025","commune":"02547"},
{"name":"Saint-Pierre-lès-Franqueville","latitude":"49.81944","longitude":"3.82361","population":"62","region":"32","departement":"02","arrondissement":"025","commune":"02688"}
]