[
{"name":"Morzine","latitude":"46.18","longitude":"6.70917","population":"2930","region":"84","departement":"74","arrondissement":"744","commune":"74191"},
{"name":"Samoëns","latitude":"46.08389","longitude":"6.72722","population":"2311","region":"84","departement":"74","arrondissement":"742","commune":"74258"},
{"name":"Abondance","latitude":"46.27889","longitude":"6.72194","population":"1347","region":"84","departement":"74","arrondissement":"744","commune":"74001"},
{"name":"Châtel","latitude":"46.2663","longitude":"6.8417","population":"1213","region":"84","departement":"74","arrondissement":"744","commune":"74063"},
{"name":"La Chapelle-d'Abondance","latitude":"46.29528","longitude":"6.7875","population":"832","region":"84","departement":"74","arrondissement":"744","commune":"74058"},
{"name":"Montriond","latitude":"46.19722","longitude":"6.69417","population":"812","region":"84","departement":"74","arrondissement":"744","commune":"74188"}
]