[
{"name":"Eymoutiers","latitude":"45.73889","longitude":"1.7425","population":"2033","region":"75","departement":"87","arrondissement":"872","commune":"87064"},
{"name":"Châteauneuf-la-Forêt","latitude":"45.71278","longitude":"1.60611","population":"1641","region":"75","departement":"87","arrondissement":"872","commune":"87040"},
{"name":"Chamberet","latitude":"45.58333","longitude":"1.71972","population":"1318","region":"75","departement":"19","arrondissement":"192","commune":"19036"},
{"name":"Saint-Paul","latitude":"45.7506","longitude":"1.4327","population":"1237","region":"75","departement":"87","arrondissement":"872","commune":"87174"},
{"name":"Saint-Germain-les-Belles","latitude":"45.615","longitude":"1.49472","population":"1151","region":"75","departement":"87","arrondissement":"872","commune":"87146"},
{"name":"Linards","latitude":"45.70167","longitude":"1.53139","population":"1089","region":"75","departement":"87","arrondissement":"872","commune":"87086"},
{"name":"Magnac-Bourg","latitude":"45.61722","longitude":"1.43111","population":"1045","region":"75","departement":"87","arrondissement":"872","commune":"87088"},
{"name":"Neuvic-Entier","latitude":"45.72167","longitude":"1.61139","population":"952","region":"75","departement":"87","arrondissement":"872","commune":"87105"},
{"name":"Bujaleuf","latitude":"45.79667","longitude":"1.62972","population":"881","region":"75","departement":"87","arrondissement":"872","commune":"87024"},
{"name":"La Geneytouse","latitude":"45.78528","longitude":"1.46722","population":"814","region":"75","departement":"87","arrondissement":"872","commune":"87070"},
{"name":"La Croisille-sur-Briance","latitude":"45.63056","longitude":"1.58194","population":"711","region":"75","departement":"87","arrondissement":"872","commune":"87051"},
{"name":"Saint-Bonnet-Briance","latitude":"45.7075","longitude":"1.47639","population":"544","region":"75","departement":"87","arrondissement":"872","commune":"87138"},
{"name":"Glanges","latitude":"45.67028","longitude":"1.45333","population":"523","region":"75","departement":"87","arrondissement":"872","commune":"87072"},
{"name":"Saint-Denis-des-Murs","latitude":"45.78528","longitude":"1.54444","population":"523","region":"75","departement":"87","arrondissement":"872","commune":"87142"},
{"name":"Saint-Genest-sur-Roselle","latitude":"45.70306","longitude":"1.42611","population":"464","region":"75","departement":"87","arrondissement":"872","commune":"87144"},
{"name":"Eybouleuf","latitude":"45.79528","longitude":"1.48222","population":"399","region":"75","departement":"87","arrondissement":"872","commune":"87062"},
{"name":"Saint-Méard","latitude":"45.665","longitude":"1.54833","population":"380","region":"75","departement":"87","arrondissement":"872","commune":"87170"},
{"name":"Sussac","latitude":"45.66389","longitude":"1.64722","population":"354","region":"75","departement":"87","arrondissement":"872","commune":"87194"},
{"name":"Masléon","latitude":"45.76389","longitude":"1.56833","population":"353","region":"75","departement":"87","arrondissement":"872","commune":"87093"},
{"name":"Saint-Vitte-sur-Briance","latitude":"45.62528","longitude":"1.54639","population":"343","region":"75","departement":"87","arrondissement":"872","commune":"87186"},
{"name":"Saint-Julien-le-Petit","latitude":"45.82333","longitude":"1.70583","population":"301","region":"75","departement":"87","arrondissement":"872","commune":"87153"},
{"name":"Roziers-Saint-Georges","latitude":"45.75056","longitude":"1.5475","population":"190","region":"75","departement":"87","arrondissement":"872","commune":"87130"},
{"name":"Sainte-Anne-Saint-Priest","latitude":"45.70833","longitude":"1.68278","population":"148","region":"75","departement":"87","arrondissement":"872","commune":"87134"},
{"name":"Domps","latitude":"45.66028","longitude":"1.70833","population":"130","region":"75","departement":"87","arrondissement":"872","commune":"87058"},
{"name":"Saint-Amand-le-Petit","latitude":"45.77472","longitude":"1.75139","population":"109","region":"75","departement":"87","arrondissement":"872","commune":"87132"},
{"name":"Augne","latitude":"45.78361","longitude":"1.705","population":"108","region":"75","departement":"87","arrondissement":"872","commune":"87004"},
{"name":"Saint-Gilles-les-Forêts","latitude":"45.62889","longitude":"1.66611","population":"54","region":"75","departement":"87","arrondissement":"872","commune":"87147"},
{"name":"Surdoux","latitude":"45.60556","longitude":"1.65028","population":"43","region":"75","departement":"87","arrondissement":"872","commune":"87193"}
]