[
{"name":"Wissembourg","latitude":"49.0375","longitude":"7.94611","population":"7830","region":"44","departement":"67","arrondissement":"677","commune":"67544"},
{"name":"Soultz-sous-Forêts","latitude":"48.93861","longitude":"7.88056","population":"2907","region":"44","departement":"67","arrondissement":"677","commune":"67474"},
{"name":"Wœrth","latitude":"48.93889","longitude":"7.74583","population":"1833","region":"44","departement":"67","arrondissement":"677","commune":"67550"},
{"name":"Seebach","latitude":"48.9708","longitude":"7.9892","population":"1756","region":"44","departement":"67","arrondissement":"677","commune":"67351"},
{"name":"Lembach","latitude":"49.00417","longitude":"7.79056","population":"1733","region":"44","departement":"67","arrondissement":"677","commune":"67263"},
{"name":"Schleithal","latitude":"48.98878","longitude":"8.04285","population":"1456","region":"44","departement":"67","arrondissement":"677","commune":"67451"},
{"name":"Hoffen","latitude":"48.92972","longitude":"7.94222","population":"1182","region":"44","departement":"67","arrondissement":"677","commune":"67206"},
{"name":"Gœrsdorf","latitude":"48.95167","longitude":"7.76889","population":"1127","region":"44","departement":"67","arrondissement":"677","commune":"67160"},
{"name":"Riedseltz","latitude":"48.99333","longitude":"7.95306","population":"1121","region":"44","departement":"67","arrondissement":"677","commune":"67400"},
{"name":"Preuschdorf","latitude":"48.94528","longitude":"7.79833","population":"961","region":"44","departement":"67","arrondissement":"677","commune":"67379"},
{"name":"Drachenbronn-Birlenbach","latitude":"48.9861","longitude":"7.8704","population":"951","region":"44","departement":"67","arrondissement":"677","commune":"67104"},
{"name":"Merkwiller-Pechelbronn","latitude":"48.93917","longitude":"7.82556","population":"937","region":"44","departement":"67","arrondissement":"677","commune":"67290"},
{"name":"Langensoultzbach","latitude":"48.96722","longitude":"7.73472","population":"937","region":"44","departement":"67","arrondissement":"677","commune":"67259"},
{"name":"Kutzenhausen","latitude":"48.93306","longitude":"7.85556","population":"909","region":"44","departement":"67","arrondissement":"677","commune":"67254"},
{"name":"Lampertsloch","latitude":"48.95833","longitude":"7.81639","population":"699","region":"44","departement":"67","arrondissement":"677","commune":"67257"},
{"name":"Cleebourg","latitude":"49.00286","longitude":"7.89162","population":"693","region":"44","departement":"67","arrondissement":"677","commune":"67074"},
{"name":"Hunspach","latitude":"48.95306","longitude":"7.94222","population":"677","region":"44","departement":"67","arrondissement":"677","commune":"67213"},
{"name":"Schœnenbourg","latitude":"48.95167","longitude":"7.91306","population":"668","region":"44","departement":"67","arrondissement":"677","commune":"67455"},
{"name":"Aschbach","latitude":"48.93444","longitude":"7.98333","population":"655","region":"44","departement":"67","arrondissement":"677","commune":"67012"},
{"name":"Steinseltz","latitude":"49.01018","longitude":"7.93041","population":"622","region":"44","departement":"67","arrondissement":"677","commune":"67479"},
{"name":"Lobsann","latitude":"48.96333","longitude":"7.84611","population":"603","region":"44","departement":"67","arrondissement":"677","commune":"67271"},
{"name":"Salmbach","latitude":"48.97729","longitude":"8.07478","population":"588","region":"44","departement":"67","arrondissement":"677","commune":"67432"},
{"name":"Oberlauterbach","latitude":"48.94944","longitude":"8.06972","population":"555","region":"44","departement":"67","arrondissement":"677","commune":"67346"},
{"name":"Siegen","latitude":"48.95667","longitude":"8.04167","population":"517","region":"44","departement":"67","arrondissement":"677","commune":"67466"},
{"name":"Climbach","latitude":"49.01778","longitude":"7.85056","population":"516","region":"44","departement":"67","arrondissement":"677","commune":"67075"},
{"name":"Trimbach","latitude":"48.9402","longitude":"8.02431","population":"512","region":"44","departement":"67","arrondissement":"677","commune":"67494"},
{"name":"Stundwiller","latitude":"48.92556","longitude":"7.99056","population":"490","region":"44","departement":"67","arrondissement":"677","commune":"67484"},
{"name":"Rott","latitude":"49.02312","longitude":"7.9081","population":"470","region":"44","departement":"67","arrondissement":"677","commune":"67416"},
{"name":"Wingen","latitude":"49.02611","longitude":"7.815","population":"451","region":"44","departement":"67","arrondissement":"677","commune":"67537"},
{"name":"Eberbach-Seltz","latitude":"48.9267","longitude":"8.0639","population":"403","region":"44","departement":"67","arrondissement":"677","commune":"67113"},
{"name":"Oberdorf-Spachbach","latitude":"48.92472","longitude":"7.7575","population":"351","region":"44","departement":"67","arrondissement":"677","commune":"67341"},
{"name":"Dieffenbach-lès-Wœrth","latitude":"48.93278","longitude":"7.77861","population":"342","region":"44","departement":"67","arrondissement":"677","commune":"67093"},
{"name":"Memmelshoffen","latitude":"48.96028","longitude":"7.86972","population":"320","region":"44","departement":"67","arrondissement":"677","commune":"67288"},
{"name":"Oberhoffen-lès-Wissembourg","latitude":"49.01639","longitude":"7.92056","population":"316","region":"44","departement":"67","arrondissement":"677","commune":"67344"},
{"name":"Ingolsheim","latitude":"48.97379","longitude":"7.93814","population":"289","region":"44","departement":"67","arrondissement":"677","commune":"67221"},
{"name":"Retschwiller","latitude":"48.95","longitude":"7.87917","population":"267","region":"44","departement":"67","arrondissement":"677","commune":"67394"},
{"name":"Keffenach","latitude":"48.96472","longitude":"7.88222","population":"208","region":"44","departement":"67","arrondissement":"677","commune":"67232"},
{"name":"Crœttwiller","latitude":"48.93333","longitude":"8.03111","population":"170","region":"44","departement":"67","arrondissement":"677","commune":"67079"}
]