[
{"name":"Arnay-le-Duc","latitude":"47.13167","longitude":"4.48611","population":"1674","region":"27","departement":"21","arrondissement":"211","commune":"21023"},
{"name":"Pouilly-en-Auxois","latitude":"47.26278","longitude":"4.55583","population":"1540","region":"27","departement":"21","arrondissement":"211","commune":"21501"},
{"name":"Lacanche","latitude":"47.075","longitude":"4.55944","population":"600","region":"27","departement":"21","arrondissement":"211","commune":"21334"},
{"name":"Liernais","latitude":"47.20667","longitude":"4.28222","population":"579","region":"27","departement":"21","arrondissement":"211","commune":"21349"},
{"name":"Igornay","latitude":"47.045","longitude":"4.37861","population":"500","region":"27","departement":"71","arrondissement":"711","commune":"71237"},
{"name":"Lucenay-l'Évêque","latitude":"47.08083","longitude":"4.24556","population":"389","region":"27","departement":"71","arrondissement":"711","commune":"71266"},
{"name":"Viévy","latitude":"47.0575","longitude":"4.45222","population":"346","region":"27","departement":"21","arrondissement":"211","commune":"21683"},
{"name":"Magnien","latitude":"47.10167","longitude":"4.43806","population":"322","region":"27","departement":"21","arrondissement":"211","commune":"21363"},
{"name":"Reclesne","latitude":"47.04083","longitude":"4.27028","population":"307","region":"27","departement":"71","arrondissement":"711","commune":"71368"},
{"name":"Chissey-en-Morvan","latitude":"47.11639","longitude":"4.22528","population":"306","region":"27","departement":"71","arrondissement":"711","commune":"71129"},
{"name":"Thoisy-la-Berchère","latitude":"47.2617","longitude":"4.3469","population":"303","region":"27","departement":"21","arrondissement":"213","commune":"21629"},
{"name":"Mimeure","latitude":"47.15056","longitude":"4.49667","population":"289","region":"27","departement":"21","arrondissement":"211","commune":"21414"},
{"name":"Saint-Martin-de-la-Mer","latitude":"47.23611","longitude":"4.23417","population":"286","region":"27","departement":"21","arrondissement":"211","commune":"21560"},
{"name":"Chailly-sur-Armançon","latitude":"47.27194","longitude":"4.48444","population":"273","region":"27","departement":"21","arrondissement":"211","commune":"21128"},
{"name":"Saint-Prix-lès-Arnay","latitude":"47.11583","longitude":"4.49639","population":"247","region":"27","departement":"21","arrondissement":"211","commune":"21567"},
{"name":"Sussey","latitude":"47.22333","longitude":"4.36306","population":"242","region":"27","departement":"21","arrondissement":"211","commune":"21615"},
{"name":"Arconcey","latitude":"47.21861","longitude":"4.45528","population":"214","region":"27","departement":"21","arrondissement":"211","commune":"21020"},
{"name":"Maligny","latitude":"47.0853","longitude":"4.5098","population":"210","region":"27","departement":"21","arrondissement":"211","commune":"21374"},
{"name":"Manlay","latitude":"47.12889","longitude":"4.34167","population":"209","region":"27","departement":"21","arrondissement":"211","commune":"21375"},
{"name":"Jouey","latitude":"47.15333","longitude":"4.44722","population":"202","region":"27","departement":"21","arrondissement":"211","commune":"21325"},
{"name":"Thoisy-le-Désert","latitude":"47.24694","longitude":"4.52472","population":"202","region":"27","departement":"21","arrondissement":"211","commune":"21630"},
{"name":"Essey","latitude":"47.205","longitude":"4.52611","population":"198","region":"27","departement":"21","arrondissement":"211","commune":"21251"},
{"name":"Marcilly-Ogny","latitude":"47.2525","longitude":"4.40583","population":"198","region":"27","departement":"21","arrondissement":"211","commune":"21382"},
{"name":"Voudenay","latitude":"47.09333","longitude":"4.37944","population":"192","region":"27","departement":"21","arrondissement":"211","commune":"21715"},
{"name":"Meilly-sur-Rouvres","latitude":"47.20694","longitude":"4.56278","population":"181","region":"27","departement":"21","arrondissement":"211","commune":"21399"},
{"name":"Censerey","latitude":"47.20278","longitude":"4.35417","population":"178","region":"27","departement":"21","arrondissement":"211","commune":"21124"},
{"name":"Brazey-en-Morvan","latitude":"47.1726","longitude":"4.2902","population":"171","region":"27","departement":"21","arrondissement":"211","commune":"21102"},
{"name":"Marcheseuil","latitude":"47.14417","longitude":"4.34889","population":"171","region":"27","departement":"21","arrondissement":"211","commune":"21379"},
{"name":"Allerey","latitude":"47.1897","longitude":"4.4387","population":"169","region":"27","departement":"21","arrondissement":"211","commune":"21009"},
{"name":"Foissy","latitude":"47.12222","longitude":"4.56222","population":"152","region":"27","departement":"21","arrondissement":"211","commune":"21274"},
{"name":"Châtellenot","latitude":"47.2365","longitude":"4.49","population":"145","region":"27","departement":"21","arrondissement":"211","commune":"21153"},
{"name":"Beurey-Bauguay","latitude":"47.2325","longitude":"4.42389","population":"142","region":"27","departement":"21","arrondissement":"211","commune":"21068"},
{"name":"Saint-Pierre-en-Vaux","latitude":"47.05667","longitude":"4.52667","population":"133","region":"27","departement":"21","arrondissement":"211","commune":"21566"},
{"name":"Blanot","latitude":"47.1726","longitude":"4.2362","population":"130","region":"27","departement":"21","arrondissement":"211","commune":"21083"},
{"name":"Antigny-la-Ville","latitude":"47.10139","longitude":"4.55861","population":"112","region":"27","departement":"21","arrondissement":"211","commune":"21015"},
{"name":"Clomot","latitude":"47.19083","longitude":"4.48583","population":"106","region":"27","departement":"21","arrondissement":"211","commune":"21181"},
{"name":"Barnay","latitude":"47.08778","longitude":"4.33861","population":"101","region":"27","departement":"71","arrondissement":"711","commune":"71020"},
{"name":"Musigny","latitude":"47.16278","longitude":"4.51944","population":"89","region":"27","departement":"21","arrondissement":"211","commune":"21447"},
{"name":"Diancey","latitude":"47.18167","longitude":"4.36278","population":"85","region":"27","departement":"21","arrondissement":"211","commune":"21229"},
{"name":"Savilly","latitude":"47.12611","longitude":"4.28028","population":"76","region":"27","departement":"21","arrondissement":"211","commune":"21593"},
{"name":"Champignolles","latitude":"47.05528","longitude":"4.56639","population":"70","region":"27","departement":"21","arrondissement":"211","commune":"21140"},
{"name":"Bard-le-Régulier","latitude":"47.1456","longitude":"4.3172","population":"69","region":"27","departement":"21","arrondissement":"211","commune":"21046"},
{"name":"Vianges","latitude":"47.16111","longitude":"4.32472","population":"67","region":"27","departement":"21","arrondissement":"211","commune":"21675"},
{"name":"Le Fête","latitude":"47.18333","longitude":"4.50917","population":"49","region":"27","departement":"21","arrondissement":"211","commune":"21264"},
{"name":"Longecourt-lès-Culêtre","latitude":"47.15889","longitude":"4.55278","population":"48","region":"27","departement":"21","arrondissement":"211","commune":"21354"},
{"name":"Villiers-en-Morvan","latitude":"47.14611","longitude":"4.25528","population":"41","region":"27","departement":"21","arrondissement":"211","commune":"21703"}
]