[
{"name":"Hesdin","latitude":"50.3739","longitude":"2.0375","population":"2361","region":"32","departement":"62","arrondissement":"624","commune":"62447"},
{"name":"Montreuil","latitude":"50.4639","longitude":"1.7639","population":"2319","region":"32","departement":"62","arrondissement":"624","commune":"62588"},
{"name":"Beaurainville","latitude":"50.42472","longitude":"1.89806","population":"1923","region":"32","departement":"62","arrondissement":"624","commune":"62100"},
{"name":"Campagne-lès-Hesdin","latitude":"50.3975","longitude":"1.87667","population":"1781","region":"32","departement":"62","arrondissement":"624","commune":"62204"},
{"name":"Auchy-lès-Hesdin","latitude":"50.3975","longitude":"2.10222","population":"1714","region":"32","departement":"62","arrondissement":"624","commune":"62050"},
{"name":"Marconnelle","latitude":"50.37389","longitude":"2.01611","population":"1194","region":"32","departement":"62","arrondissement":"624","commune":"62550"},
{"name":"Marconne","latitude":"50.37194","longitude":"2.05111","population":"1128","region":"32","departement":"62","arrondissement":"624","commune":"62549"},
{"name":"Huby-Saint-Leu","latitude":"50.38222","longitude":"2.03722","population":"943","region":"32","departement":"62","arrondissement":"624","commune":"62461"},
{"name":"Maresquel-Ecquemicourt","latitude":"50.4108","longitude":"1.9277","population":"883","region":"32","departement":"62","arrondissement":"624","commune":"62552"},
{"name":"Buire-le-Sec","latitude":"50.38333","longitude":"1.83333","population":"793","region":"32","departement":"62","arrondissement":"624","commune":"62183"},
{"name":"Le Parcq","latitude":"50.3793","longitude":"2.1005","population":"785","region":"32","departement":"62","arrondissement":"624","commune":"62647"},
{"name":"Écuires","latitude":"50.44667","longitude":"1.76111","population":"784","region":"32","departement":"62","arrondissement":"624","commune":"62289"},
{"name":"Aubin-Saint-Vaast","latitude":"50.39556","longitude":"1.97361","population":"764","region":"32","departement":"62","arrondissement":"624","commune":"62046"},
{"name":"Brimeux","latitude":"50.44444","longitude":"1.83389","population":"762","region":"32","departement":"62","arrondissement":"624","commune":"62177"},
{"name":"Neuville-sous-Montreuil","latitude":"50.475","longitude":"1.77556","population":"663","region":"32","departement":"62","arrondissement":"624","commune":"62610"},
{"name":"Gouy-Saint-André","latitude":"50.37361","longitude":"1.89806","population":"631","region":"32","departement":"62","arrondissement":"624","commune":"62382"},
{"name":"Fressin","latitude":"50.4468","longitude":"2.0555","population":"542","region":"32","departement":"62","arrondissement":"624","commune":"62359"},
{"name":"Créquy","latitude":"50.4936","longitude":"2.0474","population":"500","region":"32","departement":"62","arrondissement":"624","commune":"62257"},
{"name":"Cavron-Saint-Martin","latitude":"50.41639","longitude":"1.99722","population":"477","region":"32","departement":"62","arrondissement":"624","commune":"62220"},
{"name":"Boisjean","latitude":"50.4063","longitude":"1.7684","population":"467","region":"32","departement":"62","arrondissement":"624","commune":"62150"},
{"name":"Capelle-lès-Hesdin","latitude":"50.3415","longitude":"1.9979","population":"458","region":"32","departement":"62","arrondissement":"624","commune":"62212"},
{"name":"Bouin-Plumoison","latitude":"50.3811","longitude":"1.9916","population":"455","region":"32","departement":"62","arrondissement":"624","commune":"62661"},
{"name":"Dompierre-sur-Authie","latitude":"50.30333","longitude":"1.91806","population":"417","region":"32","departement":"80","arrondissement":"801","commune":"80248"},
{"name":"Sainte-Austreberthe","latitude":"50.36528","longitude":"2.045","population":"395","region":"32","departement":"62","arrondissement":"624","commune":"62743"},
{"name":"Maintenay","latitude":"50.3667","longitude":"1.8134","population":"388","region":"32","departement":"62","arrondissement":"624","commune":"62538"},
{"name":"Vieil-Hesdin","latitude":"50.3575","longitude":"2.09889","population":"373","region":"32","departement":"62","arrondissement":"624","commune":"62850"},
{"name":"Beaumerie-Saint-Martin","latitude":"50.45583","longitude":"1.79833","population":"369","region":"32","departement":"62","arrondissement":"624","commune":"62094"},
{"name":"Le Quesnoy-en-Artois","latitude":"50.3343","longitude":"2.0492","population":"357","region":"32","departement":"62","arrondissement":"624","commune":"62677"},
{"name":"Estréelles","latitude":"50.49889","longitude":"1.78389","population":"345","region":"32","departement":"62","arrondissement":"624","commune":"62315"},
{"name":"Argoules","latitude":"50.34278","longitude":"1.83278","population":"339","region":"32","departement":"80","arrondissement":"801","commune":"80025"},
{"name":"Saulchoy","latitude":"50.3496","longitude":"1.8503","population":"320","region":"32","departement":"62","arrondissement":"624","commune":"62783"},
{"name":"Contes","latitude":"50.40861","longitude":"1.96028","population":"316","region":"32","departement":"62","arrondissement":"624","commune":"62236"},
{"name":"Estrée","latitude":"50.499","longitude":"1.7909","population":"310","region":"32","departement":"62","arrondissement":"624","commune":"62312"},
{"name":"Douriez","latitude":"50.3325","longitude":"1.8782","population":"308","region":"32","departement":"62","arrondissement":"624","commune":"62275"},
{"name":"Saint-Georges","latitude":"50.3586","longitude":"2.0852","population":"301","region":"32","departement":"62","arrondissement":"624","commune":"62749"},
{"name":"Grigny","latitude":"50.3847","longitude":"2.0672","population":"299","region":"32","departement":"62","arrondissement":"624","commune":"62388"},
{"name":"Guisy","latitude":"50.38889","longitude":"2.00194","population":"295","region":"32","departement":"62","arrondissement":"624","commune":"62398"},
{"name":"Sempy","latitude":"50.4936","longitude":"1.8791","population":"291","region":"32","departement":"62","arrondissement":"624","commune":"62787"},
{"name":"Marles-sur-Canche","latitude":"50.45806","longitude":"1.82722","population":"290","region":"32","departement":"62","arrondissement":"624","commune":"62556"},
{"name":"Aix-en-Issart","latitude":"50.47667","longitude":"1.85861","population":"281","region":"32","departement":"62","arrondissement":"624","commune":"62018"},
{"name":"Mouriez","latitude":"50.3397","longitude":"1.9457","population":"255","region":"32","departement":"62","arrondissement":"624","commune":"62596"},
{"name":"Lebiez","latitude":"50.46861","longitude":"1.98139","population":"251","region":"32","departement":"62","arrondissement":"624","commune":"62492"},
{"name":"Wamin","latitude":"50.4135","longitude":"2.0618","population":"249","region":"32","departement":"62","arrondissement":"624","commune":"62872"},
{"name":"Vacqueriette-Erquières","latitude":"50.3244","longitude":"2.078","population":"247","region":"32","departement":"62","arrondissement":"624","commune":"62834"},
{"name":"Humbert","latitude":"50.50472","longitude":"1.90694","population":"247","region":"32","departement":"62","arrondissement":"624","commune":"62466"},
{"name":"Tortefontaine","latitude":"50.3217","longitude":"1.9214","population":"242","region":"32","departement":"62","arrondissement":"624","commune":"62824"},
{"name":"Loison-sur-Créquoise","latitude":"50.43917","longitude":"1.9225","population":"241","region":"32","departement":"62","arrondissement":"624","commune":"62522"},
{"name":"Wambercourt","latitude":"50.42861","longitude":"2.02333","population":"239","region":"32","departement":"62","arrondissement":"624","commune":"62871"},
{"name":"Embry","latitude":"50.49278","longitude":"1.96722","population":"235","region":"32","departement":"62","arrondissement":"624","commune":"62293"},
{"name":"Raye-sur-Authie","latitude":"50.2983","longitude":"1.9493","population":"223","region":"32","departement":"62","arrondissement":"624","commune":"62690"},
{"name":"Regnauville","latitude":"50.3136","longitude":"2.0123","population":"222","region":"32","departement":"62","arrondissement":"624","commune":"62700"},
{"name":"Marenla","latitude":"50.44583","longitude":"1.86556","population":"217","region":"32","departement":"62","arrondissement":"624","commune":"62551"},
{"name":"Lespinoy","latitude":"50.42861","longitude":"1.87583","population":"214","region":"32","departement":"62","arrondissement":"624","commune":"62501"},
{"name":"Offin","latitude":"50.445","longitude":"1.94167","population":"205","region":"32","departement":"62","arrondissement":"624","commune":"62635"},
{"name":"Roussent","latitude":"50.36833","longitude":"1.77472","population":"196","region":"32","departement":"62","arrondissement":"624","commune":"62723"},
{"name":"La Loge","latitude":"50.4072","longitude":"2.0339","population":"193","region":"32","departement":"62","arrondissement":"624","commune":"62521"},
{"name":"Dominois","latitude":"50.33139","longitude":"1.8525","population":"180","region":"32","departement":"80","arrondissement":"801","commune":"80244"},
{"name":"Hesmond","latitude":"50.4549","longitude":"1.9466","population":"179","region":"32","departement":"62","arrondissement":"624","commune":"62449"},
{"name":"Sains-lès-Fressin","latitude":"50.46694","longitude":"2.04111","population":"179","region":"32","departement":"62","arrondissement":"624","commune":"62738"},
{"name":"Guigny","latitude":"50.33","longitude":"1.99861","population":"161","region":"32","departement":"62","arrondissement":"624","commune":"62395"},
{"name":"Torcy","latitude":"50.48361","longitude":"2.0225","population":"160","region":"32","departement":"62","arrondissement":"624","commune":"62823"},
{"name":"Chériennes","latitude":"50.31389","longitude":"2.03556","population":"158","region":"32","departement":"62","arrondissement":"624","commune":"62222"},
{"name":"Brévillers","latitude":"50.34667","longitude":"2.01583","population":"145","region":"32","departement":"62","arrondissement":"624","commune":"62175"},
{"name":"Rimboval","latitude":"50.5075","longitude":"1.98583","population":"137","region":"32","departement":"62","arrondissement":"624","commune":"62710"},
{"name":"Saint-Denœux","latitude":"50.472","longitude":"1.9061","population":"130","region":"32","departement":"62","arrondissement":"624","commune":"62745"},
{"name":"Fontaine-l'Étalon","latitude":"50.3055","longitude":"2.0645","population":"122","region":"32","departement":"62","arrondissement":"621","commune":"62345"},
{"name":"Royon","latitude":"50.47306","longitude":"1.9925","population":"117","region":"32","departement":"62","arrondissement":"624","commune":"62725"},
{"name":"Saint-Rémy-au-Bois","latitude":"50.3667","longitude":"1.8746","population":"113","region":"32","departement":"62","arrondissement":"624","commune":"62768"},
{"name":"Ponches-Estruval","latitude":"50.30944","longitude":"1.895","population":"110","region":"32","departement":"80","arrondissement":"801","commune":"80631"},
{"name":"Planques","latitude":"50.4625","longitude":"2.08167","population":"108","region":"32","departement":"62","arrondissement":"624","commune":"62659"},
{"name":"Boubers-lès-Hesmond","latitude":"50.47528","longitude":"1.94917","population":"71","region":"32","departement":"62","arrondissement":"624","commune":"62157"},
{"name":"Marant","latitude":"50.46639","longitude":"1.845","population":"66","region":"32","departement":"62","arrondissement":"624","commune":"62547"},
{"name":"Avondance","latitude":"50.47639","longitude":"2.09778","population":"44","region":"32","departement":"62","arrondissement":"624","commune":"62066"}
]