[
{"name":"Vic-en-Bigorre","latitude":"43.38556","longitude":"0.05306","population":"5200","region":"76","departement":"65","arrondissement":"653","commune":"65460"},
{"name":"Maubourguet","latitude":"43.46806","longitude":"0.03556","population":"2449","region":"76","departement":"65","arrondissement":"653","commune":"65304"},
{"name":"Rabastens-de-Bigorre","latitude":"43.38694","longitude":"0.15056","population":"1441","region":"76","departement":"65","arrondissement":"653","commune":"65375"},
{"name":"Marciac","latitude":"43.52417","longitude":"0.16167","population":"1234","region":"76","departement":"32","arrondissement":"323","commune":"32233"},
{"name":"Miélan","latitude":"43.42972","longitude":"0.30806","population":"1216","region":"76","departement":"32","arrondissement":"323","commune":"32252"},
{"name":"Villecomtal-sur-Arros","latitude":"43.4016","longitude":"0.1997","population":"858","region":"76","departement":"32","arrondissement":"323","commune":"32464"},
{"name":"Pujo","latitude":"43.34778","longitude":"0.06583","population":"614","region":"76","departement":"65","arrondissement":"653","commune":"65372"},
{"name":"Montesquiou","latitude":"43.57861","longitude":"0.32889","population":"603","region":"76","departement":"32","arrondissement":"323","commune":"32285"},
{"name":"Artagnan","latitude":"43.40278","longitude":"0.07583","population":"489","region":"76","departement":"65","arrondissement":"653","commune":"65035"},
{"name":"Lafitole","latitude":"43.44778","longitude":"0.07306","population":"475","region":"76","departement":"65","arrondissement":"653","commune":"65243"},
{"name":"Tostat","latitude":"43.33028","longitude":"0.10306","population":"445","region":"76","departement":"65","arrondissement":"653","commune":"65446"},
{"name":"Larreule","latitude":"43.44528","longitude":"0.01611","population":"424","region":"76","departement":"65","arrondissement":"653","commune":"65262"},
{"name":"Camalès","latitude":"43.36028","longitude":"0.07472","population":"419","region":"76","departement":"65","arrondissement":"653","commune":"65121"},
{"name":"Saint-Lézer","latitude":"43.36861","longitude":"0.03222","population":"411","region":"76","departement":"65","arrondissement":"653","commune":"65390"},
{"name":"Caixon","latitude":"43.40972","longitude":"0.02611","population":"408","region":"76","departement":"65","arrondissement":"653","commune":"65119"},
{"name":"Bassoues","latitude":"43.57917","longitude":"0.24528","population":"372","region":"76","departement":"32","arrondissement":"323","commune":"32032"},
{"name":"Labatut-Rivière","latitude":"43.52667","longitude":"0.03333","population":"338","region":"76","departement":"65","arrondissement":"653","commune":"65240"},
{"name":"Bazillac","latitude":"43.35472","longitude":"0.10028","population":"337","region":"76","departement":"65","arrondissement":"653","commune":"65073"},
{"name":"Haget","latitude":"43.41944","longitude":"0.16194","population":"307","region":"76","departement":"32","arrondissement":"323","commune":"32152"},
{"name":"Montégut-Arros","latitude":"43.37667","longitude":"0.21194","population":"298","region":"76","departement":"32","arrondissement":"323","commune":"32283"},
{"name":"Auriébat","latitude":"43.49472","longitude":"0.0875","population":"288","region":"76","departement":"65","arrondissement":"653","commune":"65049"},
{"name":"Sarriac-Bigorre","latitude":"43.3825","longitude":"0.1275","population":"287","region":"76","departement":"65","arrondissement":"653","commune":"65409"},
{"name":"Laas","latitude":"43.46917","longitude":"0.31083","population":"282","region":"76","departement":"32","arrondissement":"323","commune":"32167"},
{"name":"Laguian-Mazous","latitude":"43.4196","longitude":"0.2591","population":"278","region":"76","departement":"32","arrondissement":"323","commune":"32181"},
{"name":"Ladevèze-Ville","latitude":"43.5366","longitude":"0.0584","population":"270","region":"76","departement":"32","arrondissement":"323","commune":"32175"},
{"name":"Aux-Aussat","latitude":"43.43611","longitude":"0.27083","population":"256","region":"76","departement":"32","arrondissement":"323","commune":"32020"},
{"name":"Tillac","latitude":"43.47528","longitude":"0.27556","population":"254","region":"76","departement":"32","arrondissement":"323","commune":"32446"},
{"name":"Escondeaux","latitude":"43.33972","longitude":"0.12972","population":"247","region":"76","departement":"65","arrondissement":"653","commune":"65161"},
{"name":"Sénac","latitude":"43.35667","longitude":"0.18306","population":"244","region":"76","departement":"65","arrondissement":"653","commune":"65418"},
{"name":"Marsac","latitude":"43.3287","longitude":"0.0881","population":"243","region":"76","departement":"65","arrondissement":"653","commune":"65299"},
{"name":"Monfaucon","latitude":"43.45194","longitude":"0.11611","population":"219","region":"76","departement":"65","arrondissement":"653","commune":"65314"},
{"name":"Ladevèze-Rivière","latitude":"43.55194","longitude":"0.07361","population":"218","region":"76","departement":"32","arrondissement":"323","commune":"32174"},
{"name":"Sombrun","latitude":"43.47861","longitude":"0.00694","population":"207","region":"76","departement":"65","arrondissement":"653","commune":"65429"},
{"name":"Monlezun","latitude":"43.5","longitude":"0.21306","population":"201","region":"76","departement":"32","arrondissement":"323","commune":"32273"},
{"name":"Lacassagne","latitude":"43.35694","longitude":"0.14889","population":"199","region":"76","departement":"65","arrondissement":"653","commune":"65242"},
{"name":"Nouilhan","latitude":"43.42361","longitude":"0.03861","population":"197","region":"76","departement":"65","arrondissement":"653","commune":"65330"},
{"name":"Liac","latitude":"43.41444","longitude":"0.09889","population":"189","region":"76","departement":"65","arrondissement":"653","commune":"65273"},
{"name":"Troncens","latitude":"43.46028","longitude":"0.215","population":"185","region":"76","departement":"32","arrondissement":"323","commune":"32455"},
{"name":"Lescurry","latitude":"43.33583","longitude":"0.15417","population":"175","region":"76","departement":"65","arrondissement":"653","commune":"65269"},
{"name":"Sauveterre","latitude":"43.4745","longitude":"0.1079","population":"173","region":"76","departement":"65","arrondissement":"653","commune":"65412"},
{"name":"Estampes","latitude":"43.39694","longitude":"0.27611","population":"170","region":"76","departement":"32","arrondissement":"323","commune":"32126"},
{"name":"Pouylebon","latitude":"43.54806","longitude":"0.29528","population":"163","region":"76","departement":"32","arrondissement":"323","commune":"32326"},
{"name":"Saint-Justin","latitude":"43.4825","longitude":"0.15111","population":"160","region":"76","departement":"32","arrondissement":"323","commune":"32383"},
{"name":"Saint-Sever-de-Rustan","latitude":"43.35083","longitude":"0.22444","population":"155","region":"76","departement":"65","arrondissement":"653","commune":"65397"},
{"name":"Saint-Aunix-Lengros","latitude":"43.57778","longitude":"0.05167","population":"153","region":"76","departement":"32","arrondissement":"323","commune":"32362"},
{"name":"Bars","latitude":"43.51167","longitude":"0.29417","population":"134","region":"76","departement":"32","arrondissement":"323","commune":"32030"},
{"name":"Tieste-Uragnoux","latitude":"43.54944","longitude":"0.03778","population":"126","region":"76","departement":"32","arrondissement":"323","commune":"32445"},
{"name":"Saint-Maur","latitude":"43.4781","longitude":"0.3437","population":"124","region":"76","departement":"32","arrondissement":"323","commune":"32393"},
{"name":"Laméac","latitude":"43.33222","longitude":"0.22694","population":"123","region":"76","departement":"65","arrondissement":"653","commune":"65254"},
{"name":"Juillac","latitude":"43.54278","longitude":"0.12694","population":"123","region":"76","departement":"32","arrondissement":"323","commune":"32164"},
{"name":"Monclar-sur-Losse","latitude":"43.53139","longitude":"0.33306","population":"120","region":"76","departement":"32","arrondissement":"323","commune":"32265"},
{"name":"Mazerolles","latitude":"43.35444","longitude":"0.28556","population":"120","region":"76","departement":"65","arrondissement":"653","commune":"65308"},
{"name":"Laveraët","latitude":"43.53056","longitude":"0.21389","population":"120","region":"76","departement":"32","arrondissement":"323","commune":"32205"},
{"name":"Hères","latitude":"43.55306","longitude":"0","population":"118","region":"76","departement":"65","arrondissement":"653","commune":"65219"},
{"name":"Betplan","latitude":"43.41333","longitude":"0.19917","population":"116","region":"76","departement":"32","arrondissement":"323","commune":"32050"},
{"name":"Antin","latitude":"43.33361","longitude":"0.28722","population":"114","region":"76","departement":"65","arrondissement":"653","commune":"65015"},
{"name":"Estirac","latitude":"43.49639","longitude":"0.03167","population":"105","region":"76","departement":"65","arrondissement":"653","commune":"65174"},
{"name":"Bernadets-Debat","latitude":"43.35361","longitude":"0.31722","population":"104","region":"76","departement":"65","arrondissement":"653","commune":"65085"},
{"name":"Tourdun","latitude":"43.54861","longitude":"0.15194","population":"99","region":"76","departement":"32","arrondissement":"323","commune":"32450"},
{"name":"Malabat","latitude":"43.43361","longitude":"0.18556","population":"97","region":"76","departement":"32","arrondissement":"323","commune":"32225"},
{"name":"Sarraguzan","latitude":"43.35667","longitude":"0.3375","population":"96","region":"76","departement":"32","arrondissement":"323","commune":"32415"},
{"name":"Armous-et-Cau","latitude":"43.57333","longitude":"0.19","population":"95","region":"76","departement":"32","arrondissement":"323","commune":"32009"},
{"name":"Castex","latitude":"43.37528","longitude":"0.31056","population":"93","region":"76","departement":"32","arrondissement":"323","commune":"32086"},
{"name":"Gensac","latitude":"43.43194","longitude":"0.08417","population":"91","region":"76","departement":"65","arrondissement":"653","commune":"65196"},
{"name":"Ségalas","latitude":"43.41194","longitude":"0.12","population":"90","region":"76","departement":"65","arrondissement":"653","commune":"65414"},
{"name":"Cazaux-Villecomtal","latitude":"43.45333","longitude":"0.17361","population":"88","region":"76","departement":"32","arrondissement":"323","commune":"32099"},
{"name":"Beccas","latitude":"43.43","longitude":"0.15444","population":"88","region":"76","departement":"32","arrondissement":"323","commune":"32039"},
{"name":"Marseillan","latitude":"43.48861","longitude":"0.31667","population":"87","region":"76","departement":"32","arrondissement":"323","commune":"32238"},
{"name":"Mingot","latitude":"43.37444","longitude":"0.17333","population":"86","region":"76","departement":"65","arrondissement":"653","commune":"65311"},
{"name":"Armentieux","latitude":"43.52","longitude":"0.09083","population":"86","region":"76","departement":"32","arrondissement":"323","commune":"32008"},
{"name":"Buzon","latitude":"43.4439","longitude":"0.143","population":"83","region":"76","departement":"65","arrondissement":"653","commune":"65114"},
{"name":"Caussade-Rivière","latitude":"43.515","longitude":"0.01778","population":"82","region":"76","departement":"65","arrondissement":"653","commune":"65137"},
{"name":"Sadeillan","latitude":"43.39278","longitude":"0.34611","population":"82","region":"76","departement":"32","arrondissement":"323","commune":"32355"},
{"name":"Sanous","latitude":"43.37778","longitude":"0.0025","population":"82","region":"76","departement":"65","arrondissement":"653","commune":"65403"},
{"name":"Estampures","latitude":"43.37139","longitude":"0.2825","population":"80","region":"76","departement":"65","arrondissement":"653","commune":"65170"},
{"name":"Peyrun","latitude":"43.33111","longitude":"0.18972","population":"80","region":"76","departement":"65","arrondissement":"653","commune":"65361"},
{"name":"Saint-Christaud","latitude":"43.52972","longitude":"0.26306","population":"77","region":"76","departement":"32","arrondissement":"323","commune":"32367"},
{"name":"Ugnouas","latitude":"43.34083","longitude":"0.09917","population":"74","region":"76","departement":"65","arrondissement":"653","commune":"65457"},
{"name":"Talazac","latitude":"43.33278","longitude":"0.03806","population":"73","region":"76","departement":"65","arrondissement":"653","commune":"65438"},
{"name":"Ricourt","latitude":"43.48778","longitude":"0.17722","population":"71","region":"76","departement":"32","arrondissement":"323","commune":"32342"},
{"name":"Pallanne","latitude":"43.506","longitude":"0.251","population":"68","region":"76","departement":"32","arrondissement":"323","commune":"32303"},
{"name":"Villenave-près-Marsac","latitude":"43.33333","longitude":"0.08889","population":"68","region":"76","departement":"65","arrondissement":"653","commune":"65477"},
{"name":"Sembouès","latitude":"43.46028","longitude":"0.16472","population":"65","region":"76","departement":"32","arrondissement":"323","commune":"32427"},
{"name":"Blousson-Sérian","latitude":"43.45972","longitude":"0.19528","population":"63","region":"76","departement":"32","arrondissement":"323","commune":"32058"},
{"name":"Bazugues","latitude":"43.44833","longitude":"0.34417","population":"62","region":"76","departement":"32","arrondissement":"323","commune":"32034"},
{"name":"Mascaras","latitude":"43.54528","longitude":"0.23222","population":"61","region":"76","departement":"32","arrondissement":"323","commune":"32240"},
{"name":"Ansost","latitude":"43.43306","longitude":"0.11083","population":"55","region":"76","departement":"65","arrondissement":"653","commune":"65013"},
{"name":"Barbachen","latitude":"43.43389","longitude":"0.12556","population":"50","region":"76","departement":"65","arrondissement":"653","commune":"65061"},
{"name":"Scieurac-et-Flourès","latitude":"43.55917","longitude":"0.20528","population":"49","region":"76","departement":"32","arrondissement":"323","commune":"32422"},
{"name":"Moumoulous","latitude":"43.35972","longitude":"0.24167","population":"48","region":"76","departement":"65","arrondissement":"653","commune":"65325"},
{"name":"Mansan","latitude":"43.3395","longitude":"0.1934","population":"45","region":"76","departement":"65","arrondissement":"653","commune":"65297"},
{"name":"Courties","latitude":"43.575","longitude":"0.15667","population":"44","region":"76","departement":"32","arrondissement":"323","commune":"32111"},
{"name":"Monpardiac","latitude":"43.46389","longitude":"0.24389","population":"42","region":"76","departement":"32","arrondissement":"323","commune":"32275"},
{"name":"Fréchède","latitude":"43.36389","longitude":"0.25944","population":"35","region":"76","departement":"65","arrondissement":"653","commune":"65178"},
{"name":"Bouilh-Devant","latitude":"43.33056","longitude":"0.25972","population":"20","region":"76","departement":"65","arrondissement":"653","commune":"65102"}
]