[
{"name":"Poitiers","latitude":"46.58111","longitude":"0.33528","population":"88795","region":"75","departement":"86","arrondissement":"863","commune":"86194"},
{"name":"Buxerolles","latitude":"46.5975","longitude":"0.35","population":"10080","region":"75","departement":"86","arrondissement":"863","commune":"86041"},
{"name":"Migné-Auxances","latitude":"46.62667","longitude":"0.31361","population":"6066","region":"75","departement":"86","arrondissement":"863","commune":"86158"},
{"name":"Vouneuil-sous-Biard","latitude":"46.5732","longitude":"0.2717","population":"5028","region":"75","departement":"86","arrondissement":"863","commune":"86297"},
{"name":"Neuville-de-Poitou","latitude":"46.6848","longitude":"0.2456","population":"4979","region":"75","departement":"86","arrondissement":"863","commune":"86177"},
{"name":"Vouillé","latitude":"46.64056","longitude":"0.16889","population":"3498","region":"75","departement":"86","arrondissement":"863","commune":"86294"},
{"name":"Vendeuvre-du-Poitou","latitude":"46.73556","longitude":"0.30944","population":"2950","region":"75","departement":"86","arrondissement":"863","commune":"86281"},
{"name":"Cissé","latitude":"46.645","longitude":"0.22778","population":"2553","region":"75","departement":"86","arrondissement":"863","commune":"86076"},
{"name":"Mirebeau","latitude":"46.78528","longitude":"0.18167","population":"2198","region":"75","departement":"86","arrondissement":"863","commune":"86160"},
{"name":"Quinçay","latitude":"46.6065","longitude":"0.2375","population":"2126","region":"75","departement":"86","arrondissement":"863","commune":"86204"},
{"name":"Avanton","latitude":"46.66278","longitude":"0.30361","population":"1819","region":"75","departement":"86","arrondissement":"863","commune":"86016"},
{"name":"Biard","latitude":"46.5777","longitude":"0.3068","population":"1638","region":"75","departement":"86","arrondissement":"863","commune":"86027"},
{"name":"Latillé","latitude":"46.61861","longitude":"0.07528","population":"1435","region":"75","departement":"86","arrondissement":"863","commune":"86121"},
{"name":"Béruges","latitude":"46.5675","longitude":"0.20722","population":"1291","region":"75","departement":"86","arrondissement":"863","commune":"86024"},
{"name":"Ayron","latitude":"46.66056","longitude":"0.07694","population":"1109","region":"75","departement":"86","arrondissement":"863","commune":"86017"},
{"name":"Champigny-le-Sec","latitude":"46.71528","longitude":"0.15472","population":"1075","region":"75","departement":"86","arrondissement":"863","commune":"86053"},
{"name":"Charrais","latitude":"46.70444","longitude":"0.2225","population":"978","region":"75","departement":"86","arrondissement":"863","commune":"86060"},
{"name":"Chabournay","latitude":"46.71806","longitude":"0.2575","population":"901","region":"75","departement":"86","arrondissement":"863","commune":"86048"},
{"name":"Chiré-en-Montreuil","latitude":"46.6398","longitude":"0.1268","population":"870","region":"75","departement":"86","arrondissement":"863","commune":"86074"},
{"name":"Benassay","latitude":"46.55917","longitude":"0.04667","population":"863","region":"75","departement":"86","arrondissement":"863","commune":"86021"},
{"name":"Thurageau","latitude":"46.76806","longitude":"0.2425","population":"821","region":"75","departement":"86","arrondissement":"863","commune":"86271"},
{"name":"Villiers","latitude":"46.675","longitude":"0.17389","population":"819","region":"75","departement":"86","arrondissement":"863","commune":"86292"},
{"name":"Lavausseau","latitude":"46.55944","longitude":"0.07333","population":"800","region":"75","departement":"86","arrondissement":"863","commune":"86123"},
{"name":"Le Rochereau","latitude":"46.7064","longitude":"0.1538","population":"716","region":"75","departement":"86","arrondissement":"863","commune":"86208"},
{"name":"Maillé","latitude":"46.6785","longitude":"0.0926","population":"587","region":"75","departement":"86","arrondissement":"863","commune":"86142"},
{"name":"Cherves","latitude":"46.71833","longitude":"0.01778","population":"566","region":"75","departement":"86","arrondissement":"863","commune":"86073"},
{"name":"Vouzailles","latitude":"46.70833","longitude":"0.09389","population":"535","region":"75","departement":"86","arrondissement":"863","commune":"86299"},
{"name":"Blaslay","latitude":"46.7361","longitude":"0.2456","population":"525","region":"75","departement":"86","arrondissement":"863","commune":"86030"},
{"name":"Amberre","latitude":"46.7667","longitude":"0.1655","population":"509","region":"75","departement":"86","arrondissement":"863","commune":"86002"},
{"name":"Frozes","latitude":"46.65917","longitude":"0.13333","population":"485","region":"75","departement":"86","arrondissement":"863","commune":"86102"},
{"name":"Cuhon","latitude":"46.75861","longitude":"0.09639","population":"387","region":"75","departement":"86","arrondissement":"863","commune":"86089"},
{"name":"Varennes","latitude":"46.75861","longitude":"0.19889","population":"368","region":"75","departement":"86","arrondissement":"863","commune":"86277"},
{"name":"Cheneché","latitude":"46.7375","longitude":"0.28056","population":"324","region":"75","departement":"86","arrondissement":"863","commune":"86071"},
{"name":"Maisonneuve","latitude":"46.7217","longitude":"0.0575","population":"298","region":"75","departement":"86","arrondissement":"863","commune":"86144"},
{"name":"Massognes","latitude":"46.74167","longitude":"0.06167","population":"278","region":"75","departement":"86","arrondissement":"863","commune":"86150"},
{"name":"Yversay","latitude":"46.6785","longitude":"0.2159","population":"265","region":"75","departement":"86","arrondissement":"863","commune":"86300"},
{"name":"Doux","latitude":"46.7388","longitude":"0.0143","population":"245","region":"75","departement":"79","arrondissement":"793","commune":"79108"},
{"name":"Mazeuil","latitude":"46.78722","longitude":"0.08389","population":"239","region":"75","departement":"86","arrondissement":"861","commune":"86154"},
{"name":"Craon","latitude":"46.773","longitude":"0.0242","population":"204","region":"75","departement":"86","arrondissement":"861","commune":"86087"}
]