[
{"name":"Vif","latitude":"45.05528","longitude":"5.67","population":"8092","region":"84","departement":"38","arrondissement":"381","commune":"38545"},
{"name":"Vizille","latitude":"45.07825","longitude":"5.7716","population":"7592","region":"84","departement":"38","arrondissement":"381","commune":"38562"},
{"name":"Varces-Allières-et-Risset","latitude":"45.0864","longitude":"5.6825","population":"6422","region":"84","departement":"38","arrondissement":"381","commune":"38524"},
{"name":"La Mure","latitude":"44.9028","longitude":"5.7878","population":"5122","region":"84","departement":"38","arrondissement":"381","commune":"38269"},
{"name":"Champ-sur-Drac","latitude":"45.06944","longitude":"5.7325","population":"3139","region":"84","departement":"38","arrondissement":"381","commune":"38071"},
{"name":"Saint-Paul-de-Varces","latitude":"45.07139","longitude":"5.64056","population":"2095","region":"84","departement":"38","arrondissement":"381","commune":"38436"},
{"name":"Saint-Georges-de-Commiers","latitude":"45.03806","longitude":"5.70361","population":"2060","region":"84","departement":"38","arrondissement":"381","commune":"38388"},
{"name":"Le Gua","latitude":"45.02528","longitude":"5.64778","population":"1910","region":"84","departement":"38","arrondissement":"381","commune":"38187"},
{"name":"La Motte-d'Aveillans","latitude":"44.9613","longitude":"5.7455","population":"1810","region":"84","departement":"38","arrondissement":"381","commune":"38265"},
{"name":"Susville","latitude":"44.9154","longitude":"5.7806","population":"1410","region":"84","departement":"38","arrondissement":"381","commune":"38499"},
{"name":"Pierre-Châtel","latitude":"44.95694","longitude":"5.77611","population":"1268","region":"84","departement":"38","arrondissement":"381","commune":"38304"},
{"name":"Monestier-de-Clermont","latitude":"44.9172","longitude":"5.6357","population":"1237","region":"84","departement":"38","arrondissement":"381","commune":"38242"},
{"name":"Notre-Dame-de-Mésage","latitude":"45.07111","longitude":"5.75611","population":"1207","region":"84","departement":"38","arrondissement":"381","commune":"38279"},
{"name":"Séchilienne","latitude":"45.0549","longitude":"5.8355","population":"899","region":"84","departement":"38","arrondissement":"381","commune":"38478"},
{"name":"Saint-Honoré","latitude":"44.9541","longitude":"5.8076","population":"814","region":"84","departement":"38","arrondissement":"381","commune":"38396"},
{"name":"Saint-Pierre-de-Mésage","latitude":"45.05194","longitude":"5.76444","population":"708","region":"84","departement":"38","arrondissement":"381","commune":"38445"},
{"name":"Sinard","latitude":"44.94556","longitude":"5.65694","population":"634","region":"84","departement":"38","arrondissement":"381","commune":"38492"},
{"name":"Saint-Martin-de-la-Cluze","latitude":"44.9829","longitude":"5.6591","population":"607","region":"84","departement":"38","arrondissement":"381","commune":"38115"},
{"name":"Saint-Jean-de-Vaulx","latitude":"45.01278","longitude":"5.75833","population":"554","region":"84","departement":"38","arrondissement":"381","commune":"38402"},
{"name":"Notre-Dame-de-Vaulx","latitude":"44.98639","longitude":"5.74889","population":"552","region":"84","departement":"38","arrondissement":"381","commune":"38280"},
{"name":"Valbonnais","latitude":"44.9","longitude":"5.90417","population":"500","region":"84","departement":"38","arrondissement":"381","commune":"38518"},
{"name":"Notre-Dame-de-Commiers","latitude":"45.01","longitude":"5.7","population":"482","region":"84","departement":"38","arrondissement":"381","commune":"38277"},
{"name":"Nantes-en-Ratier","latitude":"44.9352","longitude":"5.8274","population":"482","region":"84","departement":"38","arrondissement":"381","commune":"38273"},
{"name":"Monteynard","latitude":"44.97583","longitude":"5.705","population":"470","region":"84","departement":"38","arrondissement":"381","commune":"38254"},
{"name":"Saint-Barthélemy-de-Séchilienne","latitude":"45.04417","longitude":"5.82611","population":"463","region":"84","departement":"38","arrondissement":"381","commune":"38364"},
{"name":"Saint-Théoffrey","latitude":"44.9991","longitude":"5.7734","population":"444","region":"84","departement":"38","arrondissement":"381","commune":"38462"},
{"name":"Saint-Laurent-en-Beaumont","latitude":"44.87917","longitude":"5.85028","population":"436","region":"84","departement":"38","arrondissement":"381","commune":"38413"},
{"name":"La Motte-Saint-Martin","latitude":"44.95","longitude":"5.71667","population":"409","region":"84","departement":"38","arrondissement":"381","commune":"38266"},
{"name":"Prunières","latitude":"44.89306","longitude":"5.76306","population":"375","region":"84","departement":"38","arrondissement":"381","commune":"38326"},
{"name":"Laffrey","latitude":"45.02472","longitude":"5.77361","population":"370","region":"84","departement":"38","arrondissement":"381","commune":"38203"},
{"name":"Villard-Saint-Christophe","latitude":"44.9793","longitude":"5.8067","population":"362","region":"84","departement":"38","arrondissement":"381","commune":"38552"},
{"name":"Cholonge","latitude":"45.00417","longitude":"5.79667","population":"316","region":"84","departement":"38","arrondissement":"381","commune":"38106"},
{"name":"La Salle-en-Beaumont","latitude":"44.86194","longitude":"5.86389","population":"297","region":"84","departement":"38","arrondissement":"381","commune":"38470"},
{"name":"Saint-Jean-d'Hérans","latitude":"44.85333","longitude":"5.76083","population":"294","region":"84","departement":"38","arrondissement":"381","commune":"38403"},
{"name":"Ponsonnas","latitude":"44.88917","longitude":"5.79667","population":"276","region":"84","departement":"38","arrondissement":"381","commune":"38313"},
{"name":"Saint-Paul-lès-Monestier","latitude":"44.92944","longitude":"5.62778","population":"272","region":"84","departement":"38","arrondissement":"381","commune":"38438"},
{"name":"Saint-Sébastien","latitude":"44.84722","longitude":"5.79917","population":"245","region":"84","departement":"38","arrondissement":"381","commune":"38456"},
{"name":"Roissard","latitude":"44.88222","longitude":"5.63972","population":"245","region":"84","departement":"38","arrondissement":"381","commune":"38342"},
{"name":"Entraigues","latitude":"44.9019","longitude":"5.9489","population":"243","region":"84","departement":"38","arrondissement":"381","commune":"38154"},
{"name":"Treffort","latitude":"44.9154","longitude":"5.6582","population":"237","region":"84","departement":"38","arrondissement":"381","commune":"38513"},
{"name":"Avignonet","latitude":"44.95889","longitude":"5.65694","population":"215","region":"84","departement":"38","arrondissement":"381","commune":"38023"},
{"name":"La Morte","latitude":"45.02972","longitude":"5.85611","population":"155","region":"84","departement":"38","arrondissement":"381","commune":"38264"},
{"name":"Lavaldens","latitude":"44.98278","longitude":"5.8875","population":"153","region":"84","departement":"38","arrondissement":"381","commune":"38207"},
{"name":"Sousville","latitude":"44.9136","longitude":"5.8076","population":"150","region":"84","departement":"38","arrondissement":"381","commune":"38497"},
{"name":"Le Périer","latitude":"44.93694","longitude":"5.97333","population":"139","region":"84","departement":"38","arrondissement":"381","commune":"38302"},
{"name":"Saint-Pierre-de-Méaroz","latitude":"44.875","longitude":"5.82361","population":"134","region":"84","departement":"38","arrondissement":"381","commune":"38444"},
{"name":"Lavars","latitude":"44.84889","longitude":"5.6725","population":"132","region":"84","departement":"38","arrondissement":"381","commune":"38208"},
{"name":"Siévoz","latitude":"44.90333","longitude":"5.8375","population":"124","region":"84","departement":"38","arrondissement":"381","commune":"38489"},
{"name":"Oris-en-Rattier","latitude":"44.92111","longitude":"5.87","population":"105","region":"84","departement":"38","arrondissement":"381","commune":"38283"},
{"name":"Mayres-Savel","latitude":"44.874","longitude":"5.7221","population":"100","region":"84","departement":"38","arrondissement":"381","commune":"38224"},
{"name":"Saint-Arey","latitude":"44.87194","longitude":"5.73389","population":"79","region":"84","departement":"38","arrondissement":"381","commune":"38361"},
{"name":"Chantelouve","latitude":"44.9838","longitude":"5.9687","population":"75","region":"84","departement":"38","arrondissement":"381","commune":"38073"},
{"name":"La Valette","latitude":"44.9424","longitude":"5.8571","population":"74","region":"84","departement":"38","arrondissement":"381","commune":"38521"},
{"name":"La Salette-Fallavaux","latitude":"44.84056","longitude":"5.975","population":"71","region":"84","departement":"38","arrondissement":"381","commune":"38469"},
{"name":"Marcieu","latitude":"44.91472","longitude":"5.68972","population":"66","region":"84","departement":"38","arrondissement":"381","commune":"38217"},
{"name":"Cognet","latitude":"44.88111","longitude":"5.77694","population":"50","region":"84","departement":"38","arrondissement":"381","commune":"38116"},
{"name":"Sainte-Luce","latitude":"44.85056","longitude":"5.91167","population":"38","region":"84","departement":"38","arrondissement":"381","commune":"38414"},
{"name":"Saint-Michel-en-Beaumont","latitude":"44.86833","longitude":"5.89972","population":"36","region":"84","departement":"38","arrondissement":"381","commune":"38428"}
]