[
{"name":"Rochefort","latitude":"45.94194","longitude":"-0.96694","population":"25317","region":"75","departement":"17","arrondissement":"172","commune":"17299"},
{"name":"Tonnay-Charente","latitude":"45.94778","longitude":"-0.90889","population":"7778","region":"75","departement":"17","arrondissement":"172","commune":"17449"},
{"name":"Échillais","latitude":"45.89833","longitude":"-0.95167","population":"3299","region":"75","departement":"17","arrondissement":"172","commune":"17146"},
{"name":"Soubise","latitude":"45.92528","longitude":"-1.00889","population":"2970","region":"75","departement":"17","arrondissement":"172","commune":"17429"},
{"name":"Saint-Agnant","latitude":"45.87222","longitude":"-0.96139","population":"2416","region":"75","departement":"17","arrondissement":"172","commune":"17308"},
{"name":"Saint-Laurent-de-la-Prée","latitude":"45.98111","longitude":"-1.04111","population":"1814","region":"75","departement":"17","arrondissement":"172","commune":"17353"},
{"name":"Breuil-Magné","latitude":"45.98417","longitude":"-0.95833","population":"1601","region":"75","departement":"17","arrondissement":"172","commune":"17065"},
{"name":"Yves","latitude":"46.0404","longitude":"-1.0441","population":"1425","region":"75","departement":"17","arrondissement":"172","commune":"17483"},
{"name":"Trizay","latitude":"45.8825","longitude":"-0.89667","population":"1303","region":"75","departement":"17","arrondissement":"174","commune":"17453"},
{"name":"Saint-Hippolyte","latitude":"45.92167","longitude":"-0.89722","population":"1287","region":"75","departement":"17","arrondissement":"172","commune":"17346"},
{"name":"Cabariot","latitude":"45.92556","longitude":"-0.85694","population":"1277","region":"75","departement":"17","arrondissement":"172","commune":"17075"},
{"name":"Bords","latitude":"45.89694","longitude":"-0.79444","population":"1263","region":"75","departement":"17","arrondissement":"175","commune":"17053"},
{"name":"Muron","latitude":"46.03472","longitude":"-0.82972","population":"1218","region":"75","departement":"17","arrondissement":"172","commune":"17253"},
{"name":"Ciré-d'Aunis","latitude":"46.05472","longitude":"-0.93139","population":"1175","region":"75","departement":"17","arrondissement":"172","commune":"17107"},
{"name":"Tonnay-Boutonne","latitude":"45.96778","longitude":"-0.70667","population":"1158","region":"75","departement":"17","arrondissement":"175","commune":"17448"},
{"name":"Saint-Nazaire-sur-Charente","latitude":"45.936","longitude":"-1.0522","population":"1124","region":"75","departement":"17","arrondissement":"172","commune":"17375"},
{"name":"Beurlay","latitude":"45.86028","longitude":"-0.83694","population":"1009","region":"75","departement":"17","arrondissement":"174","commune":"17045"},
{"name":"Vergeroux","latitude":"45.96083","longitude":"-0.98611","population":"1001","region":"75","departement":"17","arrondissement":"172","commune":"17463"},
{"name":"Lussant","latitude":"45.96056","longitude":"-0.82194","population":"913","region":"75","departement":"17","arrondissement":"172","commune":"17216"},
{"name":"Ardillières","latitude":"46.05833","longitude":"-0.8925","population":"782","region":"75","departement":"17","arrondissement":"172","commune":"17018"},
{"name":"Genouillé","latitude":"46.0225","longitude":"-0.78528","population":"777","region":"75","departement":"17","arrondissement":"172","commune":"17174"},
{"name":"Vandré","latitude":"46.05556","longitude":"-0.76528","population":"750","region":"75","departement":"17","arrondissement":"172","commune":"17457"},
{"name":"Ballon","latitude":"46.05694","longitude":"-0.95222","population":"709","region":"75","departement":"17","arrondissement":"172","commune":"17032"},
{"name":"La Vallée","latitude":"45.89167","longitude":"-0.84167","population":"688","region":"75","departement":"17","arrondissement":"174","commune":"17455"},
{"name":"Landrais","latitude":"46.06972","longitude":"-0.86222","population":"680","region":"75","departement":"17","arrondissement":"172","commune":"17203"},
{"name":"Beaugeay","latitude":"45.87389","longitude":"-1.00056","population":"674","region":"75","departement":"17","arrondissement":"172","commune":"17036"},
{"name":"Geay","latitude":"45.87167","longitude":"-0.76556","population":"668","region":"75","departement":"17","arrondissement":"174","commune":"17171"},
{"name":"Champagne","latitude":"45.83111","longitude":"-0.90806","population":"639","region":"75","departement":"17","arrondissement":"172","commune":"17083"},
{"name":"Archingeay","latitude":"45.93083","longitude":"-0.70583","population":"637","region":"75","departement":"17","arrondissement":"175","commune":"17017"},
{"name":"Romegoux","latitude":"45.87167","longitude":"-0.80639","population":"626","region":"75","departement":"17","arrondissement":"174","commune":"17302"},
{"name":"Moëze","latitude":"45.90472","longitude":"-1.03583","population":"551","region":"75","departement":"17","arrondissement":"172","commune":"17237"},
{"name":"Sainte-Radegonde","latitude":"45.8469","longitude":"-0.874","population":"503","region":"75","departement":"17","arrondissement":"174","commune":"17389"},
{"name":"Moragne","latitude":"45.97194","longitude":"-0.80389","population":"465","region":"75","departement":"17","arrondissement":"172","commune":"17246"},
{"name":"Crazannes","latitude":"45.84889","longitude":"-0.70444","population":"442","region":"75","departement":"17","arrondissement":"174","commune":"17134"},
{"name":"Puy-du-Lac","latitude":"45.9513","longitude":"-0.7525","population":"397","region":"75","departement":"17","arrondissement":"175","commune":"17292"},
{"name":"Champdolent","latitude":"45.91917","longitude":"-0.80139","population":"394","region":"75","departement":"17","arrondissement":"175","commune":"17085"},
{"name":"Saint-Coutant-le-Grand","latitude":"45.95389","longitude":"-0.76889","population":"357","region":"75","departement":"17","arrondissement":"172","commune":"17320"},
{"name":"Loire-les-Marais","latitude":"45.9936","longitude":"-0.9298","population":"336","region":"75","departement":"17","arrondissement":"172","commune":"17205"},
{"name":"Saint-Crépin","latitude":"46.00194","longitude":"-0.73306","population":"270","region":"75","departement":"17","arrondissement":"175","commune":"17321"},
{"name":"Le Mung","latitude":"45.87472","longitude":"-0.71306","population":"263","region":"75","departement":"17","arrondissement":"175","commune":"17252"},
{"name":"Annezay","latitude":"46.00917","longitude":"-0.71389","population":"159","region":"75","departement":"17","arrondissement":"175","commune":"17012"}
]