[
{"name":"Montpellier","latitude":"43.6113","longitude":"3.8771","population":"255080","region":"76","departement":"34","arrondissement":"343","commune":"34172"},
{"name":"Lunel","latitude":"43.67694","longitude":"4.13528","population":"24923","region":"76","departement":"34","arrondissement":"343","commune":"34145"},
{"name":"Mauguio","latitude":"43.61639","longitude":"4.0075","population":"16195","region":"76","departement":"34","arrondissement":"343","commune":"34154"},
{"name":"Castelnau-le-Lez","latitude":"43.63611","longitude":"3.90139","population":"14925","region":"76","departement":"34","arrondissement":"343","commune":"34057"},
{"name":"Le Crès","latitude":"43.64722","longitude":"3.93917","population":"7632","region":"76","departement":"34","arrondissement":"343","commune":"34090"},
{"name":"Baillargues","latitude":"43.66111","longitude":"4.01278","population":"6130","region":"76","departement":"34","arrondissement":"343","commune":"34022"},
{"name":"Marsillargues","latitude":"43.66444","longitude":"4.17694","population":"6046","region":"76","departement":"34","arrondissement":"343","commune":"34151"},
{"name":"Castries","latitude":"43.6788","longitude":"3.9824","population":"5671","region":"76","departement":"34","arrondissement":"343","commune":"34058"},
{"name":"Vendargues","latitude":"43.65778","longitude":"3.96944","population":"5477","region":"76","departement":"34","arrondissement":"343","commune":"34327"},
{"name":"Clapiers","latitude":"43.6575","longitude":"3.88833","population":"5135","region":"76","departement":"34","arrondissement":"343","commune":"34077"},
{"name":"Calvisson","latitude":"43.785","longitude":"4.19222","population":"4857","region":"76","departement":"30","arrondissement":"302","commune":"30062"},
{"name":"Jacou","latitude":"43.66056","longitude":"3.91139","population":"4824","region":"76","departement":"34","arrondissement":"343","commune":"34120"},
{"name":"Saint-Mathieu-de-Tréviers","latitude":"43.76972","longitude":"3.86861","population":"4662","region":"76","departement":"34","arrondissement":"343","commune":"34276"},
{"name":"Sommières","latitude":"43.78444","longitude":"4.09","population":"4496","region":"76","departement":"30","arrondissement":"302","commune":"30321"},
{"name":"Teyran","latitude":"43.68417","longitude":"3.92806","population":"4358","region":"76","departement":"34","arrondissement":"343","commune":"34309"},
{"name":"Aimargues","latitude":"43.68472","longitude":"4.20861","population":"4224","region":"76","departement":"30","arrondissement":"302","commune":"30006"},
{"name":"Clarensac","latitude":"43.8273","longitude":"4.2182","population":"3752","region":"76","departement":"30","arrondissement":"302","commune":"30082"},
{"name":"Lunel-Viel","latitude":"43.67778","longitude":"4.09167","population":"3678","region":"76","departement":"34","arrondissement":"343","commune":"34146"},
{"name":"Gallargues-le-Montueux","latitude":"43.7211","longitude":"4.1732","population":"3257","region":"76","departement":"30","arrondissement":"302","commune":"30123"},
{"name":"Saint-Laurent-d'Aigouze","latitude":"43.63444","longitude":"4.19556","population":"3246","region":"76","departement":"30","arrondissement":"302","commune":"30276"},
{"name":"Saint-Aunès","latitude":"43.64","longitude":"3.96528","population":"3030","region":"76","departement":"34","arrondissement":"343","commune":"34240"},
{"name":"Aigues-Vives","latitude":"43.7391","longitude":"4.1813","population":"2859","region":"76","departement":"30","arrondissement":"302","commune":"30004"},
{"name":"Saint-Just","latitude":"43.65722","longitude":"4.11389","population":"2785","region":"76","departement":"34","arrondissement":"343","commune":"34272"},
{"name":"Lansargues","latitude":"43.65139","longitude":"4.07306","population":"2677","region":"76","departement":"34","arrondissement":"343","commune":"34127"},
{"name":"Saint-Brès","latitude":"43.6671","longitude":"4.0301","population":"2650","region":"76","departement":"34","arrondissement":"343","commune":"34244"},
{"name":"Mudaison","latitude":"43.6464","longitude":"4.04","population":"2500","region":"76","departement":"34","arrondissement":"343","commune":"34176"},
{"name":"Sussargues","latitude":"43.7121","longitude":"4.0031","population":"2496","region":"76","departement":"34","arrondissement":"343","commune":"34307"},
{"name":"Aubais","latitude":"43.755","longitude":"4.14778","population":"2357","region":"76","departement":"30","arrondissement":"302","commune":"30019"},
{"name":"Saint-Drézéry","latitude":"43.73333","longitude":"3.98333","population":"2137","region":"76","departement":"34","arrondissement":"343","commune":"34249"},
{"name":"Valergues","latitude":"43.6675","longitude":"4.06167","population":"2008","region":"76","departement":"34","arrondissement":"343","commune":"34321"},
{"name":"Villevieille","latitude":"43.78861","longitude":"4.09639","population":"1650","region":"76","departement":"30","arrondissement":"302","commune":"30352"},
{"name":"Beaulieu","latitude":"43.72806","longitude":"4.02139","population":"1641","region":"76","departement":"34","arrondissement":"343","commune":"34027"},
{"name":"Saint-Geniès-des-Mourgues","latitude":"43.69694","longitude":"4.03528","population":"1621","region":"76","departement":"34","arrondissement":"343","commune":"34256"},
{"name":"Boisseron","latitude":"43.75972","longitude":"4.08111","population":"1599","region":"76","departement":"34","arrondissement":"343","commune":"34033"},
{"name":"Congénies","latitude":"43.7787","longitude":"4.1606","population":"1553","region":"76","departement":"30","arrondissement":"302","commune":"30091"},
{"name":"Restinclières","latitude":"43.72361","longitude":"4.03889","population":"1552","region":"76","departement":"34","arrondissement":"343","commune":"34227"},
{"name":"Assas","latitude":"43.70194","longitude":"3.89917","population":"1541","region":"76","departement":"34","arrondissement":"343","commune":"34014"},
{"name":"Saint-Christol","latitude":"43.72778","longitude":"4.07972","population":"1402","region":"76","departement":"34","arrondissement":"343","commune":"34246"},
{"name":"Villetelle","latitude":"43.73389","longitude":"4.14","population":"1378","region":"76","departement":"34","arrondissement":"343","commune":"34340"},
{"name":"Mus","latitude":"43.73972","longitude":"4.20111","population":"1286","region":"76","departement":"30","arrondissement":"302","commune":"30185"},
{"name":"Candillargues","latitude":"43.62","longitude":"4.06806","population":"1276","region":"76","departement":"34","arrondissement":"343","commune":"34050"},
{"name":"Junas","latitude":"43.76972","longitude":"4.12278","population":"1085","region":"76","departement":"30","arrondissement":"302","commune":"30136"},
{"name":"Saint-Bauzille-de-Montmel","latitude":"43.76944","longitude":"3.95528","population":"936","region":"76","departement":"34","arrondissement":"343","commune":"34242"},
{"name":"Saussines","latitude":"43.7634","longitude":"4.058","population":"928","region":"76","departement":"34","arrondissement":"343","commune":"34296"},
{"name":"Saint-Sériès","latitude":"43.73167","longitude":"4.10528","population":"907","region":"76","departement":"34","arrondissement":"343","commune":"34288"},
{"name":"Saturargues","latitude":"43.7225","longitude":"4.11361","population":"886","region":"76","departement":"34","arrondissement":"343","commune":"34294"},
{"name":"Montaud","latitude":"43.75111","longitude":"3.95556","population":"884","region":"76","departement":"34","arrondissement":"343","commune":"34164"},
{"name":"Aujargues","latitude":"43.78972","longitude":"4.12306","population":"844","region":"76","departement":"30","arrondissement":"302","commune":"30023"},
{"name":"Saint-Côme-et-Maruéjols","latitude":"43.8282","longitude":"4.2029","population":"774","region":"76","departement":"30","arrondissement":"302","commune":"30245"},
{"name":"Souvignargues","latitude":"43.8138","longitude":"4.1228","population":"746","region":"76","departement":"30","arrondissement":"302","commune":"30324"},
{"name":"Valflaunès","latitude":"43.80056","longitude":"3.87194","population":"712","region":"76","departement":"34","arrondissement":"343","commune":"34322"},
{"name":"Vérargues","latitude":"43.71667","longitude":"4.1","population":"711","region":"76","departement":"34","arrondissement":"343","commune":"34330"},
{"name":"Saint-Vincent-de-Barbeyrargues","latitude":"43.70611","longitude":"3.87722","population":"676","region":"76","departement":"34","arrondissement":"343","commune":"34290"},
{"name":"Saint-Jean-de-Cornies","latitude":"43.7445","longitude":"4.0013","population":"668","region":"76","departement":"34","arrondissement":"343","commune":"34265"},
{"name":"Galargues","latitude":"43.77056","longitude":"4.02139","population":"629","region":"76","departement":"34","arrondissement":"343","commune":"34110"},
{"name":"Fontanès","latitude":"43.83","longitude":"4.0877","population":"624","region":"76","departement":"30","arrondissement":"302","commune":"30114"},
{"name":"Sainte-Croix-de-Quintillargues","latitude":"43.7725","longitude":"3.90917","population":"576","region":"76","departement":"34","arrondissement":"343","commune":"34248"},
{"name":"Saint-Nazaire-de-Pézan","latitude":"43.6437","longitude":"4.1192","population":"568","region":"76","departement":"34","arrondissement":"343","commune":"34280"},
{"name":"Salinelles","latitude":"43.8102","longitude":"4.0688","population":"504","region":"76","departement":"30","arrondissement":"302","commune":"30306"},
{"name":"Aspères","latitude":"43.80833","longitude":"4.03944","population":"486","region":"76","departement":"30","arrondissement":"302","commune":"30018"},
{"name":"Guzargues","latitude":"43.7225","longitude":"3.925","population":"438","region":"76","departement":"34","arrondissement":"343","commune":"34118"},
{"name":"Carnas","latitude":"43.8309","longitude":"3.9887","population":"412","region":"76","departement":"30","arrondissement":"303","commune":"30069"},
{"name":"Saint-Hilaire-de-Beauvoir","latitude":"43.75639","longitude":"4.01361","population":"358","region":"76","departement":"34","arrondissement":"343","commune":"34263"},
{"name":"Saint-Clément","latitude":"43.8309","longitude":"4.0274","population":"289","region":"76","departement":"30","arrondissement":"302","commune":"30244"},
{"name":"Campagne","latitude":"43.78722","longitude":"4.02944","population":"269","region":"76","departement":"34","arrondissement":"343","commune":"34048"},
{"name":"Buzignargues","latitude":"43.77028","longitude":"4.005","population":"261","region":"76","departement":"34","arrondissement":"343","commune":"34043"},
{"name":"Fontanès","latitude":"43.7949","longitude":"3.9149","population":"259","region":"76","departement":"34","arrondissement":"343","commune":"34102"},
{"name":"Garrigues","latitude":"43.79472","longitude":"4.01389","population":"160","region":"76","departement":"34","arrondissement":"343","commune":"34112"}
]