[
{"name":"Saumur","latitude":"47.25917","longitude":"-0.07806","population":"28070","region":"52","departement":"49","arrondissement":"493","commune":"49328"},
{"name":"Doué-la-Fontaine","latitude":"47.19306","longitude":"-0.27556","population":"7477","region":"52","departement":"49","arrondissement":"493","commune":"49125"},
{"name":"Montreuil-Bellay","latitude":"47.13139","longitude":"-0.15361","population":"4041","region":"52","departement":"49","arrondissement":"493","commune":"49215"},
{"name":"Distré","latitude":"47.22389","longitude":"-0.11167","population":"1646","region":"52","departement":"49","arrondissement":"493","commune":"49123"},
{"name":"Argenton-l'Église","latitude":"47.04389","longitude":"-0.26056","population":"1632","region":"75","departement":"79","arrondissement":"791","commune":"79014"},
{"name":"Villebernier","latitude":"47.25306","longitude":"-0.03083","population":"1445","region":"52","departement":"49","arrondissement":"493","commune":"49374"},
{"name":"Brézé","latitude":"47.17139","longitude":"-0.05833","population":"1316","region":"52","departement":"49","arrondissement":"493","commune":"49046"},
{"name":"Le Puy-Notre-Dame","latitude":"47.12528","longitude":"-0.235","population":"1292","region":"52","departement":"49","arrondissement":"493","commune":"49253"},
{"name":"Chacé","latitude":"47.21472","longitude":"-0.06944","population":"1247","region":"52","departement":"49","arrondissement":"493","commune":"49060"},
{"name":"Vaudelnay","latitude":"47.1375","longitude":"-0.2035","population":"1238","region":"52","departement":"49","arrondissement":"493","commune":"49364"},
{"name":"Varrains","latitude":"47.22306","longitude":"-0.06278","population":"1201","region":"52","departement":"49","arrondissement":"493","commune":"49362"},
{"name":"Bouillé-Loretz","latitude":"47.07889","longitude":"-0.2725","population":"1054","region":"75","departement":"79","arrondissement":"791","commune":"79043"},
{"name":"Saint-Cyr-en-Bourg","latitude":"47.19389","longitude":"-0.06056","population":"986","region":"52","departement":"49","arrondissement":"493","commune":"49274"},
{"name":"Saint-Martin-de-Sanzay","latitude":"47.08111","longitude":"-0.20083","population":"954","region":"75","departement":"79","arrondissement":"791","commune":"79277"},
{"name":"Tuffalun","latitude":"47.26333","longitude":"-0.34417","population":"951","region":"52","departement":"49","arrondissement":"493","commune":"49003"},
{"name":"Le Coudray-Macouard","latitude":"47.19472","longitude":"-0.11944","population":"904","region":"52","departement":"49","arrondissement":"493","commune":"49112"},
{"name":"Les Verchers-sur-Layon","latitude":"47.15389","longitude":"-0.29667","population":"883","region":"52","departement":"49","arrondissement":"493","commune":"49365"},
{"name":"Louresse-Rochemenier","latitude":"47.2392","longitude":"-0.3133","population":"852","region":"52","departement":"49","arrondissement":"493","commune":"49182"},
{"name":"Brion-près-Thouet","latitude":"47.05139","longitude":"-0.18583","population":"751","region":"75","departement":"79","arrondissement":"791","commune":"79056"},
{"name":"Souzay-Champigny","latitude":"47.23583","longitude":"-0.00917","population":"736","region":"52","departement":"49","arrondissement":"493","commune":"49341"},
{"name":"Rou-Marson","latitude":"47.235","longitude":"-0.15667","population":"682","region":"52","departement":"49","arrondissement":"493","commune":"49262"},
{"name":"Épieds","latitude":"47.14389","longitude":"-0.04611","population":"677","region":"52","departement":"49","arrondissement":"493","commune":"49131"},
{"name":"Les Ulmes","latitude":"47.21944","longitude":"-0.17833","population":"561","region":"52","departement":"49","arrondissement":"493","commune":"49359"},
{"name":"Concourson-sur-Layon","latitude":"47.17444","longitude":"-0.34028","population":"544","region":"52","departement":"49","arrondissement":"493","commune":"49104"},
{"name":"Antoigné","latitude":"47.08417","longitude":"-0.11278","population":"482","region":"52","departement":"49","arrondissement":"493","commune":"49009"},
{"name":"Cizay-la-Madeleine","latitude":"47.18861","longitude":"-0.18722","population":"476","region":"52","departement":"49","arrondissement":"493","commune":"49100"},
{"name":"Courchamps","latitude":"47.20083","longitude":"-0.15806","population":"453","region":"52","departement":"49","arrondissement":"493","commune":"49113"},
{"name":"Dénezé-sous-Doué","latitude":"47.24667","longitude":"-0.275","population":"446","region":"52","departement":"49","arrondissement":"493","commune":"49121"},
{"name":"Artannes-sur-Thouet","latitude":"47.19917","longitude":"-0.09472","population":"442","region":"52","departement":"49","arrondissement":"493","commune":"49011"},
{"name":"Verrie","latitude":"47.26556","longitude":"-0.17972","population":"430","region":"52","departement":"49","arrondissement":"493","commune":"49370"},
{"name":"Saint-Macaire-du-Bois","latitude":"47.11722","longitude":"-0.28833","population":"425","region":"52","departement":"49","arrondissement":"493","commune":"49302"},
{"name":"Saint-Just-sur-Dive","latitude":"47.17389","longitude":"-0.10028","population":"400","region":"52","departement":"49","arrondissement":"493","commune":"49291"},
{"name":"Saint-Léger-de-Montbrillais","latitude":"47.07111","longitude":"-0.04417","population":"390","region":"75","departement":"86","arrondissement":"861","commune":"86229"},
{"name":"Morton","latitude":"47.10861","longitude":"-0.02333","population":"366","region":"75","departement":"86","arrondissement":"861","commune":"86169"},
{"name":"Saint-Cyr-la-Lande","latitude":"47.05167","longitude":"-0.14389","population":"348","region":"75","departement":"79","arrondissement":"791","commune":"79244"},
{"name":"Meigné","latitude":"47.23167","longitude":"-0.21083","population":"347","region":"52","departement":"49","arrondissement":"493","commune":"49198"},
{"name":"Brossay","latitude":"47.16401","longitude":"-0.2125","population":"317","region":"52","departement":"49","arrondissement":"493","commune":"49053"},
{"name":"Berrie","latitude":"47.06722","longitude":"-0.06861","population":"263","region":"75","departement":"86","arrondissement":"861","commune":"86022"},
{"name":"Pouançay","latitude":"47.08","longitude":"-0.07333","population":"236","region":"75","departement":"86","arrondissement":"861","commune":"86196"},
{"name":"Forges","latitude":"47.21889","longitude":"-0.24444","population":"234","region":"52","departement":"49","arrondissement":"493","commune":"49141"},
{"name":"Raslay","latitude":"47.1123","longitude":"-0.0019","population":"114","region":"75","departement":"86","arrondissement":"861","commune":"86206"},
{"name":"Montfort","latitude":"47.1975","longitude":"-0.21111","population":"110","region":"52","departement":"49","arrondissement":"493","commune":"49207"}
]