[
{"name":"Joinville","latitude":"48.4425","longitude":"5.13806","population":"3712","region":"44","departement":"52","arrondissement":"523","commune":"52250"},
{"name":"Froncles","latitude":"48.29917","longitude":"5.14611","population":"1603","region":"44","departement":"52","arrondissement":"521","commune":"52211"},
{"name":"Doulaincourt-Saucourt","latitude":"48.3228","longitude":"5.2073","population":"950","region":"44","departement":"52","arrondissement":"523","commune":"52177"},
{"name":"Thonnance-lès-Joinville","latitude":"48.45472","longitude":"5.17222","population":"812","region":"44","departement":"52","arrondissement":"523","commune":"52490"},
{"name":"Poissons","latitude":"48.42306","longitude":"5.21972","population":"736","region":"44","departement":"52","arrondissement":"523","commune":"52398"},
{"name":"Saint-Urbain-Maconcourt","latitude":"48.4002","longitude":"5.183","population":"649","region":"44","departement":"52","arrondissement":"523","commune":"52456"},
{"name":"Roches-Bettaincourt","latitude":"48.3066","longitude":"5.2523","population":"626","region":"44","departement":"52","arrondissement":"523","commune":"52044"},
{"name":"Vecqueville","latitude":"48.45833","longitude":"5.14056","population":"603","region":"44","departement":"52","arrondissement":"523","commune":"52512"},
{"name":"Doulevant-le-Château","latitude":"48.37722","longitude":"4.9225","population":"428","region":"44","departement":"52","arrondissement":"523","commune":"52178"},
{"name":"Soncourt-sur-Marne","latitude":"48.2525","longitude":"5.11417","population":"413","region":"44","departement":"52","arrondissement":"521","commune":"52480"},
{"name":"Donjeux","latitude":"48.36389","longitude":"5.15556","population":"398","region":"44","departement":"52","arrondissement":"523","commune":"52175"},
{"name":"Rouvroy-sur-Marne","latitude":"48.3575","longitude":"5.14694","population":"368","region":"44","departement":"52","arrondissement":"523","commune":"52440"},
{"name":"Gudmont-Villiers","latitude":"48.3435","longitude":"5.138","population":"350","region":"44","departement":"52","arrondissement":"523","commune":"52230"},
{"name":"Suzannecourt","latitude":"48.44472","longitude":"5.16972","population":"341","region":"44","departement":"52","arrondissement":"523","commune":"52484"},
{"name":"Fronville","latitude":"48.40389","longitude":"5.15278","population":"336","region":"44","departement":"52","arrondissement":"523","commune":"52212"},
{"name":"Mussey-sur-Marne","latitude":"48.37917","longitude":"5.14917","population":"333","region":"44","departement":"52","arrondissement":"523","commune":"52346"},
{"name":"Viéville","latitude":"48.23889","longitude":"5.13417","population":"331","region":"44","departement":"52","arrondissement":"521","commune":"52522"},
{"name":"Rupt","latitude":"48.42389","longitude":"5.14028","population":"320","region":"44","departement":"52","arrondissement":"523","commune":"52442"},
{"name":"Vignory","latitude":"48.27806","longitude":"5.10306","population":"288","region":"44","departement":"52","arrondissement":"521","commune":"52524"},
{"name":"Vouécourt","latitude":"48.26722","longitude":"5.13639","population":"224","region":"44","departement":"52","arrondissement":"521","commune":"52547"},
{"name":"Dommartin-le-Franc","latitude":"48.4275","longitude":"4.96083","population":"218","region":"44","departement":"52","arrondissement":"523","commune":"52171"},
{"name":"Ville-en-Blaisois","latitude":"48.43972","longitude":"4.95944","population":"176","region":"44","departement":"52","arrondissement":"523","commune":"52528"},
{"name":"Noncourt-sur-le-Rongeant","latitude":"48.41944","longitude":"5.24333","population":"169","region":"44","departement":"52","arrondissement":"523","commune":"52357"},
{"name":"Charmes-la-Grande","latitude":"48.38389","longitude":"4.99333","population":"165","region":"44","departement":"52","arrondissement":"523","commune":"52110"},
{"name":"Oudincourt","latitude":"48.22528","longitude":"5.09389","population":"164","region":"44","departement":"52","arrondissement":"521","commune":"52371"},
{"name":"Morancourt","latitude":"48.43194","longitude":"5.0025","population":"140","region":"44","departement":"52","arrondissement":"523","commune":"52341"},
{"name":"Baudrecourt","latitude":"48.39556","longitude":"4.96222","population":"124","region":"44","departement":"52","arrondissement":"523","commune":"52039"},
{"name":"Courcelles-sur-Blaise","latitude":"48.415","longitude":"4.94139","population":"120","region":"44","departement":"52","arrondissement":"523","commune":"52149"},
{"name":"Cirey-sur-Blaise","latitude":"48.33222","longitude":"4.94056","population":"114","region":"44","departement":"52","arrondissement":"523","commune":"52129"},
{"name":"Marbéville","latitude":"48.27639","longitude":"5.02278","population":"113","region":"44","departement":"52","arrondissement":"521","commune":"52310"},
{"name":"Blécourt","latitude":"48.38056","longitude":"5.08333","population":"109","region":"44","departement":"52","arrondissement":"523","commune":"52055"},
{"name":"Rachecourt-Suzémont","latitude":"48.4569","longitude":"4.9652","population":"108","region":"44","departement":"52","arrondissement":"523","commune":"52413"},
{"name":"Signéville","latitude":"48.26611","longitude":"5.27333","population":"101","region":"44","departement":"52","arrondissement":"521","commune":"52473"},
{"name":"Nomécourt","latitude":"48.43806","longitude":"5.07361","population":"99","region":"44","departement":"52","arrondissement":"523","commune":"52356"},
{"name":"Leschères-sur-le-Blaiseron","latitude":"48.33722","longitude":"5.03917","population":"98","region":"44","departement":"52","arrondissement":"523","commune":"52284"},
{"name":"Vraincourt","latitude":"48.24139","longitude":"5.12472","population":"97","region":"44","departement":"52","arrondissement":"521","commune":"52548"},
{"name":"Cerisières","latitude":"48.3075","longitude":"5.0804","population":"96","region":"44","departement":"52","arrondissement":"523","commune":"52091"},
{"name":"Domremy-Landéville","latitude":"48.3606","longitude":"5.2514","population":"87","region":"44","departement":"52","arrondissement":"523","commune":"52173"},
{"name":"Lamothe-en-Blaisy","latitude":"48.24056","longitude":"4.94472","population":"81","region":"44","departement":"52","arrondissement":"521","commune":"52262"},
{"name":"Daillancourt","latitude":"48.3025","longitude":"4.95333","population":"75","region":"44","departement":"52","arrondissement":"521","commune":"52160"},
{"name":"Ambonville","latitude":"48.31194","longitude":"5.01556","population":"72","region":"44","departement":"52","arrondissement":"523","commune":"52007"},
{"name":"Flammerécourt","latitude":"48.36222","longitude":"5.04139","population":"66","region":"44","departement":"52","arrondissement":"523","commune":"52201"},
{"name":"Vaux-sur-Saint-Urbain","latitude":"48.37528","longitude":"5.20833","population":"66","region":"44","departement":"52","arrondissement":"523","commune":"52511"},
{"name":"Bouzancourt","latitude":"48.31417","longitude":"4.94944","population":"62","region":"44","departement":"52","arrondissement":"523","commune":"52065"},
{"name":"Brachay","latitude":"48.37611","longitude":"5.02806","population":"59","region":"44","departement":"52","arrondissement":"523","commune":"52066"},
{"name":"Rouécourt","latitude":"48.32528","longitude":"5.06917","population":"57","region":"44","departement":"52","arrondissement":"523","commune":"52436"},
{"name":"Mathons","latitude":"48.4182","longitude":"5.0444","population":"56","region":"44","departement":"52","arrondissement":"523","commune":"52316"},
{"name":"Mirbel","latitude":"48.28944","longitude":"5.04361","population":"53","region":"44","departement":"52","arrondissement":"521","commune":"52326"},
{"name":"Doulevant-le-Petit","latitude":"48.4475","longitude":"4.95778","population":"48","region":"44","departement":"52","arrondissement":"523","commune":"52179"},
{"name":"Ferrière-et-Lafolie","latitude":"48.39167","longitude":"5.08778","population":"46","region":"44","departement":"52","arrondissement":"523","commune":"52199"},
{"name":"Sailly","latitude":"48.43389","longitude":"5.27333","population":"45","region":"44","departement":"52","arrondissement":"523","commune":"52443"},
{"name":"Guindrecourt-sur-Blaise","latitude":"48.29639","longitude":"4.97417","population":"44","region":"44","departement":"52","arrondissement":"521","commune":"52232"},
{"name":"Annonville","latitude":"48.38417","longitude":"5.26972","population":"31","region":"44","departement":"52","arrondissement":"523","commune":"52012"},
{"name":"La Genevroye","latitude":"48.27861","longitude":"5.05361","population":"26","region":"44","departement":"52","arrondissement":"521","commune":"52214"},
{"name":"Curmont","latitude":"48.25944","longitude":"4.95444","population":"16","region":"44","departement":"52","arrondissement":"521","commune":"52157"},
{"name":"Charmes-en-l'Angle","latitude":"48.35905","longitude":"4.99706","population":"8","region":"44","departement":"52","arrondissement":"523","commune":"52109"}
]