[
{"name":"Aubusson","latitude":"45.95611","longitude":"2.1675","population":"3972","region":"75","departement":"23","arrondissement":"231","commune":"23008"},
{"name":"Felletin","latitude":"45.88361","longitude":"2.17306","population":"1855","region":"75","departement":"23","arrondissement":"231","commune":"23079"},
{"name":"Mainsat","latitude":"46.0525","longitude":"2.38667","population":"617","region":"75","departement":"23","arrondissement":"231","commune":"23116"},
{"name":"Saint-Médard-la-Rochette","latitude":"46.044","longitude":"2.1464","population":"573","region":"75","departement":"23","arrondissement":"231","commune":"23220"},
{"name":"Blessac","latitude":"45.95861","longitude":"2.12667","population":"524","region":"75","departement":"23","arrondissement":"231","commune":"23024"},
{"name":"Saint-Amand","latitude":"45.98167","longitude":"2.20833","population":"517","region":"75","departement":"23","arrondissement":"231","commune":"23180"},
{"name":"Crocq","latitude":"45.86806","longitude":"2.36722","population":"466","region":"75","departement":"23","arrondissement":"231","commune":"23069"},
{"name":"Champagnat","latitude":"46.01833","longitude":"2.28333","population":"438","region":"75","departement":"23","arrondissement":"231","commune":"23048"},
{"name":"Moutier-Rozeille","latitude":"45.91667","longitude":"2.19722","population":"435","region":"75","departement":"23","arrondissement":"231","commune":"23140"},
{"name":"Bellegarde-en-Marche","latitude":"45.98194","longitude":"2.29444","population":"422","region":"75","departement":"23","arrondissement":"231","commune":"23020"},
{"name":"Saint-Marc-à-Frongier","latitude":"45.92972","longitude":"2.12056","population":"361","region":"75","departement":"23","arrondissement":"231","commune":"23211"},
{"name":"Saint-Quentin-la-Chabanne","latitude":"45.86444","longitude":"2.15528","population":"357","region":"75","departement":"23","arrondissement":"231","commune":"23238"},
{"name":"Lupersat","latitude":"45.98528","longitude":"2.35583","population":"331","region":"75","departement":"23","arrondissement":"231","commune":"23113"},
{"name":"Issoudun-Létrieix","latitude":"46.06028","longitude":"2.14306","population":"299","region":"75","departement":"23","arrondissement":"231","commune":"23097"},
{"name":"Néoux","latitude":"45.915","longitude":"2.26056","population":"299","region":"75","departement":"23","arrondissement":"231","commune":"23142"},
{"name":"Saint-Alpinien","latitude":"45.97778","longitude":"2.23806","population":"297","region":"75","departement":"23","arrondissement":"231","commune":"23179"},
{"name":"Saint-Maixant","latitude":"45.99361","longitude":"2.20722","population":"225","region":"75","departement":"23","arrondissement":"231","commune":"23210"},
{"name":"Mautes","latitude":"45.94389","longitude":"2.38444","population":"224","region":"75","departement":"23","arrondissement":"231","commune":"23127"},
{"name":"Saint-Silvain-Bellegarde","latitude":"45.9729","longitude":"2.3039","population":"217","region":"75","departement":"23","arrondissement":"231","commune":"23241"},
{"name":"Arfeuille-Châtain","latitude":"46.06528","longitude":"2.43667","population":"204","region":"75","departement":"23","arrondissement":"231","commune":"23005"},
{"name":"Saint-Frion","latitude":"45.86389","longitude":"2.22833","population":"195","region":"75","departement":"23","arrondissement":"231","commune":"23196"},
{"name":"Saint-Avit-de-Tardes","latitude":"45.91806","longitude":"2.28528","population":"190","region":"75","departement":"23","arrondissement":"231","commune":"23182"},
{"name":"Basville","latitude":"45.87111","longitude":"2.39694","population":"176","region":"75","departement":"23","arrondissement":"231","commune":"23017"},
{"name":"Saint-Pardoux-le-Neuf","latitude":"45.92944","longitude":"2.23278","population":"175","region":"75","departement":"23","arrondissement":"231","commune":"23228"},
{"name":"Saint-Domet","latitude":"46.04333","longitude":"2.3","population":"169","region":"75","departement":"23","arrondissement":"231","commune":"23190"},
{"name":"Saint-Georges-Nigremont","latitude":"45.83694","longitude":"2.26333","population":"168","region":"75","departement":"23","arrondissement":"231","commune":"23198"},
{"name":"La Villetelle","latitude":"45.91889","longitude":"2.34111","population":"163","region":"75","departement":"23","arrondissement":"231","commune":"23266"},
{"name":"Puy-Malsignat","latitude":"46.03806","longitude":"2.21861","population":"163","region":"75","departement":"23","arrondissement":"231","commune":"23159"},
{"name":"Saint-Pardoux-d'Arnet","latitude":"45.87694","longitude":"2.33056","population":"162","region":"75","departement":"23","arrondissement":"231","commune":"23226"},
{"name":"Alleyrat","latitude":"45.98833","longitude":"2.15361","population":"146","region":"75","departement":"23","arrondissement":"231","commune":"23003"},
{"name":"Sainte-Feyre-la-Montagne","latitude":"45.8991","longitude":"2.2328","population":"125","region":"75","departement":"23","arrondissement":"231","commune":"23194"},
{"name":"La Serre-Bussière-Vieille","latitude":"46.05639","longitude":"2.32056","population":"125","region":"75","departement":"23","arrondissement":"231","commune":"23172"},
{"name":"Saint-Maurice-près-Crocq","latitude":"45.87361","longitude":"2.32667","population":"119","region":"75","departement":"23","arrondissement":"231","commune":"23218"},
{"name":"Saint-Oradoux-près-Crocq","latitude":"45.87833","longitude":"2.38806","population":"117","region":"75","departement":"23","arrondissement":"231","commune":"23225"},
{"name":"La Chaussade","latitude":"45.98889","longitude":"2.235","population":"116","region":"75","departement":"23","arrondissement":"231","commune":"23059"},
{"name":"Bussière-Nouvelle","latitude":"46.01917","longitude":"2.42667","population":"113","region":"75","departement":"23","arrondissement":"231","commune":"23037"},
{"name":"Sermur","latitude":"45.97528","longitude":"2.43111","population":"110","region":"75","departement":"23","arrondissement":"231","commune":"23171"},
{"name":"Saint-Bard","latitude":"45.91444","longitude":"2.40028","population":"106","region":"75","departement":"23","arrondissement":"231","commune":"23184"},
{"name":"Bosroger","latitude":"45.9945","longitude":"2.2508","population":"104","region":"75","departement":"23","arrondissement":"231","commune":"23028"},
{"name":"Pontcharraud","latitude":"45.86417","longitude":"2.27111","population":"82","region":"75","departement":"23","arrondissement":"231","commune":"23156"},
{"name":"La Villeneuve","latitude":"45.8991","longitude":"2.4101","population":"79","region":"75","departement":"23","arrondissement":"231","commune":"23265"},
{"name":"La Mazière-aux-Bons-Hommes","latitude":"45.88389","longitude":"2.44083","population":"65","region":"75","departement":"23","arrondissement":"231","commune":"23129"},
{"name":"Lioux-les-Monges","latitude":"45.95167","longitude":"2.45528","population":"49","region":"75","departement":"23","arrondissement":"231","commune":"23110"},
{"name":"Brousse","latitude":"45.97194","longitude":"2.45583","population":"26","region":"75","departement":"23","arrondissement":"231","commune":"23034"}
]