[
{"name":"Pleumeur-Bodou","latitude":"48.77306","longitude":"-3.51778","population":"4039","region":"53","departement":"22","arrondissement":"223","commune":"22198"},
{"name":"Trébeurden","latitude":"48.76944","longitude":"-3.56806","population":"3714","region":"53","departement":"22","arrondissement":"223","commune":"22343"},
{"name":"Plougasnou","latitude":"48.69556","longitude":"-3.78944","population":"3268","region":"53","departement":"29","arrondissement":"293","commune":"29188"},
{"name":"Trédrez-Locquémeau","latitude":"48.69778","longitude":"-3.56583","population":"1456","region":"53","departement":"22","arrondissement":"223","commune":"22349"},
{"name":"Saint-Jean-du-Doigt","latitude":"48.69444","longitude":"-3.7725","population":"623","region":"53","departement":"29","arrondissement":"293","commune":"29251"}
]