[
{"name":"Aire-sur-l'Adour","latitude":"43.70306","longitude":"-0.26278","population":"6275","region":"75","departement":"40","arrondissement":"402","commune":"40001"},
{"name":"Nogaro","latitude":"43.75833","longitude":"-0.03389","population":"1975","region":"76","departement":"32","arrondissement":"322","commune":"32296"},
{"name":"Riscle","latitude":"43.6563","longitude":"-0.0865","population":"1718","region":"76","departement":"32","arrondissement":"323","commune":"32344"},
{"name":"Barcelonne-du-Gers","latitude":"43.70333","longitude":"-0.23583","population":"1311","region":"76","departement":"32","arrondissement":"323","commune":"32027"},
{"name":"Le Houga","latitude":"43.775","longitude":"-0.18056","population":"1178","region":"76","departement":"32","arrondissement":"322","commune":"32155"},
{"name":"Cazères-sur-l'Adour","latitude":"43.7607","longitude":"-0.3169","population":"1129","region":"75","departement":"40","arrondissement":"402","commune":"40080"},
{"name":"Castelnau-Rivière-Basse","latitude":"43.58083","longitude":"-0.02889","population":"687","region":"76","departement":"65","arrondissement":"653","commune":"65130"},
{"name":"Duhort-Bachen","latitude":"43.72472","longitude":"-0.32306","population":"621","region":"75","departement":"40","arrondissement":"402","commune":"40091"},
{"name":"Hontanx","latitude":"43.82472","longitude":"-0.27389","population":"554","region":"75","departement":"40","arrondissement":"402","commune":"40127"},
{"name":"Viella","latitude":"43.59861","longitude":"-0.14","population":"531","region":"76","departement":"32","arrondissement":"323","commune":"32463"},
{"name":"Saint-Germé","latitude":"43.68","longitude":"-0.14639","population":"509","region":"76","departement":"32","arrondissement":"323","commune":"32378"},
{"name":"Le Vignau","latitude":"43.7778","longitude":"-0.2881","population":"477","region":"75","departement":"40","arrondissement":"402","commune":"40329"},
{"name":"Caupenne-d'Armagnac","latitude":"43.78778","longitude":"-0.06694","population":"431","region":"76","departement":"32","arrondissement":"322","commune":"32094"},
{"name":"Castandet","latitude":"43.80694","longitude":"-0.34222","population":"402","region":"75","departement":"40","arrondissement":"402","commune":"40070"},
{"name":"Panjas","latitude":"43.82083","longitude":"-0.08944","population":"380","region":"76","departement":"32","arrondissement":"322","commune":"32305"},
{"name":"Miramont-Sensacq","latitude":"43.59472","longitude":"-0.32722","population":"369","region":"75","departement":"40","arrondissement":"402","commune":"40185"},
{"name":"Sainte-Christie-d'Armagnac","latitude":"43.785","longitude":"-0.0082","population":"351","region":"76","departement":"32","arrondissement":"322","commune":"32369"},
{"name":"Saint-Mont","latitude":"43.65139","longitude":"-0.15028","population":"300","region":"76","departement":"32","arrondissement":"323","commune":"32398"},
{"name":"Vergoignan","latitude":"43.71778","longitude":"-0.19833","population":"289","region":"76","departement":"32","arrondissement":"323","commune":"32460"},
{"name":"Arblade-le-Haut","latitude":"43.7391","longitude":"-0.0586","population":"277","region":"76","departement":"32","arrondissement":"322","commune":"32005"},
{"name":"Sarragachies","latitude":"43.68306","longitude":"-0.05389","population":"251","region":"76","departement":"32","arrondissement":"323","commune":"32414"},
{"name":"Ségos","latitude":"43.625","longitude":"-0.25694","population":"249","region":"76","departement":"32","arrondissement":"323","commune":"32424"},
{"name":"Laujuzan","latitude":"43.80639","longitude":"-0.11556","population":"241","region":"76","departement":"32","arrondissement":"322","commune":"32202"},
{"name":"Cahuzac-sur-Adour","latitude":"43.6392","longitude":"-0.0226","population":"239","region":"76","departement":"32","arrondissement":"323","commune":"32070"},
{"name":"Urgosse","latitude":"43.73694","longitude":"-0.02361","population":"235","region":"76","departement":"32","arrondissement":"322","commune":"32458"},
{"name":"Lelin-Lapujolle","latitude":"43.70667","longitude":"-0.14639","population":"226","region":"76","departement":"32","arrondissement":"323","commune":"32209"},
{"name":"Saint-Martin-d'Armagnac","latitude":"43.71389","longitude":"-0.06306","population":"222","region":"76","departement":"32","arrondissement":"322","commune":"32390"},
{"name":"Lannux","latitude":"43.64722","longitude":"-0.21694","population":"221","region":"76","departement":"32","arrondissement":"323","commune":"32192"},
{"name":"Magnan","latitude":"43.7688","longitude":"-0.1216","population":"221","region":"76","departement":"32","arrondissement":"322","commune":"32222"},
{"name":"Sorbets","latitude":"43.72139","longitude":"-0.01472","population":"219","region":"76","departement":"32","arrondissement":"322","commune":"32437"},
{"name":"Bernède","latitude":"43.66944","longitude":"-0.22167","population":"218","region":"76","departement":"32","arrondissement":"323","commune":"32046"},
{"name":"Préchac-sur-Adour","latitude":"43.6025","longitude":"-0.00306","population":"212","region":"76","departement":"32","arrondissement":"323","commune":"32330"},
{"name":"Toujouse","latitude":"43.8325","longitude":"-0.17889","population":"207","region":"76","departement":"32","arrondissement":"322","commune":"32449"},
{"name":"Termes-d'Armagnac","latitude":"43.67083","longitude":"-0.01056","population":"195","region":"76","departement":"32","arrondissement":"323","commune":"32443"},
{"name":"Monlezun-d'Armagnac","latitude":"43.82472","longitude":"-0.14917","population":"193","region":"76","departement":"32","arrondissement":"322","commune":"32274"},
{"name":"Saint-Agnet","latitude":"43.60667","longitude":"-0.27333","population":"189","region":"75","departement":"40","arrondissement":"402","commune":"40247"},
{"name":"Sorbets","latitude":"43.63528","longitude":"-0.32944","population":"187","region":"75","departement":"40","arrondissement":"402","commune":"40305"},
{"name":"Tarsac","latitude":"43.66806","longitude":"-0.11278","population":"170","region":"76","departement":"32","arrondissement":"323","commune":"32439"},
{"name":"Maulichères","latitude":"43.68917","longitude":"-0.09028","population":"167","region":"76","departement":"32","arrondissement":"323","commune":"32244"},
{"name":"Latrille","latitude":"43.62806","longitude":"-0.28806","population":"160","region":"75","departement":"40","arrondissement":"402","commune":"40146"},
{"name":"Projan","latitude":"43.59944","longitude":"-0.23722","population":"156","region":"76","departement":"32","arrondissement":"323","commune":"32333"},
{"name":"Maumusson-Laguian","latitude":"43.60861","longitude":"-0.10194","population":"152","region":"76","departement":"32","arrondissement":"323","commune":"32245"},
{"name":"Bourrouillan","latitude":"43.8201","longitude":"-0.0145","population":"150","region":"76","departement":"32","arrondissement":"322","commune":"32062"},
{"name":"Labarthète","latitude":"43.62944","longitude":"-0.15639","population":"146","region":"76","departement":"32","arrondissement":"323","commune":"32170"},
{"name":"Luppé-Violles","latitude":"43.73889","longitude":"-0.13306","population":"144","region":"76","departement":"32","arrondissement":"322","commune":"32220"},
{"name":"Arblade-le-Bas","latitude":"43.70722","longitude":"-0.17694","population":"141","region":"76","departement":"32","arrondissement":"323","commune":"32004"},
{"name":"Corneillan","latitude":"43.65639","longitude":"-0.18","population":"139","region":"76","departement":"32","arrondissement":"323","commune":"32108"},
{"name":"Saint-Griède","latitude":"43.72694","longitude":"-0.09278","population":"133","region":"76","departement":"32","arrondissement":"322","commune":"32380"},
{"name":"Aurensan","latitude":"43.6185","longitude":"-0.2026","population":"128","region":"76","departement":"32","arrondissement":"323","commune":"32017"},
{"name":"Caumont","latitude":"43.6914","longitude":"-0.1036","population":"127","region":"76","departement":"32","arrondissement":"323","commune":"32093"},
{"name":"Saint-Lanne","latitude":"43.59306","longitude":"-0.06139","population":"126","region":"76","departement":"65","arrondissement":"653","commune":"65387"},
{"name":"Mormès","latitude":"43.7976","longitude":"-0.1531","population":"125","region":"76","departement":"32","arrondissement":"322","commune":"32291"},
{"name":"Salles-d'Armagnac","latitude":"43.812","longitude":"-0.0424","population":"117","region":"76","departement":"32","arrondissement":"322","commune":"32408"},
{"name":"Lanne-Soubiran","latitude":"43.7472","longitude":"-0.1126","population":"117","region":"76","departement":"32","arrondissement":"322","commune":"32191"},
{"name":"Sarron","latitude":"43.59194","longitude":"-0.275","population":"113","region":"75","departement":"40","arrondissement":"402","commune":"40290"},
{"name":"Moncla","latitude":"43.58167","longitude":"-0.23306","population":"103","region":"75","departement":"64","arrondissement":"643","commune":"64392"},
{"name":"Verlus","latitude":"43.60222","longitude":"-0.19667","population":"102","region":"76","departement":"32","arrondissement":"323","commune":"32461"},
{"name":"Mauries","latitude":"43.61833","longitude":"-0.3325","population":"88","region":"75","departement":"40","arrondissement":"402","commune":"40174"},
{"name":"Izotges","latitude":"43.65139","longitude":"-0.01139","population":"88","region":"76","departement":"32","arrondissement":"323","commune":"32161"},
{"name":"Goux","latitude":"43.6175","longitude":"-0.02222","population":"84","region":"76","departement":"32","arrondissement":"323","commune":"32151"},
{"name":"Perchède","latitude":"43.7769","longitude":"-0.1369","population":"82","region":"76","departement":"32","arrondissement":"322","commune":"32310"},
{"name":"Lussagnet","latitude":"43.775","longitude":"-0.23389","population":"81","region":"75","departement":"40","arrondissement":"402","commune":"40166"},
{"name":"Cannet","latitude":"43.6125","longitude":"-0.05417","population":"56","region":"76","departement":"32","arrondissement":"323","commune":"32074"},
{"name":"Gée-Rivière","latitude":"43.67306","longitude":"-0.18222","population":"49","region":"76","departement":"32","arrondissement":"323","commune":"32145"}
]