[
{"name":"Sardent","latitude":"46.05056","longitude":"1.85556","population":"801","region":"75","departement":"23","arrondissement":"232","commune":"23168"},
{"name":"Lavaveix-les-Mines","latitude":"46.07111","longitude":"2.08889","population":"764","region":"75","departement":"23","arrondissement":"231","commune":"23105"},
{"name":"Vallière","latitude":"45.9063","longitude":"2.0348","population":"761","region":"75","departement":"23","arrondissement":"231","commune":"23257"},
{"name":"Royère-de-Vassivière","latitude":"45.8415","longitude":"1.9124","population":"563","region":"75","departement":"23","arrondissement":"231","commune":"23165"},
{"name":"Saint-Sulpice-les-Champs","latitude":"45.9954","longitude":"2.0222","population":"385","region":"75","departement":"23","arrondissement":"231","commune":"23246"},
{"name":"Pontarion","latitude":"45.99722","longitude":"1.84972","population":"355","region":"75","departement":"23","arrondissement":"232","commune":"23155"},
{"name":"Saint-Georges-la-Pouge","latitude":"45.9936","longitude":"1.9709","population":"345","region":"75","departement":"23","arrondissement":"232","commune":"23197"},
{"name":"Saint-Hilaire-le-Château","latitude":"45.98278","longitude":"1.89694","population":"265","region":"75","departement":"23","arrondissement":"232","commune":"23202"},
{"name":"Ars","latitude":"46.00417","longitude":"2.07833","population":"256","region":"75","departement":"23","arrondissement":"231","commune":"23007"},
{"name":"Saint-Martial-le-Mont","latitude":"46.04944","longitude":"2.09333","population":"252","region":"75","departement":"23","arrondissement":"231","commune":"23214"},
{"name":"La Nouaille","latitude":"45.84667","longitude":"2.06472","population":"249","region":"75","departement":"23","arrondissement":"231","commune":"23144"},
{"name":"Fransèches","latitude":"46.01861","longitude":"2.04972","population":"243","region":"75","departement":"23","arrondissement":"231","commune":"23086"},
{"name":"Saint-Pierre-Bellevue","latitude":"45.91583","longitude":"1.88833","population":"235","region":"75","departement":"23","arrondissement":"231","commune":"23232"},
{"name":"Saint-Yrieix-la-Montagne","latitude":"45.88333","longitude":"2.02167","population":"224","region":"75","departement":"23","arrondissement":"231","commune":"23249"},
{"name":"Le Monteil-au-Vicomte","latitude":"45.93028","longitude":"1.93722","population":"221","region":"75","departement":"23","arrondissement":"231","commune":"23134"},
{"name":"Saint-Pardoux-Morterolles","latitude":"45.8973","longitude":"1.8215","population":"215","region":"75","departement":"23","arrondissement":"231","commune":"23227"},
{"name":"Maisonnisses","latitude":"46.06306","longitude":"1.89889","population":"206","region":"75","departement":"23","arrondissement":"232","commune":"23118"},
{"name":"Thauron","latitude":"46","longitude":"1.81667","population":"185","region":"75","departement":"23","arrondissement":"232","commune":"23253"},
{"name":"Vidaillat","latitude":"45.95778","longitude":"1.90694","population":"169","region":"75","departement":"23","arrondissement":"232","commune":"23260"},
{"name":"Le Donzeil","latitude":"46.02778","longitude":"1.98639","population":"168","region":"75","departement":"23","arrondissement":"231","commune":"23074"},
{"name":"Faux-Mazuras","latitude":"45.9234","longitude":"1.7837","population":"167","region":"75","departement":"23","arrondissement":"232","commune":"23078"},
{"name":"Saint-Michel-de-Veisse","latitude":"45.95167","longitude":"2.05389","population":"163","region":"75","departement":"23","arrondissement":"231","commune":"23222"},
{"name":"Banize","latitude":"45.9306","longitude":"1.9979","population":"160","region":"75","departement":"23","arrondissement":"231","commune":"23016"},
{"name":"Saint-Martin-Château","latitude":"45.85722","longitude":"1.79889","population":"153","region":"75","departement":"23","arrondissement":"231","commune":"23216"},
{"name":"Sous-Parsat","latitude":"46.05556","longitude":"1.97972","population":"145","region":"75","departement":"23","arrondissement":"231","commune":"23175"},
{"name":"Saint-Marc-à-Loubaud","latitude":"45.84889","longitude":"1.99639","population":"136","region":"75","departement":"23","arrondissement":"231","commune":"23212"},
{"name":"Soubrebost","latitude":"45.95778","longitude":"1.84306","population":"136","region":"75","departement":"23","arrondissement":"232","commune":"23173"},
{"name":"Chavanat","latitude":"45.95306","longitude":"1.96417","population":"130","region":"75","departement":"23","arrondissement":"231","commune":"23060"},
{"name":"Chamberaud","latitude":"46.04889","longitude":"2.04556","population":"106","region":"75","departement":"23","arrondissement":"231","commune":"23043"},
{"name":"La Chapelle-Saint-Martial","latitude":"46.02611","longitude":"1.925","population":"88","region":"75","departement":"23","arrondissement":"232","commune":"23051"},
{"name":"Mansat-la-Courrière","latitude":"45.96222","longitude":"1.80667","population":"86","region":"75","departement":"23","arrondissement":"232","commune":"23122"},
{"name":"La Pouge","latitude":"45.98056","longitude":"1.945","population":"83","region":"75","departement":"23","arrondissement":"232","commune":"23157"},
{"name":"Saint-Avit-le-Pauvre","latitude":"45.99583","longitude":"2.04444","population":"72","region":"75","departement":"23","arrondissement":"231","commune":"23183"}
]