[
{"name":"Pineuilh","latitude":"44.8308","longitude":"0.2285","population":"4405","region":"75","departement":"33","arrondissement":"335","commune":"33324"},
{"name":"Monségur","latitude":"44.6508","longitude":"0.0818","population":"1546","region":"75","departement":"33","arrondissement":"333","commune":"33289"},
{"name":"Gardonne","latitude":"44.83639","longitude":"0.33222","population":"1440","region":"75","departement":"24","arrondissement":"241","commune":"24194"},
{"name":"Duras","latitude":"44.67583","longitude":"0.18278","population":"1213","region":"75","departement":"47","arrondissement":"472","commune":"47086"},
{"name":"Pellegrue","latitude":"44.74333","longitude":"0.07528","population":"1005","region":"75","departement":"33","arrondissement":"333","commune":"33316"},
{"name":"Gensac","latitude":"44.80583","longitude":"0.07278","population":"852","region":"75","departement":"33","arrondissement":"335","commune":"33186"},
{"name":"Saint-André-et-Appelles","latitude":"44.8191","longitude":"0.1952","population":"676","region":"75","departement":"33","arrondissement":"335","commune":"33369"},
{"name":"Lévignac-de-Guyenne","latitude":"44.62944","longitude":"0.19917","population":"622","region":"75","departement":"47","arrondissement":"472","commune":"47147"},
{"name":"Eynesse","latitude":"44.825","longitude":"0.15444","population":"575","region":"75","departement":"33","arrondissement":"335","commune":"33160"},
{"name":"La Sauvetat-du-Dropt","latitude":"44.64722","longitude":"0.33889","population":"574","region":"75","departement":"47","arrondissement":"472","commune":"47290"},
{"name":"Les Lèves-et-Thoumeyragues","latitude":"44.79306","longitude":"0.17472","population":"544","region":"75","departement":"33","arrondissement":"335","commune":"33242"},
{"name":"Roumagne","latitude":"44.61778","longitude":"0.33722","population":"544","region":"75","departement":"47","arrondissement":"472","commune":"47226"},
{"name":"Flaujagues","latitude":"44.8275","longitude":"0.03639","population":"518","region":"75","departement":"33","arrondissement":"335","commune":"33168"},
{"name":"Saint-Seurin-de-Prats","latitude":"44.82833","longitude":"0.07472","population":"496","region":"75","departement":"24","arrondissement":"241","commune":"24501"},
{"name":"Allemans-du-Dropt","latitude":"44.62694","longitude":"0.28944","population":"477","region":"75","departement":"47","arrondissement":"472","commune":"47005"},
{"name":"Pessac-sur-Dordogne","latitude":"44.82083","longitude":"0.07889","population":"471","region":"75","departement":"33","arrondissement":"335","commune":"33319"},
{"name":"Gageac-et-Rouillac","latitude":"44.7993","longitude":"0.3455","population":"460","region":"75","departement":"24","arrondissement":"241","commune":"24193"},
{"name":"Saint-Philippe-du-Seignal","latitude":"44.8272","longitude":"0.2555","population":"459","region":"75","departement":"33","arrondissement":"335","commune":"33462"},
{"name":"Sainte-Radegonde","latitude":"44.80583","longitude":"0.01556","population":"457","region":"75","departement":"33","arrondissement":"335","commune":"33468"},
{"name":"Saint-Sernin","latitude":"44.7111","longitude":"0.2393","population":"419","region":"75","departement":"47","arrondissement":"472","commune":"47278"},
{"name":"Saussignac","latitude":"44.8002","longitude":"0.3266","population":"414","region":"75","departement":"24","arrondissement":"241","commune":"24523"},
{"name":"Margueron","latitude":"44.76194","longitude":"0.24944","population":"401","region":"75","departement":"33","arrondissement":"335","commune":"33269"},
{"name":"Le Puy","latitude":"44.6616","longitude":"0.0737","population":"386","region":"75","departement":"33","arrondissement":"333","commune":"33345"},
{"name":"Loubès-Bernac","latitude":"44.7309","longitude":"0.2951","population":"385","region":"75","departement":"47","arrondissement":"472","commune":"47151"},
{"name":"Saint-Vivien-de-Monségur","latitude":"44.61611","longitude":"0.10694","population":"382","region":"75","departement":"33","arrondissement":"333","commune":"33491"},
{"name":"Saint-Hilaire-de-la-Noaille","latitude":"44.60111","longitude":"0.00167","population":"379","region":"75","departement":"33","arrondissement":"333","commune":"33418"},
{"name":"Monestier","latitude":"44.77333","longitude":"0.32806","population":"377","region":"75","departement":"24","arrondissement":"241","commune":"24276"},
{"name":"Thénac","latitude":"44.75028","longitude":"0.34111","population":"377","region":"75","departement":"24","arrondissement":"241","commune":"24549"},
{"name":"Razac-de-Saussignac","latitude":"44.80417","longitude":"0.28444","population":"366","region":"75","departement":"24","arrondissement":"241","commune":"24349"},
{"name":"Saint-Ferme","latitude":"44.694","longitude":"0.0584","population":"365","region":"75","departement":"33","arrondissement":"333","commune":"33400"},
{"name":"Moustier","latitude":"44.63583","longitude":"0.29917","population":"336","region":"75","departement":"47","arrondissement":"472","commune":"47194"},
{"name":"Pardaillan","latitude":"44.6634","longitude":"0.2816","population":"329","region":"75","departement":"47","arrondissement":"472","commune":"47199"},
{"name":"Villeneuve-de-Duras","latitude":"44.74083","longitude":"0.23722","population":"310","region":"75","departement":"47","arrondissement":"472","commune":"47321"},
{"name":"La Roquille","latitude":"44.79111","longitude":"0.23167","population":"305","region":"75","departement":"33","arrondissement":"335","commune":"33360"},
{"name":"Taillecavat","latitude":"44.6463","longitude":"0.1511","population":"298","region":"75","departement":"33","arrondissement":"333","commune":"33520"},
{"name":"Massugas","latitude":"44.76833","longitude":"0.08583","population":"285","region":"75","departement":"33","arrondissement":"333","commune":"33277"},
{"name":"Monteton","latitude":"44.62306","longitude":"0.25639","population":"277","region":"75","departement":"47","arrondissement":"472","commune":"47187"},
{"name":"Cours-de-Monségur","latitude":"44.65111","longitude":"0.11806","population":"276","region":"75","departement":"33","arrondissement":"333","commune":"33136"},
{"name":"Saint-Pierre-sur-Dropt","latitude":"44.6436","longitude":"0.2033","population":"270","region":"75","departement":"47","arrondissement":"472","commune":"47271"},
{"name":"Dieulivol","latitude":"44.67361","longitude":"0.11056","population":"268","region":"75","departement":"33","arrondissement":"333","commune":"33150"},
{"name":"Juillac","latitude":"44.811","longitude":"0.0404","population":"262","region":"75","departement":"33","arrondissement":"335","commune":"33210"},
{"name":"Cazaugitat","latitude":"44.71444","longitude":"0.00667","population":"253","region":"75","departement":"33","arrondissement":"333","commune":"33117"},
{"name":"Saint-Quentin-de-Caplong","latitude":"44.78361","longitude":"0.13139","population":"249","region":"75","departement":"33","arrondissement":"335","commune":"33467"},
{"name":"Saint-Jean-de-Duras","latitude":"44.694","longitude":"0.2969","population":"243","region":"75","departement":"47","arrondissement":"472","commune":"47247"},
{"name":"Soumensac","latitude":"44.68972","longitude":"0.32694","population":"243","region":"75","departement":"47","arrondissement":"472","commune":"47303"},
{"name":"Roquebrune","latitude":"44.6292","longitude":"0.0224","population":"237","region":"75","departement":"33","arrondissement":"333","commune":"33359"},
{"name":"Sainte-Gemme","latitude":"44.62028","longitude":"0.06972","population":"236","region":"75","departement":"33","arrondissement":"333","commune":"33404"},
{"name":"Puysserampion","latitude":"44.60333","longitude":"0.30833","population":"235","region":"75","departement":"47","arrondissement":"472","commune":"47218"},
{"name":"Caubon-Saint-Sauveur","latitude":"44.59278","longitude":"0.17611","population":"229","region":"75","departement":"47","arrondissement":"472","commune":"47059"},
{"name":"Savignac-de-Duras","latitude":"44.70083","longitude":"0.18667","population":"229","region":"75","departement":"47","arrondissement":"472","commune":"47294"},
{"name":"Saint-Sulpice-de-Guilleragues","latitude":"44.62917","longitude":"0.05","population":"220","region":"75","departement":"33","arrondissement":"333","commune":"33481"},
{"name":"Caplong","latitude":"44.77722","longitude":"0.13778","population":"215","region":"75","departement":"33","arrondissement":"335","commune":"33094"},
{"name":"Auriac-sur-Dropt","latitude":"44.64861","longitude":"0.24583","population":"205","region":"75","departement":"47","arrondissement":"472","commune":"47018"},
{"name":"Rimons","latitude":"44.67167","longitude":"0.00611","population":"202","region":"75","departement":"33","arrondissement":"333","commune":"33353"},
{"name":"Riocaud","latitude":"44.76417","longitude":"0.20778","population":"197","region":"75","departement":"33","arrondissement":"335","commune":"33354"},
{"name":"Saint-Astier","latitude":"44.7291","longitude":"0.2555","population":"192","region":"75","departement":"47","arrondissement":"472","commune":"47229"},
{"name":"Baleyssagues","latitude":"44.68444","longitude":"0.15472","population":"189","region":"75","departement":"47","arrondissement":"472","commune":"47020"},
{"name":"Fossès-et-Baleyssac","latitude":"44.5941","longitude":"0.0431","population":"188","region":"75","departement":"33","arrondissement":"333","commune":"33171"},
{"name":"Landerrouat","latitude":"44.74222","longitude":"0.15861","population":"182","region":"75","departement":"33","arrondissement":"333","commune":"33223"},
{"name":"Soussac","latitude":"44.72889","longitude":"0.01944","population":"180","region":"75","departement":"33","arrondissement":"333","commune":"33516"},
{"name":"Listrac-de-Durèze","latitude":"44.76194","longitude":"0.04528","population":"177","region":"75","departement":"33","arrondissement":"333","commune":"33247"},
{"name":"Ligueux","latitude":"44.7858","longitude":"0.2699","population":"168","region":"75","departement":"33","arrondissement":"335","commune":"33246"},
{"name":"Neuffons","latitude":"44.64361","longitude":"0.01333","population":"168","region":"75","departement":"33","arrondissement":"333","commune":"33304"},
{"name":"Cambes","latitude":"44.595","longitude":"0.2897","population":"166","region":"75","departement":"47","arrondissement":"472","commune":"47047"},
{"name":"Esclottes","latitude":"44.70806","longitude":"0.14556","population":"155","region":"75","departement":"47","arrondissement":"472","commune":"47089"},
{"name":"Auriolles","latitude":"44.74167","longitude":"0.04972","population":"132","region":"75","departement":"33","arrondissement":"333","commune":"33020"},
{"name":"Coubeyrac","latitude":"44.785","longitude":"0.05972","population":"103","region":"75","departement":"33","arrondissement":"335","commune":"33133"},
{"name":"Sainte-Colombe-de-Duras","latitude":"44.69028","longitude":"0.12472","population":"96","region":"75","departement":"47","arrondissement":"472","commune":"47236"},
{"name":"Saint-Antoine-du-Queyret","latitude":"44.76306","longitude":"0.00972","population":"90","region":"75","departement":"33","arrondissement":"333","commune":"33372"},
{"name":"Coutures","latitude":"44.6445","longitude":"0.0296","population":"87","region":"75","departement":"33","arrondissement":"333","commune":"33139"},
{"name":"Saint-Géraud","latitude":"44.62167","longitude":"0.15278","population":"75","region":"75","departement":"47","arrondissement":"472","commune":"47245"},
{"name":"Saint-Avit-de-Soulège","latitude":"44.81306","longitude":"0.12556","population":"74","region":"75","departement":"33","arrondissement":"335","commune":"33377"}
]