[
{"name":"Morlaix","latitude":"48.5775","longitude":"-3.82778","population":"15539","region":"53","departement":"29","arrondissement":"293","commune":"29151"},
{"name":"Saint-Martin-des-Champs","latitude":"48.57611","longitude":"-3.84361","population":"4825","region":"53","departement":"29","arrondissement":"293","commune":"29254"},
{"name":"Plouigneau","latitude":"48.5675","longitude":"-3.70139","population":"4685","region":"53","departement":"29","arrondissement":"293","commune":"29199"},
{"name":"Plourin-lès-Morlaix","latitude":"48.5343","longitude":"-3.79","population":"4581","region":"53","departement":"29","arrondissement":"293","commune":"29207"},
{"name":"Plestin-les-Grèves","latitude":"48.65694","longitude":"-3.63111","population":"3644","region":"53","departement":"22","arrondissement":"223","commune":"22194"},
{"name":"Plougonven","latitude":"48.52083","longitude":"-3.71306","population":"3264","region":"53","departement":"29","arrondissement":"293","commune":"29191"},
{"name":"Ploumilliau","latitude":"48.68","longitude":"-3.52389","population":"2583","region":"53","departement":"22","arrondissement":"223","commune":"22226"},
{"name":"Lanmeur","latitude":"48.6477","longitude":"-3.7144","population":"2160","region":"53","departement":"29","arrondissement":"293","commune":"29113"},
{"name":"Plouezoc'h","latitude":"48.6405","longitude":"-3.8215","population":"1596","region":"53","departement":"29","arrondissement":"293","commune":"29186"},
{"name":"Locquirec","latitude":"48.69083","longitude":"-3.64833","population":"1459","region":"53","departement":"29","arrondissement":"293","commune":"29133"},
{"name":"Guerlesquin","latitude":"48.5175","longitude":"-3.58861","population":"1371","region":"53","departement":"29","arrondissement":"293","commune":"29067"},
{"name":"Plouégat-Guérand","latitude":"48.62111","longitude":"-3.67528","population":"1070","region":"53","departement":"29","arrondissement":"293","commune":"29182"},
{"name":"Garlan","latitude":"48.60111","longitude":"-3.75722","population":"976","region":"53","departement":"29","arrondissement":"293","commune":"29059"},
{"name":"Guimaëc","latitude":"48.66778","longitude":"-3.70806","population":"950","region":"53","departement":"29","arrondissement":"293","commune":"29073"},
{"name":"Locquénolé","latitude":"48.62444","longitude":"-3.86083","population":"784","region":"53","departement":"29","arrondissement":"293","commune":"29132"},
{"name":"Plounérin","latitude":"48.56667","longitude":"-3.54111","population":"749","region":"53","departement":"22","arrondissement":"223","commune":"22227"},
{"name":"Plouégat-Moysan","latitude":"48.57194","longitude":"-3.61028","population":"638","region":"53","departement":"29","arrondissement":"293","commune":"29183"},
{"name":"Le Cloître-Saint-Thégonnec","latitude":"48.48","longitude":"-3.79472","population":"617","region":"53","departement":"29","arrondissement":"293","commune":"29034"},
{"name":"Plufur","latitude":"48.60778","longitude":"-3.57389","population":"552","region":"53","departement":"22","arrondissement":"223","commune":"22238"},
{"name":"Lanvellec","latitude":"48.61889","longitude":"-3.53611","population":"544","region":"53","departement":"22","arrondissement":"223","commune":"22119"},
{"name":"Saint-Michel-en-Grève","latitude":"48.68333","longitude":"-3.56389","population":"480","region":"53","departement":"22","arrondissement":"223","commune":"22319"},
{"name":"Botsorhel","latitude":"48.52694","longitude":"-3.64139","population":"468","region":"53","departement":"29","arrondissement":"293","commune":"29014"},
{"name":"Plougras","latitude":"48.51083","longitude":"-3.56139","population":"451","region":"53","departement":"22","arrondissement":"223","commune":"22217"},
{"name":"Trémel","latitude":"48.60306","longitude":"-3.61139","population":"406","region":"53","departement":"22","arrondissement":"223","commune":"22366"},
{"name":"Lannéanou","latitude":"48.48917","longitude":"-3.67194","population":"361","region":"53","departement":"29","arrondissement":"293","commune":"29114"},
{"name":"Lohuec","latitude":"48.46028","longitude":"-3.52167","population":"273","region":"53","departement":"22","arrondissement":"222","commune":"22132"},
{"name":"Plouzélambre","latitude":"48.6425","longitude":"-3.54194","population":"217","region":"53","departement":"22","arrondissement":"223","commune":"22235"},
{"name":"Tréduder","latitude":"48.65056","longitude":"-3.56222","population":"196","region":"53","departement":"22","arrondissement":"223","commune":"22350"},
{"name":"Le Ponthou","latitude":"48.56528","longitude":"-3.63806","population":"165","region":"53","departement":"29","arrondissement":"293","commune":"29219"}
]