[
{"name":"Jeumont","latitude":"50.29444","longitude":"4.10139","population":"9936","region":"32","departement":"59","arrondissement":"591","commune":"59324"},
{"name":"Feignies","latitude":"50.30222","longitude":"3.91806","population":"7234","region":"32","departement":"59","arrondissement":"591","commune":"59225"},
{"name":"Boussois","latitude":"50.29056","longitude":"4.04083","population":"3281","region":"32","departement":"59","arrondissement":"591","commune":"59104"},
{"name":"Marpent","latitude":"50.29139","longitude":"4.07972","population":"2652","region":"32","departement":"59","arrondissement":"591","commune":"59385"},
{"name":"Villers-Sire-Nicole","latitude":"50.34","longitude":"4.01556","population":"991","region":"32","departement":"59","arrondissement":"591","commune":"59627"},
{"name":"Élesmes","latitude":"50.30639","longitude":"4.01","population":"895","region":"32","departement":"59","arrondissement":"591","commune":"59190"},
{"name":"Vieux-Reng","latitude":"50.3293","longitude":"4.04795","population":"835","region":"32","departement":"59","arrondissement":"591","commune":"59618"},
{"name":"Gognies-Chaussée","latitude":"50.33972","longitude":"3.94444","population":"795","region":"32","departement":"59","arrondissement":"591","commune":"59264"},
{"name":"Mairieux","latitude":"50.31417","longitude":"3.99224","population":"766","region":"32","departement":"59","arrondissement":"591","commune":"59370"},
{"name":"Bersillies","latitude":"50.32185","longitude":"4.00546","population":"270","region":"32","departement":"59","arrondissement":"591","commune":"59072"},
{"name":"Bettignies","latitude":"50.33444","longitude":"3.97139","population":"262","region":"32","departement":"59","arrondissement":"591","commune":"59076"}
]