[
{"name":"Dax","latitude":"43.70694","longitude":"-1.05139","population":"21003","region":"75","departement":"40","arrondissement":"401","commune":"40088"},
{"name":"Saint-Paul-lès-Dax","latitude":"43.72556","longitude":"-1.05278","population":"12343","region":"75","departement":"40","arrondissement":"401","commune":"40279"},
{"name":"Tartas","latitude":"43.8325","longitude":"-0.80861","population":"3025","region":"75","departement":"40","arrondissement":"401","commune":"40313"},
{"name":"Saint-Vincent-de-Paul","latitude":"43.74694","longitude":"-0.99861","population":"2970","region":"75","departement":"40","arrondissement":"401","commune":"40283"},
{"name":"Narrosse","latitude":"43.70361","longitude":"-1.00667","population":"2946","region":"75","departement":"40","arrondissement":"401","commune":"40202"},
{"name":"Pouillon","latitude":"43.60444","longitude":"-0.99639","population":"2827","region":"75","departement":"40","arrondissement":"401","commune":"40233"},
{"name":"Pontonx-sur-l'Adour","latitude":"43.78778","longitude":"-0.92611","population":"2488","region":"75","departement":"40","arrondissement":"401","commune":"40230"},
{"name":"Hinx","latitude":"43.70111","longitude":"-0.92722","population":"1712","region":"75","departement":"40","arrondissement":"401","commune":"40126"},
{"name":"Saugnac-et-Cambran","latitude":"43.67056","longitude":"-0.99306","population":"1583","region":"75","departement":"40","arrondissement":"401","commune":"40294"},
{"name":"Amou","latitude":"43.59306","longitude":"-0.74722","population":"1577","region":"75","departement":"40","arrondissement":"401","commune":"40002"},
{"name":"Pomarez","latitude":"43.62972","longitude":"-0.82917","population":"1489","region":"75","departement":"40","arrondissement":"401","commune":"40228"},
{"name":"Mugron","latitude":"43.75","longitude":"-0.75","population":"1399","region":"75","departement":"40","arrondissement":"401","commune":"40201"},
{"name":"Montfort-en-Chalosse","latitude":"43.71083","longitude":"-0.83778","population":"1159","region":"75","departement":"40","arrondissement":"401","commune":"40194"},
{"name":"Bégaar","latitude":"43.82667","longitude":"-0.85028","population":"1093","region":"75","departement":"40","arrondissement":"401","commune":"40031"},
{"name":"Gamarde-les-Bains","latitude":"43.7325","longitude":"-0.87333","population":"1016","region":"75","departement":"40","arrondissement":"401","commune":"40104"},
{"name":"Souprosse","latitude":"43.78861","longitude":"-0.70972","population":"1014","region":"75","departement":"40","arrondissement":"401","commune":"40309"},
{"name":"Mimbaste","latitude":"43.64833","longitude":"-0.97306","population":"1002","region":"75","departement":"40","arrondissement":"401","commune":"40183"},
{"name":"Sort-en-Chalosse","latitude":"43.68306","longitude":"-0.93056","population":"864","region":"75","departement":"40","arrondissement":"401","commune":"40308"},
{"name":"Clermont","latitude":"43.65194","longitude":"-0.91667","population":"821","region":"75","departement":"40","arrondissement":"401","commune":"40084"},
{"name":"Candresse","latitude":"43.71222","longitude":"-0.97972","population":"805","region":"75","departement":"40","arrondissement":"401","commune":"40063"},
{"name":"Saint-Pandelon","latitude":"43.66944","longitude":"-1.03889","population":"750","region":"75","departement":"40","arrondissement":"401","commune":"40277"},
{"name":"Poyartin","latitude":"43.685","longitude":"-0.86722","population":"724","region":"75","departement":"40","arrondissement":"401","commune":"40236"},
{"name":"Misson","latitude":"43.58694","longitude":"-0.96028","population":"702","region":"75","departement":"40","arrondissement":"401","commune":"40186"},
{"name":"Téthieu","latitude":"43.75111","longitude":"-0.975","population":"637","region":"75","departement":"40","arrondissement":"401","commune":"40315"},
{"name":"Estibeaux","latitude":"43.6","longitude":"-0.90667","population":"625","region":"75","departement":"40","arrondissement":"401","commune":"40095"},
{"name":"Préchacq-les-Bains","latitude":"43.758","longitude":"-0.9073","population":"609","region":"75","departement":"40","arrondissement":"401","commune":"40237"},
{"name":"Poyanne","latitude":"43.75639","longitude":"-0.81722","population":"592","region":"75","departement":"40","arrondissement":"401","commune":"40235"},
{"name":"Castelnau-Chalosse","latitude":"43.66444","longitude":"-0.84389","population":"550","region":"75","departement":"40","arrondissement":"401","commune":"40071"},
{"name":"Goos","latitude":"43.72944","longitude":"-0.89944","population":"531","region":"75","departement":"40","arrondissement":"401","commune":"40113"},
{"name":"Castel-Sarrazin","latitude":"43.61944","longitude":"-0.78028","population":"511","region":"75","departement":"40","arrondissement":"401","commune":"40074"},
{"name":"Bénesse-lès-Dax","latitude":"43.64222","longitude":"-1.03472","population":"507","region":"75","departement":"40","arrondissement":"401","commune":"40035"},
{"name":"Gaas","latitude":"43.61333","longitude":"-1.03444","population":"488","region":"75","departement":"40","arrondissement":"401","commune":"40101"},
{"name":"Cassen","latitude":"43.76139","longitude":"-0.86083","population":"476","region":"75","departement":"40","arrondissement":"401","commune":"40068"},
{"name":"Gaujacq","latitude":"43.64139","longitude":"-0.73833","population":"448","region":"75","departement":"40","arrondissement":"401","commune":"40109"},
{"name":"Donzacq","latitude":"43.65639","longitude":"-0.80417","population":"438","region":"75","departement":"40","arrondissement":"401","commune":"40090"},
{"name":"Yzosse","latitude":"43.71222","longitude":"-1.01278","population":"425","region":"75","departement":"40","arrondissement":"401","commune":"40334"},
{"name":"Caupenne","latitude":"43.68361","longitude":"-0.74556","population":"407","region":"75","departement":"40","arrondissement":"401","commune":"40078"},
{"name":"Laurède","latitude":"43.75556","longitude":"-0.78861","population":"371","region":"75","departement":"40","arrondissement":"401","commune":"40147"},
{"name":"Saint-Jean-de-Lier","latitude":"43.78944","longitude":"-0.87861","population":"367","region":"75","departement":"40","arrondissement":"401","commune":"40263"},
{"name":"Baigts","latitude":"43.68639","longitude":"-0.79139","population":"347","region":"75","departement":"40","arrondissement":"401","commune":"40023"},
{"name":"Onard","latitude":"43.78","longitude":"-0.8375","population":"337","region":"75","departement":"40","arrondissement":"401","commune":"40208"},
{"name":"Saint-Geours-d'Auribat","latitude":"43.75667","longitude":"-0.83833","population":"336","region":"75","departement":"40","arrondissement":"401","commune":"40260"},
{"name":"Arsague","latitude":"43.5807","longitude":"-0.7957","population":"334","region":"75","departement":"40","arrondissement":"401","commune":"40011"},
{"name":"Gourbera","latitude":"43.80417","longitude":"-1.04806","population":"324","region":"75","departement":"40","arrondissement":"401","commune":"40114"},
{"name":"Audon","latitude":"43.7975","longitude":"-0.82639","population":"322","region":"75","departement":"40","arrondissement":"401","commune":"40018"},
{"name":"Lahosse","latitude":"43.713","longitude":"-0.7957","population":"295","region":"75","departement":"40","arrondissement":"401","commune":"40141"},
{"name":"Gousse","latitude":"43.77278","longitude":"-0.89667","population":"291","region":"75","departement":"40","arrondissement":"401","commune":"40115"},
{"name":"Nousse","latitude":"43.71694","longitude":"-0.8225","population":"274","region":"75","departement":"40","arrondissement":"401","commune":"40205"},
{"name":"Mouscardès","latitude":"43.58278","longitude":"-0.88056","population":"268","region":"75","departement":"40","arrondissement":"401","commune":"40199"},
{"name":"Bastennes","latitude":"43.65083","longitude":"-0.78444","population":"265","region":"75","departement":"40","arrondissement":"401","commune":"40028"},
{"name":"Vicq-d'Auribat","latitude":"43.785","longitude":"-0.85972","population":"261","region":"75","departement":"40","arrondissement":"401","commune":"40324"},
{"name":"Louer","latitude":"43.75611","longitude":"-0.89222","population":"252","region":"75","departement":"40","arrondissement":"401","commune":"40159"},
{"name":"Nerbis","latitude":"43.75472","longitude":"-0.73611","population":"252","region":"75","departement":"40","arrondissement":"401","commune":"40204"},
{"name":"Larbey","latitude":"43.70333","longitude":"-0.71806","population":"247","region":"75","departement":"40","arrondissement":"401","commune":"40144"},
{"name":"Gouts","latitude":"43.78861","longitude":"-0.80278","population":"245","region":"75","departement":"40","arrondissement":"401","commune":"40116"},
{"name":"Lourquen","latitude":"43.73083","longitude":"-0.78611","population":"218","region":"75","departement":"40","arrondissement":"401","commune":"40160"},
{"name":"Ozourt","latitude":"43.66361","longitude":"-0.87611","population":"195","region":"75","departement":"40","arrondissement":"401","commune":"40216"},
{"name":"Garrey","latitude":"43.67056","longitude":"-0.90833","population":"177","region":"75","departement":"40","arrondissement":"401","commune":"40106"},
{"name":"Bergouey","latitude":"43.66861","longitude":"-0.72083","population":"104","region":"75","departement":"40","arrondissement":"401","commune":"40038"},
{"name":"Gibret","latitude":"43.6869","longitude":"-0.8209","population":"102","region":"75","departement":"40","arrondissement":"401","commune":"40112"}
]