[
{"name":"Saint-Maixent-l'École","latitude":"46.41278","longitude":"-0.20806","population":"7490","region":"75","departement":"79","arrondissement":"792","commune":"79270"},
{"name":"La Crèche","latitude":"46.3608","longitude":"-0.2989","population":"5448","region":"75","departement":"79","arrondissement":"792","commune":"79048"},
{"name":"La Mothe-Saint-Héray","latitude":"46.3554","longitude":"-0.109","population":"1806","region":"75","departement":"79","arrondissement":"792","commune":"79184"},
{"name":"Azay-le-Brûlé","latitude":"46.39861","longitude":"-0.28722","population":"1780","region":"75","departement":"79","arrondissement":"792","commune":"79024"},
{"name":"Pamproux","latitude":"46.3959","longitude":"-0.055","population":"1676","region":"75","departement":"79","arrondissement":"792","commune":"79201"},
{"name":"Nanteuil","latitude":"46.41167","longitude":"-0.17333","population":"1668","region":"75","departement":"79","arrondissement":"792","commune":"79189"},
{"name":"Exireuil","latitude":"46.43333","longitude":"-0.19167","population":"1588","region":"75","departement":"79","arrondissement":"792","commune":"79114"},
{"name":"Saivres","latitude":"46.43167","longitude":"-0.23694","population":"1359","region":"75","departement":"79","arrondissement":"792","commune":"79302"},
{"name":"Fressines","latitude":"46.3221","longitude":"-0.2962","population":"1305","region":"75","departement":"79","arrondissement":"792","commune":"79129"},
{"name":"Sainte-Néomaye","latitude":"46.37306","longitude":"-0.25861","population":"1295","region":"75","departement":"79","arrondissement":"792","commune":"79283"},
{"name":"Saint-Martin-de-Saint-Maixent","latitude":"46.39611","longitude":"-0.20167","population":"1086","region":"75","departement":"79","arrondissement":"792","commune":"79276"},
{"name":"Mazières-en-Gâtine","latitude":"46.53278","longitude":"-0.32333","population":"970","region":"75","departement":"79","arrondissement":"793","commune":"79172"},
{"name":"Augé","latitude":"46.43889","longitude":"-0.2875","population":"923","region":"75","departement":"79","arrondissement":"792","commune":"79020"},
{"name":"Verruyes","latitude":"46.51611","longitude":"-0.28944","population":"908","region":"75","departement":"79","arrondissement":"793","commune":"79345"},
{"name":"François","latitude":"46.3833","longitude":"-0.3394","population":"901","region":"75","departement":"79","arrondissement":"792","commune":"79128"},
{"name":"Ménigoute","latitude":"46.49528","longitude":"-0.05889","population":"881","region":"75","departement":"79","arrondissement":"793","commune":"79176"},
{"name":"Souvigné","latitude":"46.37333","longitude":"-0.18722","population":"867","region":"75","departement":"79","arrondissement":"792","commune":"79319"},
{"name":"Romans","latitude":"46.3575","longitude":"-0.22694","population":"728","region":"75","departement":"79","arrondissement":"792","commune":"79231"},
{"name":"Saint-Georges-de-Noisné","latitude":"46.49278","longitude":"-0.25667","population":"702","region":"75","departement":"79","arrondissement":"793","commune":"79253"},
{"name":"Sainte-Eanne","latitude":"46.3986","longitude":"-0.1351","population":"667","region":"75","departement":"79","arrondissement":"792","commune":"79246"},
{"name":"Prailles","latitude":"46.32333","longitude":"-0.21833","population":"666","region":"75","departement":"79","arrondissement":"792","commune":"79217"},
{"name":"Aigonnay","latitude":"46.3293","longitude":"-0.2575","population":"608","region":"75","departement":"79","arrondissement":"792","commune":"79004"},
{"name":"Saint-Christophe-sur-Roc","latitude":"46.44722","longitude":"-0.34806","population":"588","region":"75","departement":"79","arrondissement":"792","commune":"79241"},
{"name":"Exoudun","latitude":"46.3446","longitude":"-0.0811","population":"572","region":"75","departement":"79","arrondissement":"792","commune":"79115"},
{"name":"Sanxay","latitude":"46.49444","longitude":"-0.00694","population":"535","region":"75","departement":"86","arrondissement":"863","commune":"86253"},
{"name":"Chenay","latitude":"46.32472","longitude":"-0.03389","population":"478","region":"75","departement":"79","arrondissement":"792","commune":"79084"},
{"name":"Soudan","latitude":"46.4229","longitude":"-0.1099","population":"441","region":"75","departement":"79","arrondissement":"792","commune":"79316"},
{"name":"Fomperron","latitude":"46.47639","longitude":"-0.10861","population":"424","region":"75","departement":"79","arrondissement":"793","commune":"79121"},
{"name":"Reffannes","latitude":"46.55","longitude":"-0.18889","population":"371","region":"75","departement":"79","arrondissement":"793","commune":"79225"},
{"name":"Saint-Lin","latitude":"46.52778","longitude":"-0.24111","population":"370","region":"75","departement":"79","arrondissement":"793","commune":"79267"},
{"name":"Vouhé","latitude":"46.55806","longitude":"-0.24861","population":"369","region":"75","departement":"79","arrondissement":"793","commune":"79354"},
{"name":"La Chapelle-Bâton","latitude":"46.4742","longitude":"-0.3286","population":"363","region":"75","departement":"79","arrondissement":"792","commune":"79070"},
{"name":"Vausseroux","latitude":"46.55111","longitude":"-0.13667","population":"356","region":"75","departement":"79","arrondissement":"793","commune":"79340"},
{"name":"Salles","latitude":"46.3851","longitude":"-0.0991","population":"344","region":"75","departement":"79","arrondissement":"792","commune":"79303"},
{"name":"Chantecorps","latitude":"46.49667","longitude":"-0.15667","population":"336","region":"75","departement":"79","arrondissement":"793","commune":"79068"},
{"name":"Clavé","latitude":"46.49306","longitude":"-0.21556","population":"330","region":"75","departement":"79","arrondissement":"793","commune":"79092"},
{"name":"La Couarde","latitude":"46.31944","longitude":"-0.15917","population":"263","region":"75","departement":"79","arrondissement":"792","commune":"79098"},
{"name":"Saint-Germier","latitude":"46.4616","longitude":"-0.0379","population":"192","region":"75","departement":"79","arrondissement":"793","commune":"79256"},
{"name":"Bougon","latitude":"46.36444","longitude":"-0.05944","population":"190","region":"75","departement":"79","arrondissement":"792","commune":"79042"},
{"name":"Coutières","latitude":"46.50528","longitude":"-0.11806","population":"155","region":"75","departement":"79","arrondissement":"793","commune":"79105"},
{"name":"Les Forges","latitude":"46.54028","longitude":"-0.03167","population":"126","region":"75","departement":"79","arrondissement":"793","commune":"79124"},
{"name":"Vautebis","latitude":"46.53472","longitude":"-0.1525","population":"118","region":"75","departement":"79","arrondissement":"793","commune":"79341"}
]