[
{"name":"Brumath","latitude":"48.73194","longitude":"7.70833","population":"9835","region":"44","departement":"67","arrondissement":"676","commune":"67067"},
{"name":"Schweighouse-sur-Moder","latitude":"48.8196","longitude":"7.7282","population":"4943","region":"44","departement":"67","arrondissement":"672","commune":"67458"},
{"name":"Ingwiller","latitude":"48.87306","longitude":"7.47694","population":"4133","region":"44","departement":"67","arrondissement":"674","commune":"67222"},
{"name":"Bouxwiller","latitude":"48.825","longitude":"7.4834","population":"3896","region":"44","departement":"67","arrondissement":"674","commune":"67061"},
{"name":"Mertzwiller","latitude":"48.86306","longitude":"7.67972","population":"3526","region":"44","departement":"67","arrondissement":"672","commune":"67291"},
{"name":"Gundershoffen","latitude":"48.90556","longitude":"7.66306","population":"3465","region":"44","departement":"67","arrondissement":"672","commune":"67176"},
{"name":"Hochfelden","latitude":"48.75944","longitude":"7.57","population":"3281","region":"44","departement":"67","arrondissement":"676","commune":"67202"},
{"name":"Val de Moder","latitude":"48.84444","longitude":"7.61083","population":"2744","region":"44","departement":"67","arrondissement":"674","commune":"67372"},
{"name":"Dettwiller","latitude":"48.75432","longitude":"7.46693","population":"2654","region":"44","departement":"67","arrondissement":"674","commune":"67089"},
{"name":"Steinbourg","latitude":"48.77011","longitude":"7.41277","population":"2001","region":"44","departement":"67","arrondissement":"674","commune":"67478"},
{"name":"Mommenheim","latitude":"48.7575","longitude":"7.64417","population":"1787","region":"44","departement":"67","arrondissement":"676","commune":"67301"},
{"name":"Obermodern-Zutzendorf","latitude":"48.8448","longitude":"7.541","population":"1631","region":"44","departement":"67","arrondissement":"674","commune":"67347"},
{"name":"Schwindratzheim","latitude":"48.75694","longitude":"7.60167","population":"1591","region":"44","departement":"67","arrondissement":"676","commune":"67460"},
{"name":"Dauendorf","latitude":"48.82981","longitude":"7.65429","population":"1433","region":"44","departement":"67","arrondissement":"672","commune":"67087"},
{"name":"Ohlungen","latitude":"48.81139","longitude":"7.70083","population":"1351","region":"44","departement":"67","arrondissement":"672","commune":"67359"},
{"name":"Gumbrechtshoffen","latitude":"48.905","longitude":"7.63028","population":"1205","region":"44","departement":"67","arrondissement":"672","commune":"67174"},
{"name":"Wingersheim les Quatre Bans","latitude":"48.72222","longitude":"7.63583","population":"1176","region":"44","departement":"67","arrondissement":"676","commune":"67539"},
{"name":"Neuwiller-lès-Saverne","latitude":"48.82306","longitude":"7.40111","population":"1165","region":"44","departement":"67","arrondissement":"674","commune":"67322"},
{"name":"Wimmenau","latitude":"48.91222","longitude":"7.42306","population":"1144","region":"44","departement":"67","arrondissement":"674","commune":"67535"},
{"name":"Dossenheim-sur-Zinsel","latitude":"48.80472","longitude":"7.40278","population":"1120","region":"44","departement":"67","arrondissement":"674","commune":"67103"},
{"name":"Batzendorf","latitude":"48.78361","longitude":"7.70556","population":"896","region":"44","departement":"67","arrondissement":"672","commune":"67023"},
{"name":"Wintershouse","latitude":"48.79239","longitude":"7.69987","population":"860","region":"44","departement":"67","arrondissement":"672","commune":"67540"},
{"name":"Ettendorf","latitude":"48.81278","longitude":"7.58222","population":"826","region":"44","departement":"67","arrondissement":"676","commune":"67135"},
{"name":"Offwiller","latitude":"48.91028","longitude":"7.54306","population":"820","region":"44","departement":"67","arrondissement":"672","commune":"67358"},
{"name":"Niedermodern","latitude":"48.84528","longitude":"7.62611","population":"809","region":"44","departement":"67","arrondissement":"674","commune":"67328"},
{"name":"Zinswiller","latitude":"48.92","longitude":"7.59083","population":"808","region":"44","departement":"67","arrondissement":"672","commune":"67558"},
{"name":"Lupstein","latitude":"48.737","longitude":"7.48632","population":"803","region":"44","departement":"67","arrondissement":"674","commune":"67275"},
{"name":"Waltenheim-sur-Zorn","latitude":"48.74667","longitude":"7.62944","population":"739","region":"44","departement":"67","arrondissement":"676","commune":"67516"},
{"name":"Kriegsheim","latitude":"48.75833","longitude":"7.72944","population":"734","region":"44","departement":"67","arrondissement":"676","commune":"67250"},
{"name":"Alteckendorf","latitude":"48.79278","longitude":"7.59444","population":"733","region":"44","departement":"67","arrondissement":"676","commune":"67005"},
{"name":"Uhlwiller","latitude":"48.82082","longitude":"7.67301","population":"709","region":"44","departement":"67","arrondissement":"672","commune":"67497"},
{"name":"Uhrwiller","latitude":"48.87778","longitude":"7.57861","population":"689","region":"44","departement":"67","arrondissement":"672","commune":"67498"},
{"name":"Wilwisheim","latitude":"48.74793","longitude":"7.50727","population":"685","region":"44","departement":"67","arrondissement":"676","commune":"67534"},
{"name":"Schwenheim","latitude":"48.7134","longitude":"7.4132","population":"663","region":"44","departement":"67","arrondissement":"674","commune":"67459"},
{"name":"Hattmatt","latitude":"48.79092","longitude":"7.42229","population":"661","region":"44","departement":"67","arrondissement":"674","commune":"67185"},
{"name":"Mietesheim","latitude":"48.87806","longitude":"7.64139","population":"660","region":"44","departement":"67","arrondissement":"672","commune":"67292"},
{"name":"Minversheim","latitude":"48.78528","longitude":"7.62222","population":"640","region":"44","departement":"67","arrondissement":"676","commune":"67293"},
{"name":"Wittersheim","latitude":"48.78083","longitude":"7.65833","population":"614","region":"44","departement":"67","arrondissement":"672","commune":"67546"},
{"name":"Duntzenheim","latitude":"48.71203","longitude":"7.53499","population":"611","region":"44","departement":"67","arrondissement":"676","commune":"67107"},
{"name":"Bernolsheim","latitude":"48.75611","longitude":"7.68972","population":"609","region":"44","departement":"67","arrondissement":"676","commune":"67033"},
{"name":"Melsheim","latitude":"48.75698","longitude":"7.52169","population":"585","region":"44","departement":"67","arrondissement":"676","commune":"67287"},
{"name":"Kindwiller","latitude":"48.86278","longitude":"7.59806","population":"578","region":"44","departement":"67","arrondissement":"672","commune":"67238"},
{"name":"Weiterswiller","latitude":"48.85333","longitude":"7.4125","population":"572","region":"44","departement":"67","arrondissement":"674","commune":"67524"},
{"name":"Menchhoffen","latitude":"48.85944","longitude":"7.49833","population":"568","region":"44","departement":"67","arrondissement":"674","commune":"67289"},
{"name":"Lichtenberg","latitude":"48.92083","longitude":"7.48056","population":"566","region":"44","departement":"67","arrondissement":"674","commune":"67265"},
{"name":"Morschwiller","latitude":"48.81969","longitude":"7.62709","population":"563","region":"44","departement":"67","arrondissement":"672","commune":"67304"},
{"name":"Gougenheim","latitude":"48.70194","longitude":"7.56611","population":"553","region":"44","departement":"67","arrondissement":"676","commune":"67163"},
{"name":"Forstheim","latitude":"48.89722","longitude":"7.71417","population":"550","region":"44","departement":"67","arrondissement":"677","commune":"67141"},
{"name":"Waldolwisheim","latitude":"48.73278","longitude":"7.43806","population":"533","region":"44","departement":"67","arrondissement":"674","commune":"67515"},
{"name":"Olwisheim","latitude":"48.69674","longitude":"7.6755","population":"517","region":"44","departement":"67","arrondissement":"676","commune":"67361"},
{"name":"Mittelschaeffolsheim","latitude":"48.70056","longitude":"7.65194","population":"517","region":"44","departement":"67","arrondissement":"676","commune":"67298"},
{"name":"Kirrwiller","latitude":"48.8142","longitude":"7.5311","population":"514","region":"44","departement":"67","arrondissement":"674","commune":"67242"},
{"name":"Saessolsheim","latitude":"48.70852","longitude":"7.51293","population":"509","region":"44","departement":"67","arrondissement":"676","commune":"67423"},
{"name":"Rothbach","latitude":"48.90744","longitude":"7.5283","population":"481","region":"44","departement":"67","arrondissement":"672","commune":"67415"},
{"name":"Bitschhoffen","latitude":"48.85917","longitude":"7.62","population":"477","region":"44","departement":"67","arrondissement":"672","commune":"67048"},
{"name":"Engwiller","latitude":"48.885","longitude":"7.61528","population":"472","region":"44","departement":"67","arrondissement":"672","commune":"67123"},
{"name":"Mulhausen","latitude":"48.8835","longitude":"7.5536","population":"447","region":"44","departement":"67","arrondissement":"674","commune":"67307"},
{"name":"Wickersheim-Wilshausen","latitude":"48.7827","longitude":"7.532","population":"438","region":"44","departement":"67","arrondissement":"676","commune":"67530"},
{"name":"Schillersdorf","latitude":"48.87098","longitude":"7.52418","population":"438","region":"44","departement":"67","arrondissement":"674","commune":"67446"},
{"name":"Ringendorf","latitude":"48.80732","longitude":"7.55628","population":"431","region":"44","departement":"67","arrondissement":"676","commune":"67403"},
{"name":"Weinbourg","latitude":"48.87132","longitude":"7.44049","population":"430","region":"44","departement":"67","arrondissement":"674","commune":"67521"},
{"name":"Lochwiller","latitude":"48.69639","longitude":"7.41472","population":"421","region":"44","departement":"67","arrondissement":"674","commune":"67272"},
{"name":"Mutzenhouse","latitude":"48.74119","longitude":"7.58846","population":"419","region":"44","departement":"67","arrondissement":"676","commune":"67312"},
{"name":"Obersoultzbach","latitude":"48.85139","longitude":"7.44944","population":"411","region":"44","departement":"67","arrondissement":"674","commune":"67352"},
{"name":"Huttendorf","latitude":"48.80019","longitude":"7.63923","population":"411","region":"44","departement":"67","arrondissement":"672","commune":"67215"},
{"name":"Bilwisheim","latitude":"48.70948","longitude":"7.65962","population":"408","region":"44","departement":"67","arrondissement":"676","commune":"67039"},
{"name":"Wahlenheim","latitude":"48.76389","longitude":"7.685","population":"389","region":"44","departement":"67","arrondissement":"672","commune":"67510"},
{"name":"Berstheim","latitude":"48.79205","longitude":"7.67507","population":"386","region":"44","departement":"67","arrondissement":"672","commune":"67035"},
{"name":"Schaffhouse-sur-Zorn","latitude":"48.7325","longitude":"7.56333","population":"385","region":"44","departement":"67","arrondissement":"676","commune":"67439"},
{"name":"Furchhausen","latitude":"48.7186","longitude":"7.43903","population":"384","region":"44","departement":"67","arrondissement":"674","commune":"67149"},
{"name":"Bossendorf","latitude":"48.78114","longitude":"7.55988","population":"378","region":"44","departement":"67","arrondissement":"676","commune":"67058"},
{"name":"Ingenheim","latitude":"48.73472","longitude":"7.52056","population":"360","region":"44","departement":"67","arrondissement":"676","commune":"67220"},
{"name":"Gottesheim","latitude":"48.77542","longitude":"7.47963","population":"346","region":"44","departement":"67","arrondissement":"674","commune":"67162"},
{"name":"Lixhausen","latitude":"48.79426","longitude":"7.54907","population":"334","region":"44","departement":"67","arrondissement":"676","commune":"67270"},
{"name":"Rottelsheim","latitude":"48.75667","longitude":"7.71444","population":"330","region":"44","departement":"67","arrondissement":"676","commune":"67417"},
{"name":"Hochstett","latitude":"48.77806","longitude":"7.67639","population":"319","region":"44","departement":"67","arrondissement":"672","commune":"67203"},
{"name":"Wolschheim","latitude":"48.70286","longitude":"7.45062","population":"314","region":"44","departement":"67","arrondissement":"674","commune":"67553"},
{"name":"Schalkendorf","latitude":"48.8325","longitude":"7.56167","population":"313","region":"44","departement":"67","arrondissement":"674","commune":"67441"},
{"name":"Laubach","latitude":"48.88167","longitude":"7.72028","population":"302","region":"44","departement":"67","arrondissement":"677","commune":"67260"},
{"name":"Littenheim","latitude":"48.72861","longitude":"7.48861","population":"286","region":"44","departement":"67","arrondissement":"674","commune":"67269"},
{"name":"Rohr","latitude":"48.69578","longitude":"7.54666","population":"279","region":"44","departement":"67","arrondissement":"676","commune":"67406"},
{"name":"Bischholtz","latitude":"48.89299","longitude":"7.54031","population":"276","region":"44","departement":"67","arrondissement":"674","commune":"67044"},
{"name":"Donnenheim","latitude":"48.71778","longitude":"7.65167","population":"260","region":"44","departement":"67","arrondissement":"676","commune":"67100"},
{"name":"Sparsbach","latitude":"48.87861","longitude":"7.41472","population":"256","region":"44","departement":"67","arrondissement":"674","commune":"67475"},
{"name":"Hohfrankenheim","latitude":"48.72953","longitude":"7.57688","population":"255","region":"44","departement":"67","arrondissement":"676","commune":"67209"},
{"name":"Niedersoultzbach","latitude":"48.85","longitude":"7.46667","population":"254","region":"44","departement":"67","arrondissement":"674","commune":"67333"},
{"name":"Friedolsheim","latitude":"48.70643","longitude":"7.48435","population":"240","region":"44","departement":"67","arrondissement":"676","commune":"67145"},
{"name":"Altenheim","latitude":"48.71956","longitude":"7.46427","population":"226","region":"44","departement":"67","arrondissement":"674","commune":"67006"},
{"name":"Printzheim","latitude":"48.79056","longitude":"7.47889","population":"221","region":"44","departement":"67","arrondissement":"674","commune":"67380"},
{"name":"Maennolsheim","latitude":"48.69997","longitude":"7.46169","population":"218","region":"44","departement":"67","arrondissement":"674","commune":"67279"},
{"name":"Geiswiller","latitude":"48.78806","longitude":"7.50306","population":"201","region":"44","departement":"67","arrondissement":"676","commune":"67153"},
{"name":"Grassendorf","latitude":"48.81889","longitude":"7.61417","population":"191","region":"44","departement":"67","arrondissement":"676","commune":"67166"},
{"name":"Krautwiller","latitude":"48.73806","longitude":"7.68556","population":"189","region":"44","departement":"67","arrondissement":"676","commune":"67249"},
{"name":"Buswiller","latitude":"48.81986","longitude":"7.55945","population":"189","region":"44","departement":"67","arrondissement":"674","commune":"67068"},
{"name":"Zoebersdorf","latitude":"48.7935","longitude":"7.5248","population":"182","region":"44","departement":"67","arrondissement":"676","commune":"67560"},
{"name":"Bosselshausen","latitude":"48.805","longitude":"7.51","population":"178","region":"44","departement":"67","arrondissement":"674","commune":"67057"},
{"name":"Uttwiller","latitude":"48.84732","longitude":"7.48838","population":"169","region":"44","departement":"67","arrondissement":"674","commune":"67503"},
{"name":"Uttenhoffen","latitude":"48.89323","longitude":"7.64484","population":"168","region":"44","departement":"67","arrondissement":"672","commune":"67502"},
{"name":"Kleingœft","latitude":"48.69153","longitude":"7.44307","population":"140","region":"44","departement":"67","arrondissement":"674","commune":"67244"},
{"name":"Scherlenheim","latitude":"48.76439","longitude":"7.53482","population":"123","region":"44","departement":"67","arrondissement":"676","commune":"67444"},
{"name":"Issenhausen","latitude":"48.805","longitude":"7.53694","population":"116","region":"44","departement":"67","arrondissement":"676","commune":"67225"},
{"name":"Ringeldorf","latitude":"48.82523","longitude":"7.60812","population":"79","region":"44","departement":"67","arrondissement":"676","commune":"67402"}
]