[
{"name":"Vienne-le-Château","latitude":"49.19083","longitude":"4.88778","population":"569","region":"44","departement":"51","arrondissement":"515","commune":"51621"},
{"name":"Grandpré","latitude":"49.34056","longitude":"4.87","population":"457","region":"44","departement":"08","arrondissement":"084","commune":"08198"},
{"name":"Challerange","latitude":"49.31056","longitude":"4.74528","population":"448","region":"44","departement":"08","arrondissement":"084","commune":"08097"},
{"name":"Monthois","latitude":"49.31194","longitude":"4.70861","population":"382","region":"44","departement":"08","arrondissement":"084","commune":"08303"},
{"name":"Savigny-sur-Aisne","latitude":"49.35972","longitude":"4.72722","population":"368","region":"44","departement":"08","arrondissement":"084","commune":"08406"},
{"name":"Falaise","latitude":"49.3785","longitude":"4.7303","population":"346","region":"44","departement":"08","arrondissement":"084","commune":"08164"},
{"name":"Saint-Morel","latitude":"49.3375","longitude":"4.69417","population":"237","region":"44","departement":"08","arrondissement":"084","commune":"08392"},
{"name":"Olizy-Primat","latitude":"49.347","longitude":"4.7762","population":"221","region":"44","departement":"08","arrondissement":"084","commune":"08333"},
{"name":"Semide","latitude":"49.34111","longitude":"4.58278","population":"213","region":"44","departement":"08","arrondissement":"084","commune":"08410"},
{"name":"Ville-sur-Tourbe","latitude":"49.18667","longitude":"4.78389","population":"212","region":"44","departement":"51","arrondissement":"515","commune":"51640"},
{"name":"Vienne-la-Ville","latitude":"49.1675","longitude":"4.86028","population":"184","region":"44","departement":"51","arrondissement":"515","commune":"51620"},
{"name":"Senuc","latitude":"49.3125","longitude":"4.83861","population":"151","region":"44","departement":"08","arrondissement":"084","commune":"08412"},
{"name":"Cernay-en-Dormois","latitude":"49.22611","longitude":"4.76639","population":"148","region":"44","departement":"51","arrondissement":"515","commune":"51104"},
{"name":"Montcheutin","latitude":"49.29139","longitude":"4.82083","population":"144","region":"44","departement":"08","arrondissement":"084","commune":"08296"},
{"name":"Autry","latitude":"49.26833","longitude":"4.83722","population":"144","region":"44","departement":"08","arrondissement":"084","commune":"08036"},
{"name":"Servon-Melzicourt","latitude":"49.215","longitude":"4.84056","population":"120","region":"44","departement":"51","arrondissement":"515","commune":"51533"},
{"name":"Manre","latitude":"49.26194","longitude":"4.665","population":"118","region":"44","departement":"08","arrondissement":"084","commune":"08271"},
{"name":"Liry","latitude":"49.3075","longitude":"4.65889","population":"109","region":"44","departement":"08","arrondissement":"084","commune":"08256"},
{"name":"Binarville","latitude":"49.23972","longitude":"4.89389","population":"107","region":"44","departement":"51","arrondissement":"515","commune":"51062"},
{"name":"Sugny","latitude":"49.3578","longitude":"4.6574","population":"99","region":"44","departement":"08","arrondissement":"084","commune":"08431"},
{"name":"Mont-Saint-Martin","latitude":"49.33556","longitude":"4.6475","population":"86","region":"44","departement":"08","arrondissement":"084","commune":"08308"},
{"name":"Ardeuil-et-Montfauxelles","latitude":"49.26806","longitude":"4.70694","population":"86","region":"44","departement":"08","arrondissement":"084","commune":"08018"},
{"name":"Virginy","latitude":"49.17583","longitude":"4.76028","population":"85","region":"44","departement":"51","arrondissement":"515","commune":"51646"},
{"name":"Brécy-Brières","latitude":"49.32278","longitude":"4.76556","population":"84","region":"44","departement":"08","arrondissement":"084","commune":"08082"},
{"name":"Sainte-Marie","latitude":"49.3722","longitude":"4.6682","population":"84","region":"44","departement":"08","arrondissement":"084","commune":"08390"},
{"name":"Vaux-lès-Mouron","latitude":"49.3","longitude":"4.78333","population":"82","region":"44","departement":"08","arrondissement":"084","commune":"08464"},
{"name":"Mouron","latitude":"49.31","longitude":"4.78389","population":"79","region":"44","departement":"08","arrondissement":"084","commune":"08310"},
{"name":"Minaucourt-le-Mesnil-lès-Hurlus","latitude":"49.17056","longitude":"4.71528","population":"77","region":"44","departement":"51","arrondissement":"515","commune":"51368"},
{"name":"Beffu-et-le-Morthomme","latitude":"49.36889","longitude":"4.89944","population":"73","region":"44","departement":"08","arrondissement":"084","commune":"08056"},
{"name":"Berzieux","latitude":"49.16472","longitude":"4.79722","population":"73","region":"44","departement":"51","arrondissement":"515","commune":"51053"},
{"name":"Condé-lès-Autry","latitude":"49.25167","longitude":"4.85444","population":"71","region":"44","departement":"08","arrondissement":"084","commune":"08128"},
{"name":"Contreuve","latitude":"49.36167","longitude":"4.62444","population":"68","region":"44","departement":"08","arrondissement":"084","commune":"08130"},
{"name":"Marvaux-Vieux","latitude":"49.28972","longitude":"4.68028","population":"68","region":"44","departement":"08","arrondissement":"084","commune":"08280"},
{"name":"Séchault","latitude":"49.26472","longitude":"4.73778","population":"66","region":"44","departement":"08","arrondissement":"084","commune":"08407"},
{"name":"Grandham","latitude":"49.29972","longitude":"4.86","population":"56","region":"44","departement":"08","arrondissement":"084","commune":"08197"},
{"name":"Bouconville","latitude":"49.255","longitude":"4.7625","population":"51","region":"44","departement":"08","arrondissement":"084","commune":"08074"},
{"name":"Chevières","latitude":"49.33333","longitude":"4.9","population":"50","region":"44","departement":"08","arrondissement":"084","commune":"08120"},
{"name":"Aure","latitude":"49.27417","longitude":"4.63556","population":"50","region":"44","departement":"08","arrondissement":"084","commune":"08031"},
{"name":"Wargemoulin-Hurlus","latitude":"49.15639","longitude":"4.69889","population":"49","region":"44","departement":"51","arrondissement":"515","commune":"51659"},
{"name":"Massiges","latitude":"49.18694","longitude":"4.75","population":"49","region":"44","departement":"51","arrondissement":"515","commune":"51355"},
{"name":"Saint-Thomas-en-Argonne","latitude":"49.18556","longitude":"4.86528","population":"43","region":"44","departement":"51","arrondissement":"515","commune":"51519"},
{"name":"Lançon","latitude":"49.27528","longitude":"4.87389","population":"39","region":"44","departement":"08","arrondissement":"084","commune":"08245"},
{"name":"Gratreuil","latitude":"49.24611","longitude":"4.69722","population":"28","region":"44","departement":"51","arrondissement":"515","commune":"51280"},
{"name":"Malmy","latitude":"49.17583","longitude":"4.81111","population":"24","region":"44","departement":"51","arrondissement":"515","commune":"51341"},
{"name":"Fontaine-en-Dormois","latitude":"49.2375","longitude":"4.7175","population":"22","region":"44","departement":"51","arrondissement":"515","commune":"51255"},
{"name":"Rouvroy-Ripont","latitude":"49.225","longitude":"4.73139","population":"6","region":"44","departement":"51","arrondissement":"515","commune":"51470"}
]