[
{"name":"L'Argentière-la-Bessée","latitude":"44.7939","longitude":"6.56","population":"2328","region":"93","departement":"05","arrondissement":"051","commune":"05006"},
{"name":"Guillestre","latitude":"44.6595","longitude":"6.64948","population":"2308","region":"93","departement":"05","arrondissement":"051","commune":"05065"},
{"name":"Châteauroux-les-Alpes","latitude":"44.6148","longitude":"6.5222","population":"1119","region":"93","departement":"05","arrondissement":"052","commune":"05036"},
{"name":"Saint-Martin-de-Queyrières","latitude":"44.84028","longitude":"6.58528","population":"1094","region":"93","departement":"05","arrondissement":"051","commune":"05151"},
{"name":"La Roche-de-Rame","latitude":"44.75","longitude":"6.58056","population":"830","region":"93","departement":"05","arrondissement":"051","commune":"05122"},
{"name":"Eygliers","latitude":"44.676","longitude":"6.6347","population":"740","region":"93","departement":"05","arrondissement":"051","commune":"05052"},
{"name":"Risoul","latitude":"44.64814","longitude":"6.639","population":"646","region":"93","departement":"05","arrondissement":"051","commune":"05119"},
{"name":"Saint-Crépin","latitude":"44.70646","longitude":"6.60695","population":"608","region":"93","departement":"05","arrondissement":"051","commune":"05136"},
{"name":"Les Vigneaux","latitude":"44.82389","longitude":"6.54083","population":"472","region":"93","departement":"05","arrondissement":"051","commune":"05180"},
{"name":"Puy-Saint-Vincent","latitude":"44.83","longitude":"6.48722","population":"307","region":"93","departement":"05","arrondissement":"051","commune":"05110"},
{"name":"Saint-Clément-sur-Durance","latitude":"44.649","longitude":"6.5789","population":"285","region":"93","departement":"05","arrondissement":"051","commune":"05134"},
{"name":"Réallon","latitude":"44.59556","longitude":"6.36472","population":"245","region":"93","departement":"05","arrondissement":"052","commune":"05114"},
{"name":"Réotier","latitude":"44.66389","longitude":"6.59","population":"201","region":"93","departement":"05","arrondissement":"051","commune":"05116"},
{"name":"Freissinières","latitude":"44.7543","longitude":"6.5375","population":"193","region":"93","departement":"05","arrondissement":"051","commune":"05058"},
{"name":"Champcella","latitude":"44.7228","longitude":"6.5717","population":"172","region":"93","departement":"05","arrondissement":"051","commune":"05031"},
{"name":"Mont-Dauphin","latitude":"44.66917","longitude":"6.62389","population":"145","region":"93","departement":"05","arrondissement":"051","commune":"05082"}
]