[
{"name":"Gueugnon","latitude":"46.60111","longitude":"4.06083","population":"7638","region":"27","departement":"71","arrondissement":"713","commune":"71230"},
{"name":"Luzy","latitude":"46.78944","longitude":"3.97","population":"2018","region":"27","departement":"58","arrondissement":"581","commune":"58149"},
{"name":"Perrecy-les-Forges","latitude":"46.61472","longitude":"4.21472","population":"1726","region":"27","departement":"71","arrondissement":"713","commune":"71346"},
{"name":"Toulon-sur-Arroux","latitude":"46.69306","longitude":"4.13778","population":"1607","region":"27","departement":"71","arrondissement":"713","commune":"71542"},
{"name":"Issy-l'Évêque","latitude":"46.70778","longitude":"3.97333","population":"842","region":"27","departement":"71","arrondissement":"711","commune":"71239"},
{"name":"Neuvy-Grandchamp","latitude":"46.58944","longitude":"3.93278","population":"794","region":"27","departement":"71","arrondissement":"713","commune":"71330"},
{"name":"Vendenesse-sur-Arroux","latitude":"46.62778","longitude":"4.06556","population":"598","region":"27","departement":"71","arrondissement":"713","commune":"71565"},
{"name":"Grury","latitude":"46.67556","longitude":"3.91111","population":"547","region":"27","departement":"71","arrondissement":"711","commune":"71227"},
{"name":"Uxeau","latitude":"46.66278","longitude":"4.02417","population":"516","region":"27","departement":"71","arrondissement":"713","commune":"71552"},
{"name":"Oudry","latitude":"46.57528","longitude":"4.15639","population":"377","region":"27","departement":"71","arrondissement":"713","commune":"71334"},
{"name":"Chassy","latitude":"46.5876","longitude":"4.1138","population":"351","region":"27","departement":"71","arrondissement":"713","commune":"71111"},
{"name":"Marly-sur-Arroux","latitude":"46.61861","longitude":"4.13417","population":"330","region":"27","departement":"71","arrondissement":"713","commune":"71281"},
{"name":"Curdin","latitude":"46.595","longitude":"3.99583","population":"322","region":"27","departement":"71","arrondissement":"713","commune":"71161"},
{"name":"La Chapelle-au-Mans","latitude":"46.62639","longitude":"3.97194","population":"264","region":"27","departement":"71","arrondissement":"713","commune":"71088"},
{"name":"Tazilly","latitude":"46.76583","longitude":"3.91444","population":"254","region":"27","departement":"58","arrondissement":"581","commune":"58287"},
{"name":"La Tagnière","latitude":"46.78889","longitude":"4.21583","population":"248","region":"27","departement":"71","arrondissement":"711","commune":"71531"},
{"name":"Cressy-sur-Somme","latitude":"46.69472","longitude":"3.86806","population":"233","region":"27","departement":"71","arrondissement":"711","commune":"71152"},
{"name":"Charbonnat","latitude":"46.78889","longitude":"4.115","population":"233","region":"27","departement":"71","arrondissement":"711","commune":"71098"},
{"name":"Montmort","latitude":"46.73611","longitude":"4.09111","population":"197","region":"27","departement":"71","arrondissement":"711","commune":"71317"},
{"name":"Sainte-Radegonde","latitude":"46.68306","longitude":"4.06944","population":"176","region":"27","departement":"71","arrondissement":"711","commune":"71474"},
{"name":"Saint-Eugène","latitude":"46.73722","longitude":"4.19389","population":"174","region":"27","departement":"71","arrondissement":"711","commune":"71411"},
{"name":"Cuzy","latitude":"46.76","longitude":"4.03167","population":"140","region":"27","departement":"71","arrondissement":"711","commune":"71166"},
{"name":"Fléty","latitude":"46.79","longitude":"3.90333","population":"127","region":"27","departement":"58","arrondissement":"581","commune":"58114"},
{"name":"La Boulaye","latitude":"46.74667","longitude":"4.12806","population":"115","region":"27","departement":"71","arrondissement":"711","commune":"71046"},
{"name":"Saint-Romain-sous-Versigny","latitude":"46.64778","longitude":"4.18639","population":"109","region":"27","departement":"71","arrondissement":"713","commune":"71478"},
{"name":"Marly-sous-Issy","latitude":"46.72222","longitude":"3.92833","population":"99","region":"27","departement":"71","arrondissement":"711","commune":"71280"},
{"name":"Dettey","latitude":"46.76333","longitude":"4.18278","population":"95","region":"27","departement":"71","arrondissement":"711","commune":"71172"}
]