[
{"name":"Flers","latitude":"48.74833","longitude":"-0.56944","population":"15592","region":"28","departement":"61","arrondissement":"612","commune":"61169"},
{"name":"Condé-en-Normandie","latitude":"48.85","longitude":"-0.55","population":"5529","region":"28","departement":"14","arrondissement":"144","commune":"14174"},
{"name":"Saint-Georges-des-Groseillers","latitude":"48.77028","longitude":"-0.57333","population":"3147","region":"28","departement":"61","arrondissement":"612","commune":"61391"},
{"name":"Athis-Val de Rouvre","latitude":"48.8106","longitude":"-0.5005","population":"2605","region":"28","departement":"61","arrondissement":"612","commune":"61007"},
{"name":"Messei","latitude":"48.7116","longitude":"-0.5365","population":"1914","region":"28","departement":"61","arrondissement":"612","commune":"61278"},
{"name":"La Lande-Patry","latitude":"48.76278","longitude":"-0.59861","population":"1793","region":"28","departement":"61","arrondissement":"612","commune":"61218"},
{"name":"Valdallière","latitude":"48.8525","longitude":"-0.67611","population":"1774","region":"28","departement":"14","arrondissement":"144","commune":"14726"},
{"name":"Briouze","latitude":"48.69848","longitude":"-0.36806","population":"1599","region":"28","departement":"61","arrondissement":"612","commune":"61063"},
{"name":"Chanu","latitude":"48.72861","longitude":"-0.67778","population":"1318","region":"28","departement":"61","arrondissement":"612","commune":"61093"},
{"name":"La Selle-la-Forge","latitude":"48.73333","longitude":"-0.54083","population":"1316","region":"28","departement":"61","arrondissement":"612","commune":"61466"},
{"name":"Saint-Pierre-du-Regard","latitude":"48.84361","longitude":"-0.54694","population":"1276","region":"28","departement":"61","arrondissement":"612","commune":"61447"},
{"name":"Clécy","latitude":"48.91667","longitude":"-0.48333","population":"1238","region":"28","departement":"14","arrondissement":"142","commune":"14162"},
{"name":"Pont-d'Ouilly","latitude":"48.8736","longitude":"-0.4078","population":"1019","region":"28","departement":"14","arrondissement":"142","commune":"14764"},
{"name":"Caligny","latitude":"48.80806","longitude":"-0.59583","population":"848","region":"28","departement":"61","arrondissement":"612","commune":"61070"},
{"name":"Saint-Denis-de-Méré","latitude":"48.87","longitude":"-0.51611","population":"832","region":"28","departement":"14","arrondissement":"142","commune":"14572"},
{"name":"Landisacq","latitude":"48.75667","longitude":"-0.6475","population":"757","region":"28","departement":"61","arrondissement":"612","commune":"61222"},
{"name":"Montilly-sur-Noireau","latitude":"48.815","longitude":"-0.57333","population":"743","region":"28","departement":"61","arrondissement":"612","commune":"61287"},
{"name":"Cerisy-Belle-Étoile","latitude":"48.798","longitude":"-0.6256","population":"733","region":"28","departement":"61","arrondissement":"612","commune":"61078"},
{"name":"Sainte-Honorine-la-Chardonne","latitude":"48.82389","longitude":"-0.48556","population":"711","region":"28","departement":"61","arrondissement":"612","commune":"61407"},
{"name":"Saint-Pierre-d'Entremont","latitude":"48.80972","longitude":"-0.64917","population":"702","region":"28","departement":"61","arrondissement":"612","commune":"61445"},
{"name":"Saint-Paul","latitude":"48.74278","longitude":"-0.6325","population":"669","region":"28","departement":"61","arrondissement":"612","commune":"61443"},
{"name":"La Chapelle-au-Moine","latitude":"48.70806","longitude":"-0.58444","population":"588","region":"28","departement":"61","arrondissement":"612","commune":"61094"},
{"name":"Montsecret-Clairefougère","latitude":"48.7971","longitude":"-0.6751","population":"581","region":"28","departement":"61","arrondissement":"612","commune":"61292"},
{"name":"Saint-André-de-Messei","latitude":"48.69528","longitude":"-0.52167","population":"538","region":"28","departement":"61","arrondissement":"612","commune":"61362"},
{"name":"La Chapelle-Biche","latitude":"48.71139","longitude":"-0.62917","population":"520","region":"28","departement":"61","arrondissement":"612","commune":"61095"},
{"name":"Landigou","latitude":"48.74611","longitude":"-0.47139","population":"500","region":"28","departement":"61","arrondissement":"612","commune":"61221"},
{"name":"Berjou","latitude":"48.84944","longitude":"-0.48194","population":"475","region":"28","departement":"61","arrondissement":"612","commune":"61044"},
{"name":"Aubusson","latitude":"48.78417","longitude":"-0.5525","population":"417","region":"28","departement":"61","arrondissement":"612","commune":"61011"},
{"name":"Ménil-Hubert-sur-Orne","latitude":"48.8525","longitude":"-0.41306","population":"403","region":"28","departement":"61","arrondissement":"612","commune":"61269"},
{"name":"Sainte-Honorine-la-Guillaume","latitude":"48.78083","longitude":"-0.37917","population":"370","region":"28","departement":"61","arrondissement":"612","commune":"61408"},
{"name":"Échalou","latitude":"48.72778","longitude":"-0.49333","population":"351","region":"28","departement":"61","arrondissement":"612","commune":"61149"},
{"name":"Lassy","latitude":"48.91528","longitude":"-0.67722","population":"346","region":"28","departement":"14","arrondissement":"144","commune":"14357"},
{"name":"Le Mesnil-Villement","latitude":"48.85306","longitude":"-0.37056","population":"292","region":"28","departement":"14","arrondissement":"142","commune":"14427"},
{"name":"Pierrefitte-en-Cinglais","latitude":"48.90306","longitude":"-0.38806","population":"255","region":"28","departement":"14","arrondissement":"142","commune":"14501"},
{"name":"Durcet","latitude":"48.74694","longitude":"-0.43583","population":"254","region":"28","departement":"61","arrondissement":"612","commune":"61148"},
{"name":"La Bazoque","latitude":"48.78583","longitude":"-0.5975","population":"245","region":"28","departement":"61","arrondissement":"612","commune":"61030"},
{"name":"Moncy","latitude":"48.82472","longitude":"-0.68611","population":"244","region":"28","departement":"61","arrondissement":"612","commune":"61281"},
{"name":"Saint-Vigor-des-Mézerets","latitude":"48.90861","longitude":"-0.64194","population":"244","region":"28","departement":"14","arrondissement":"144","commune":"14662"},
{"name":"Sainte-Opportune","latitude":"48.74222","longitude":"-0.41639","population":"235","region":"28","departement":"61","arrondissement":"612","commune":"61436"},
{"name":"La Villette","latitude":"48.91194","longitude":"-0.54333","population":"183","region":"28","departement":"14","arrondissement":"142","commune":"14756"},
{"name":"Cahan","latitude":"48.85889","longitude":"-0.44333","population":"177","region":"28","departement":"61","arrondissement":"612","commune":"61069"},
{"name":"Craménil","latitude":"48.74444","longitude":"-0.37833","population":"167","region":"28","departement":"61","arrondissement":"612","commune":"61137"},
{"name":"La Lande-Saint-Siméon","latitude":"48.82222","longitude":"-0.43583","population":"146","region":"28","departement":"61","arrondissement":"612","commune":"61219"},
{"name":"Saint-Philbert-sur-Orne","latitude":"48.84","longitude":"-0.37889","population":"124","region":"28","departement":"61","arrondissement":"612","commune":"61444"},
{"name":"Cossesseville","latitude":"48.89583","longitude":"-0.41944","population":"107","region":"28","departement":"14","arrondissement":"142","commune":"14183"},
{"name":"Le Bô","latitude":"48.89722","longitude":"-0.45361","population":"106","region":"28","departement":"14","arrondissement":"142","commune":"14080"},
{"name":"Pontécoulant","latitude":"48.89185","longitude":"-0.58377","population":"93","region":"28","departement":"14","arrondissement":"144","commune":"14512"},
{"name":"Le Vey","latitude":"48.91694","longitude":"-0.47056","population":"87","region":"28","departement":"14","arrondissement":"142","commune":"14741"},
{"name":"Périgny","latitude":"48.92194","longitude":"-0.60528","population":"54","region":"28","departement":"14","arrondissement":"144","commune":"14496"},
{"name":"La Pommeraye","latitude":"48.90833","longitude":"-0.42139","population":"44","region":"28","departement":"14","arrondissement":"142","commune":"14510"}
]