[
{"name":"Plédran","latitude":"48.44583","longitude":"-2.74611","population":"6018","region":"53","departement":"22","arrondissement":"224","commune":"22176"},
{"name":"Quessoy","latitude":"48.42111","longitude":"-2.65833","population":"3419","region":"53","departement":"22","arrondissement":"224","commune":"22258"},
{"name":"Plœuc-sur-Lié","latitude":"48.3462","longitude":"-2.7568","population":"3236","region":"53","departement":"22","arrondissement":"224","commune":"22203"},
{"name":"Hénon","latitude":"48.38472","longitude":"-2.68361","population":"2155","region":"53","departement":"22","arrondissement":"224","commune":"22079"},
{"name":"La Motte","latitude":"48.235","longitude":"-2.73222","population":"2033","region":"53","departement":"22","arrondissement":"224","commune":"22155"},
{"name":"Plouguenast","latitude":"48.28139","longitude":"-2.70444","population":"1828","region":"53","departement":"22","arrondissement":"224","commune":"22219"},
{"name":"Plémy","latitude":"48.33639","longitude":"-2.68333","population":"1669","region":"53","departement":"22","arrondissement":"224","commune":"22184"},
{"name":"Saint-Carreuc","latitude":"48.39833","longitude":"-2.73139","population":"1501","region":"53","departement":"22","arrondissement":"224","commune":"22281"},
{"name":"Bréhand","latitude":"48.40278","longitude":"-2.57417","population":"1442","region":"53","departement":"22","arrondissement":"224","commune":"22015"},
{"name":"Landéhen","latitude":"48.42833","longitude":"-2.54083","population":"1328","region":"53","departement":"22","arrondissement":"224","commune":"22098"},
{"name":"Trédaniel","latitude":"48.35806","longitude":"-2.61889","population":"985","region":"53","departement":"22","arrondissement":"224","commune":"22346"},
{"name":"Moncontour","latitude":"48.35917","longitude":"-2.63306","population":"939","region":"53","departement":"22","arrondissement":"224","commune":"22153"},
{"name":"Le Mené","latitude":"48.30083","longitude":"-2.52","population":"920","region":"53","departement":"22","arrondissement":"221","commune":"22046"},
{"name":"Noyal","latitude":"48.4475","longitude":"-2.48722","population":"838","region":"53","departement":"22","arrondissement":"224","commune":"22160"},
{"name":"Trébry","latitude":"48.35528","longitude":"-2.55222","population":"731","region":"53","departement":"22","arrondissement":"224","commune":"22345"},
{"name":"Langast","latitude":"48.28","longitude":"-2.66389","population":"633","region":"53","departement":"22","arrondissement":"224","commune":"22100"},
{"name":"Gausson","latitude":"48.29944","longitude":"-2.75472","population":"606","region":"53","departement":"22","arrondissement":"224","commune":"22060"},
{"name":"Penguily","latitude":"48.3723","longitude":"-2.494","population":"598","region":"53","departement":"22","arrondissement":"224","commune":"22165"},
{"name":"Saint-Glen","latitude":"48.35944","longitude":"-2.52333","population":"584","region":"53","departement":"22","arrondissement":"224","commune":"22296"},
{"name":"La Malhoure","latitude":"48.39722","longitude":"-2.49444","population":"462","region":"53","departement":"22","arrondissement":"224","commune":"22140"},
{"name":"Saint-Trimoël","latitude":"48.38611","longitude":"-2.54889","population":"426","region":"53","departement":"22","arrondissement":"224","commune":"22332"},
{"name":"Grâce-Uzel","latitude":"48.24139","longitude":"-2.80083","population":"407","region":"53","departement":"22","arrondissement":"224","commune":"22068"}
]