[
{"name":"Montoire-sur-le-Loir","latitude":"47.75417","longitude":"0.86361","population":"4081","region":"24","departement":"41","arrondissement":"412","commune":"41149"},
{"name":"Saint-Calais","latitude":"47.92028","longitude":"0.74306","population":"3482","region":"52","departement":"72","arrondissement":"722","commune":"72269"},
{"name":"Bessé-sur-Braye","latitude":"47.83333","longitude":"0.75","population":"2363","region":"52","departement":"72","arrondissement":"722","commune":"72035"},
{"name":"Savigny-sur-Braye","latitude":"47.87923","longitude":"0.80981","population":"2186","region":"24","departement":"41","arrondissement":"412","commune":"41238"},
{"name":"Naveil","latitude":"47.79333","longitude":"1.02972","population":"2108","region":"24","departement":"41","arrondissement":"412","commune":"41158"},
{"name":"Mondoubleau","latitude":"47.98111","longitude":"0.89917","population":"1496","region":"24","departement":"41","arrondissement":"412","commune":"41143"},
{"name":"Lunay","latitude":"47.80917","longitude":"0.91528","population":"1336","region":"24","departement":"41","arrondissement":"412","commune":"41120"},
{"name":"Villiers-sur-Loir","latitude":"47.80667","longitude":"0.99417","population":"1195","region":"24","departement":"41","arrondissement":"412","commune":"41294"},
{"name":"Azé","latitude":"47.8512","longitude":"0.9998","population":"1121","region":"24","departement":"41","arrondissement":"412","commune":"41010"},
{"name":"Sargé-sur-Braye","latitude":"47.92361","longitude":"0.85306","population":"968","region":"24","departement":"41","arrondissement":"412","commune":"41235"},
{"name":"Mazangé","latitude":"47.82389","longitude":"0.94556","population":"919","region":"24","departement":"41","arrondissement":"412","commune":"41131"},
{"name":"Thoré-la-Rochette","latitude":"47.78889","longitude":"0.96472","population":"899","region":"24","departement":"41","arrondissement":"412","commune":"41259"},
{"name":"Danzé","latitude":"47.89306","longitude":"1.02778","population":"734","region":"24","departement":"41","arrondissement":"412","commune":"41073"},
{"name":"Épuisay","latitude":"47.90028","longitude":"0.93139","population":"722","region":"24","departement":"41","arrondissement":"412","commune":"41078"},
{"name":"Cormenon","latitude":"47.96833","longitude":"0.89361","population":"694","region":"24","departement":"41","arrondissement":"412","commune":"41060"},
{"name":"Conflans-sur-Anille","latitude":"47.94583","longitude":"0.74556","population":"571","region":"52","departement":"72","arrondissement":"722","commune":"72087"},
{"name":"La Chapelle-Huon","latitude":"47.85639","longitude":"0.74278","population":"539","region":"52","departement":"72","arrondissement":"722","commune":"72064"},
{"name":"Villerable","latitude":"47.75833","longitude":"1.03056","population":"522","region":"24","departement":"41","arrondissement":"412","commune":"41287"},
{"name":"Bonneveau","latitude":"47.8125","longitude":"0.74972","population":"508","region":"24","departement":"41","arrondissement":"412","commune":"41020"},
{"name":"Sougé","latitude":"47.7702","longitude":"0.7289","population":"477","region":"24","departement":"41","arrondissement":"412","commune":"41250"},
{"name":"Fontaine-les-Coteaux","latitude":"47.79917","longitude":"0.82861","population":"384","region":"24","departement":"41","arrondissement":"412","commune":"41087"},
{"name":"Saint-Gervais-de-Vic","latitude":"47.88694","longitude":"0.74083","population":"380","region":"52","departement":"72","arrondissement":"722","commune":"72286"},
{"name":"Marcilly-en-Beauce","latitude":"47.76361","longitude":"1.00194","population":"362","region":"24","departement":"41","arrondissement":"412","commune":"41124"},
{"name":"Troo","latitude":"47.77694","longitude":"0.7975","population":"327","region":"24","departement":"41","arrondissement":"412","commune":"41265"},
{"name":"Les Roches-l'Évêque","latitude":"47.77667","longitude":"0.89139","population":"295","region":"24","departement":"41","arrondissement":"412","commune":"41192"},
{"name":"Saint-Rimay","latitude":"47.7625","longitude":"0.9225","population":"286","region":"24","departement":"41","arrondissement":"412","commune":"41228"},
{"name":"Marolles-lès-Saint-Calais","latitude":"47.91833","longitude":"0.78444","population":"276","region":"52","departement":"72","arrondissement":"722","commune":"72190"},
{"name":"Fortan","latitude":"47.84556","longitude":"0.91583","population":"262","region":"24","departement":"41","arrondissement":"412","commune":"41090"},
{"name":"Cellé","latitude":"47.83333","longitude":"0.78333","population":"251","region":"24","departement":"41","arrondissement":"412","commune":"41030"},
{"name":"Baillou","latitude":"47.96806","longitude":"0.84222","population":"248","region":"24","departement":"41","arrondissement":"412","commune":"41012"},
{"name":"Rahay","latitude":"47.96111","longitude":"0.83222","population":"192","region":"52","departement":"72","arrondissement":"722","commune":"72250"},
{"name":"Saint-Marc-du-Cor","latitude":"47.97111","longitude":"0.95333","population":"188","region":"24","departement":"41","arrondissement":"412","commune":"41224"},
{"name":"Le Temple","latitude":"47.9322","longitude":"0.935","population":"178","region":"24","departement":"41","arrondissement":"412","commune":"41254"},
{"name":"Beauchêne","latitude":"47.94056","longitude":"0.96944","population":"165","region":"24","departement":"41","arrondissement":"412","commune":"41014"},
{"name":"Villavard","latitude":"47.75889","longitude":"0.905","population":"148","region":"24","departement":"41","arrondissement":"412","commune":"41274"},
{"name":"Romilly","latitude":"47.94917","longitude":"1.03889","population":"147","region":"24","departement":"41","arrondissement":"412","commune":"41193"},
{"name":"Saint-Jacques-des-Guérets","latitude":"47.7663","longitude":"0.7904","population":"92","region":"24","departement":"41","arrondissement":"412","commune":"41215"}
]