[
{"name":"Mussy-sur-Seine","latitude":"47.9772","longitude":"4.4972","population":"1155","region":"44","departement":"10","arrondissement":"103","commune":"10261"},
{"name":"Sainte-Colombe-sur-Seine","latitude":"47.8719","longitude":"4.5422","population":"924","region":"27","departement":"21","arrondissement":"213","commune":"21545"},
{"name":"Laignes","latitude":"47.84306","longitude":"4.36361","population":"813","region":"27","departement":"21","arrondissement":"213","commune":"21336"},
{"name":"Buncey","latitude":"47.82306","longitude":"4.56222","population":"382","region":"27","departement":"21","arrondissement":"213","commune":"21115"},
{"name":"Ampilly-le-Sec","latitude":"47.80944","longitude":"4.53083","population":"362","region":"27","departement":"21","arrondissement":"213","commune":"21012"},
{"name":"Montliot-et-Courcelles","latitude":"47.89139","longitude":"4.55972","population":"286","region":"27","departement":"21","arrondissement":"213","commune":"21435"},
{"name":"Chamesson","latitude":"47.79028","longitude":"4.54306","population":"278","region":"27","departement":"21","arrondissement":"213","commune":"21134"},
{"name":"Bragelogne-Beauvoir","latitude":"47.9682","longitude":"4.2659","population":"271","region":"44","departement":"10","arrondissement":"103","commune":"10058"},
{"name":"Cérilly","latitude":"47.8656","longitude":"4.4963","population":"263","region":"27","departement":"21","arrondissement":"213","commune":"21125"},
{"name":"Étrochey","latitude":"47.89167","longitude":"4.52528","population":"232","region":"27","departement":"21","arrondissement":"213","commune":"21258"},
{"name":"Molesme","latitude":"47.9349","longitude":"4.3577","population":"231","region":"27","departement":"21","arrondissement":"213","commune":"21419"},
{"name":"Poinçon-lès-Larrey","latitude":"47.8827","longitude":"4.4549","population":"205","region":"27","departement":"21","arrondissement":"213","commune":"21488"},
{"name":"Pothières","latitude":"47.9225","longitude":"4.51972","population":"184","region":"27","departement":"21","arrondissement":"213","commune":"21499"},
{"name":"Arthonnay","latitude":"47.93222","longitude":"4.22972","population":"162","region":"27","departement":"89","arrondissement":"892","commune":"89019"},
{"name":"Bouix","latitude":"47.8875","longitude":"4.48444","population":"161","region":"27","departement":"21","arrondissement":"213","commune":"21093"},
{"name":"Charrey-sur-Seine","latitude":"47.9448","longitude":"4.5134","population":"153","region":"27","departement":"21","arrondissement":"213","commune":"21149"},
{"name":"Gomméville","latitude":"47.96111","longitude":"4.49472","population":"152","region":"27","departement":"21","arrondissement":"213","commune":"21302"},
{"name":"Jully","latitude":"47.775","longitude":"4.29583","population":"143","region":"27","departement":"89","arrondissement":"892","commune":"89210"},
{"name":"Nicey","latitude":"47.86194","longitude":"4.31528","population":"131","region":"27","departement":"21","arrondissement":"213","commune":"21454"},
{"name":"Stigny","latitude":"47.77389","longitude":"4.23278","population":"130","region":"27","departement":"89","arrondissement":"892","commune":"89403"},
{"name":"Channes","latitude":"47.94056","longitude":"4.25472","population":"126","region":"44","departement":"10","arrondissement":"103","commune":"10079"},
{"name":"Marcenay","latitude":"47.86278","longitude":"4.40389","population":"115","region":"27","departement":"21","arrondissement":"213","commune":"21378"},
{"name":"Vix","latitude":"47.90583","longitude":"4.53917","population":"110","region":"27","departement":"21","arrondissement":"213","commune":"21711"},
{"name":"Sennevoy-le-Bas","latitude":"47.80639","longitude":"4.29083","population":"106","region":"27","departement":"89","arrondissement":"892","commune":"89385"},
{"name":"Sennevoy-le-Haut","latitude":"47.8075","longitude":"4.28056","population":"101","region":"27","departement":"89","arrondissement":"892","commune":"89386"},
{"name":"Gigny","latitude":"47.81611","longitude":"4.295","population":"98","region":"27","departement":"89","arrondissement":"892","commune":"89187"},
{"name":"Larrey","latitude":"47.88417","longitude":"4.43556","population":"95","region":"27","departement":"21","arrondissement":"213","commune":"21343"},
{"name":"Villers-Patras","latitude":"47.93028","longitude":"4.54083","population":"93","region":"27","departement":"21","arrondissement":"213","commune":"21700"},
{"name":"Balot","latitude":"47.81333","longitude":"4.42917","population":"91","region":"27","departement":"21","arrondissement":"213","commune":"21044"},
{"name":"Nesle-et-Massoult","latitude":"47.77611","longitude":"4.43111","population":"83","region":"27","departement":"21","arrondissement":"213","commune":"21451"},
{"name":"Griselles","latitude":"47.86889","longitude":"4.35278","population":"82","region":"27","departement":"21","arrondissement":"213","commune":"21309"},
{"name":"Noiron-sur-Seine","latitude":"47.94722","longitude":"4.48583","population":"82","region":"27","departement":"21","arrondissement":"213","commune":"21460"},
{"name":"Villedieu","latitude":"47.91667","longitude":"4.36222","population":"80","region":"27","departement":"21","arrondissement":"213","commune":"21693"},
{"name":"Bissey-la-Pierre","latitude":"47.84889","longitude":"4.42583","population":"78","region":"27","departement":"21","arrondissement":"213","commune":"21078"},
{"name":"Obtrée","latitude":"47.92139","longitude":"4.55611","population":"73","region":"27","departement":"21","arrondissement":"213","commune":"21465"},
{"name":"Channay","latitude":"47.88222","longitude":"4.33194","population":"64","region":"27","departement":"21","arrondissement":"213","commune":"21143"},
{"name":"Vannaire","latitude":"47.91361","longitude":"4.56917","population":"64","region":"27","departement":"21","arrondissement":"213","commune":"21653"},
{"name":"Vertault","latitude":"47.91528","longitude":"4.35056","population":"54","region":"27","departement":"21","arrondissement":"213","commune":"21671"},
{"name":"Fontaines-les-Sèches","latitude":"47.77917","longitude":"4.35333","population":"40","region":"27","departement":"21","arrondissement":"213","commune":"21279"}
]