[
{"name":"Montbrison","latitude":"45.6075","longitude":"4.06528","population":"14974","region":"84","departement":"42","arrondissement":"421","commune":"42147"},
{"name":"Boën-sur-Lignon","latitude":"45.7461","longitude":"4.0049","population":"3160","region":"84","departement":"42","arrondissement":"421","commune":"42019"},
{"name":"Savigneux","latitude":"45.6066","longitude":"4.0832","population":"3106","region":"84","departement":"42","arrondissement":"421","commune":"42299"},
{"name":"Balbigny","latitude":"45.81806","longitude":"4.18722","population":"2809","region":"84","departement":"42","arrondissement":"422","commune":"42011"},
{"name":"Champdieu","latitude":"45.64472","longitude":"4.04528","population":"1665","region":"84","departement":"42","arrondissement":"421","commune":"42046"},
{"name":"Marcilly-le-Châtel","latitude":"45.6948","longitude":"4.0382","population":"1256","region":"84","departement":"42","arrondissement":"421","commune":"42134"},
{"name":"Écotay-l'Olme","latitude":"45.59111","longitude":"4.05083","population":"1101","region":"84","departement":"42","arrondissement":"421","commune":"42087"},
{"name":"Boisset-lès-Montrond","latitude":"45.62111","longitude":"4.2125","population":"1068","region":"84","departement":"42","arrondissement":"421","commune":"42020"},
{"name":"Sainte-Agathe-la-Bouteresse","latitude":"45.73417","longitude":"4.055","population":"1062","region":"84","departement":"42","arrondissement":"421","commune":"42197"},
{"name":"Montverdun","latitude":"45.715","longitude":"4.06694","population":"1060","region":"84","departement":"42","arrondissement":"421","commune":"42150"},
{"name":"Précieux","latitude":"45.5868","longitude":"4.1516","population":"1033","region":"84","departement":"42","arrondissement":"421","commune":"42180"},
{"name":"Sail-sous-Couzan","latitude":"45.73389","longitude":"3.97056","population":"957","region":"84","departement":"42","arrondissement":"421","commune":"42195"},
{"name":"Saint-Étienne-le-Molard","latitude":"45.7325","longitude":"4.08833","population":"938","region":"84","departement":"42","arrondissement":"421","commune":"42219"},
{"name":"L'Hôpital-le-Grand","latitude":"45.59333","longitude":"4.19806","population":"938","region":"84","departement":"42","arrondissement":"421","commune":"42108"},
{"name":"Nervieux","latitude":"45.80528","longitude":"4.15472","population":"901","region":"84","departement":"42","arrondissement":"421","commune":"42155"},
{"name":"Poncins","latitude":"45.72806","longitude":"4.1625","population":"869","region":"84","departement":"42","arrondissement":"421","commune":"42174"},
{"name":"Pralong","latitude":"45.66556","longitude":"4.03028","population":"848","region":"84","departement":"42","arrondissement":"421","commune":"42179"},
{"name":"Saint-Bonnet-le-Courreau","latitude":"45.66028","longitude":"3.94389","population":"734","region":"84","departement":"42","arrondissement":"421","commune":"42205"},
{"name":"Marcoux","latitude":"45.71083","longitude":"4.01333","population":"707","region":"84","departement":"42","arrondissement":"421","commune":"42136"},
{"name":"Saint-Sixte","latitude":"45.77583","longitude":"3.98222","population":"691","region":"84","departement":"42","arrondissement":"421","commune":"42288"},
{"name":"Épercieux-Saint-Paul","latitude":"45.79167","longitude":"4.21194","population":"657","region":"84","departement":"42","arrondissement":"421","commune":"42088"},
{"name":"Essertines-en-Châtelneuf","latitude":"45.61917","longitude":"3.99778","population":"648","region":"84","departement":"42","arrondissement":"421","commune":"42089"},
{"name":"Chalain-le-Comtal","latitude":"45.64528","longitude":"4.17","population":"633","region":"84","departement":"42","arrondissement":"421","commune":"42038"},
{"name":"Bard","latitude":"45.5875","longitude":"4.01139","population":"619","region":"84","departement":"42","arrondissement":"421","commune":"42012"},
{"name":"Saint-Laurent-la-Conche","latitude":"45.68389","longitude":"4.21139","population":"592","region":"84","departement":"42","arrondissement":"421","commune":"42251"},
{"name":"Trelins","latitude":"45.73083","longitude":"4.00778","population":"591","region":"84","departement":"42","arrondissement":"421","commune":"42313"},
{"name":"Cleppé","latitude":"45.76917","longitude":"4.18028","population":"550","region":"84","departement":"42","arrondissement":"421","commune":"42066"},
{"name":"Chalain-d'Uzore","latitude":"45.6725","longitude":"4.07056","population":"533","region":"84","departement":"42","arrondissement":"421","commune":"42037"},
{"name":"Arthun","latitude":"45.77306","longitude":"4.03389","population":"510","region":"84","departement":"42","arrondissement":"421","commune":"42009"},
{"name":"Chambéon","latitude":"45.69694","longitude":"4.17639","population":"491","region":"84","departement":"42","arrondissement":"421","commune":"42041"},
{"name":"Marclopt","latitude":"45.665","longitude":"4.20944","population":"490","region":"84","departement":"42","arrondissement":"421","commune":"42135"},
{"name":"Bussy-Albieux","latitude":"45.79306","longitude":"4.03361","population":"478","region":"84","departement":"42","arrondissement":"421","commune":"42030"},
{"name":"Sainte-Foy-Saint-Sulpice","latitude":"45.76889","longitude":"4.12917","population":"457","region":"84","departement":"42","arrondissement":"421","commune":"42221"},
{"name":"Magneux-Haute-Rive","latitude":"45.67056","longitude":"4.17111","population":"448","region":"84","departement":"42","arrondissement":"421","commune":"42130"},
{"name":"Mornand-en-Forez","latitude":"45.67972","longitude":"4.125","population":"433","region":"84","departement":"42","arrondissement":"421","commune":"42151"},
{"name":"Saint-Georges-en-Couzan","latitude":"45.70139","longitude":"3.93111","population":"410","region":"84","departement":"42","arrondissement":"421","commune":"42227"},
{"name":"Sauvain","latitude":"45.67333","longitude":"3.90556","population":"407","region":"84","departement":"42","arrondissement":"421","commune":"42298"},
{"name":"Leigneux","latitude":"45.75139","longitude":"3.97611","population":"376","region":"84","departement":"42","arrondissement":"421","commune":"42119"},
{"name":"Mizérieux","latitude":"45.795","longitude":"4.165","population":"342","region":"84","departement":"42","arrondissement":"421","commune":"42143"},
{"name":"Châtelneuf","latitude":"45.63778","longitude":"3.98306","population":"316","region":"84","departement":"42","arrondissement":"421","commune":"42054"},
{"name":"Saint-Just-en-Bas","latitude":"45.73083","longitude":"3.88056","population":"306","region":"84","departement":"42","arrondissement":"421","commune":"42247"},
{"name":"Roche","latitude":"45.61444","longitude":"3.94528","population":"266","region":"84","departement":"42","arrondissement":"421","commune":"42188"},
{"name":"Saint-Laurent-Rochefort","latitude":"45.77333","longitude":"3.92333","population":"256","region":"84","departement":"42","arrondissement":"421","commune":"42252"},
{"name":"Saint-Thurin","latitude":"45.81883","longitude":"3.88478","population":"197","region":"84","departement":"42","arrondissement":"421","commune":"42291"},
{"name":"Cezay","latitude":"45.80194","longitude":"3.96306","population":"191","region":"84","departement":"42","arrondissement":"421","commune":"42035"},
{"name":"Débats-Rivière-d'Orpra","latitude":"45.7605","longitude":"3.9392","population":"157","region":"84","departement":"42","arrondissement":"421","commune":"42084"},
{"name":"Nollieux","latitude":"45.81639","longitude":"3.99694","population":"155","region":"84","departement":"42","arrondissement":"422","commune":"42160"},
{"name":"Lérigneux","latitude":"45.60083","longitude":"3.965","population":"152","region":"84","departement":"42","arrondissement":"421","commune":"42121"},
{"name":"Ailleux","latitude":"45.80361","longitude":"3.9425","population":"148","region":"84","departement":"42","arrondissement":"421","commune":"42002"},
{"name":"Saint-Paul-d'Uzore","latitude":"45.6777","longitude":"4.0814","population":"129","region":"84","departement":"42","arrondissement":"421","commune":"42269"},
{"name":"Grézieux-le-Fromental","latitude":"45.61778","longitude":"4.15278","population":"114","region":"84","departement":"42","arrondissement":"421","commune":"42105"},
{"name":"L'Hôpital-sous-Rochefort","latitude":"45.774","longitude":"3.9338","population":"113","region":"84","departement":"42","arrondissement":"421","commune":"42109"},
{"name":"Palogneux","latitude":"45.74389","longitude":"3.92","population":"66","region":"84","departement":"42","arrondissement":"421","commune":"42164"}
]