[
{"name":"Belfort","latitude":"47.64111","longitude":"6.84944","population":"50199","region":"27","departement":"90","arrondissement":"901","commune":"90010"},
{"name":"Héricourt","latitude":"47.5775","longitude":"6.76167","population":"10481","region":"27","departement":"70","arrondissement":"701","commune":"70285"},
{"name":"Bethoncourt","latitude":"47.53444","longitude":"6.80389","population":"6014","region":"27","departement":"25","arrondissement":"252","commune":"25057"},
{"name":"Grand-Charmont","latitude":"47.52722","longitude":"6.82361","population":"5121","region":"27","departement":"25","arrondissement":"252","commune":"25284"},
{"name":"Valdoie","latitude":"47.66722","longitude":"6.84194","population":"5059","region":"27","departement":"90","arrondissement":"901","commune":"90099"},
{"name":"Bavilliers","latitude":"47.61944","longitude":"6.83056","population":"4870","region":"27","departement":"90","arrondissement":"901","commune":"90008"},
{"name":"Champagney","latitude":"47.7054","longitude":"6.6824","population":"3728","region":"27","departement":"70","arrondissement":"701","commune":"70120"},
{"name":"Danjoutin","latitude":"47.61778","longitude":"6.86389","population":"3514","region":"27","departement":"90","arrondissement":"901","commune":"90032"},
{"name":"Offemont","latitude":"47.66333","longitude":"6.8775","population":"3277","region":"27","departement":"90","arrondissement":"901","commune":"90075"},
{"name":"Giromagny","latitude":"47.74222","longitude":"6.82556","population":"3219","region":"27","departement":"90","arrondissement":"901","commune":"90052"},
{"name":"Essert","latitude":"47.63194","longitude":"6.81639","population":"3176","region":"27","departement":"90","arrondissement":"901","commune":"90039"},
{"name":"Grandvillars","latitude":"47.5389","longitude":"6.974","population":"3122","region":"27","departement":"90","arrondissement":"901","commune":"90053"},
{"name":"Châtenois-les-Forges","latitude":"47.55917","longitude":"6.84833","population":"2731","region":"27","departement":"90","arrondissement":"901","commune":"90022"},
{"name":"Vieux-Charmont","latitude":"47.52472","longitude":"6.83889","population":"2473","region":"27","departement":"25","arrondissement":"252","commune":"25614"},
{"name":"Fesches-le-Châtel","latitude":"47.52417","longitude":"6.90667","population":"2258","region":"27","departement":"25","arrondissement":"252","commune":"25237"},
{"name":"Évette-Salbert","latitude":"47.6748","longitude":"6.7985","population":"2057","region":"27","departement":"90","arrondissement":"901","commune":"90042"},
{"name":"Bourogne","latitude":"47.56222","longitude":"6.91778","population":"1969","region":"27","departement":"90","arrondissement":"901","commune":"90017"},
{"name":"Cravanche","latitude":"47.65389","longitude":"6.8325","population":"1919","region":"27","departement":"90","arrondissement":"901","commune":"90029"},
{"name":"Plancher-Bas","latitude":"47.72111","longitude":"6.73278","population":"1893","region":"27","departement":"70","arrondissement":"701","commune":"70413"},
{"name":"Nommay","latitude":"47.53806","longitude":"6.84722","population":"1621","region":"27","departement":"25","arrondissement":"252","commune":"25428"},
{"name":"Étueffont","latitude":"47.7189","longitude":"6.9227","population":"1474","region":"27","departement":"90","arrondissement":"901","commune":"90041"},
{"name":"Chèvremont","latitude":"47.62889","longitude":"6.92306","population":"1469","region":"27","departement":"90","arrondissement":"901","commune":"90026"},
{"name":"Méziré","latitude":"47.53111","longitude":"6.91972","population":"1410","region":"27","departement":"90","arrondissement":"901","commune":"90069"},
{"name":"Rougemont-le-Château","latitude":"47.73556","longitude":"6.96722","population":"1396","region":"27","departement":"90","arrondissement":"901","commune":"90089"},
{"name":"Joncherey","latitude":"47.52889","longitude":"7.00139","population":"1351","region":"27","departement":"90","arrondissement":"901","commune":"90056"},
{"name":"Andelnans","latitude":"47.6025","longitude":"6.86861","population":"1271","region":"27","departement":"90","arrondissement":"901","commune":"90001"},
{"name":"Châlonvillars","latitude":"47.63944","longitude":"6.78639","population":"1254","region":"27","departement":"70","arrondissement":"701","commune":"70117"},
{"name":"Frahier-et-Chatebier","latitude":"47.66028","longitude":"6.7475","population":"1194","region":"27","departement":"70","arrondissement":"701","commune":"70248"},
{"name":"Morvillars","latitude":"47.54694","longitude":"6.93333","population":"1127","region":"27","departement":"90","arrondissement":"901","commune":"90072"},
{"name":"Trévenans","latitude":"47.5713","longitude":"6.8624","population":"1106","region":"27","departement":"90","arrondissement":"901","commune":"90097"},
{"name":"Chaux","latitude":"47.7054","longitude":"6.8381","population":"1073","region":"27","departement":"90","arrondissement":"901","commune":"90023"},
{"name":"Montreux-Château","latitude":"47.61028","longitude":"7.00111","population":"1048","region":"27","departement":"90","arrondissement":"901","commune":"90071"},
{"name":"Pérouse","latitude":"47.63694","longitude":"6.89056","population":"1038","region":"27","departement":"90","arrondissement":"901","commune":"90076"},
{"name":"Rougegoutte","latitude":"47.73222","longitude":"6.85111","population":"1002","region":"27","departement":"90","arrondissement":"901","commune":"90088"},
{"name":"Éloie","latitude":"47.69056","longitude":"6.87361","population":"991","region":"27","departement":"90","arrondissement":"901","commune":"90037"},
{"name":"Foussemagne","latitude":"47.63417","longitude":"7.00583","population":"982","region":"27","departement":"90","arrondissement":"901","commune":"90049"},
{"name":"Bessoncourt","latitude":"47.64556","longitude":"6.93222","population":"932","region":"27","departement":"90","arrondissement":"901","commune":"90012"},
{"name":"Vézelois","latitude":"47.60778","longitude":"6.91639","population":"898","region":"27","departement":"90","arrondissement":"901","commune":"90104"},
{"name":"Montreux-Vieux","latitude":"47.61972","longitude":"7.0225","population":"868","region":"44","departement":"68","arrondissement":"681","commune":"68215"},
{"name":"Champey","latitude":"47.58472","longitude":"6.68056","population":"849","region":"27","departement":"70","arrondissement":"701","commune":"70121"},
{"name":"Roppe","latitude":"47.67056","longitude":"6.91944","population":"832","region":"27","departement":"90","arrondissement":"901","commune":"90087"},
{"name":"Sermamagny","latitude":"47.69222","longitude":"6.83583","population":"814","region":"27","departement":"90","arrondissement":"901","commune":"90093"},
{"name":"Meroux","latitude":"47.59556","longitude":"6.9","population":"811","region":"27","departement":"90","arrondissement":"901","commune":"90068"},
{"name":"Denney","latitude":"47.65889","longitude":"6.91722","population":"803","region":"27","departement":"90","arrondissement":"901","commune":"90034"},
{"name":"Couthenans","latitude":"47.59056","longitude":"6.72528","population":"779","region":"27","departement":"70","arrondissement":"701","commune":"70184"},
{"name":"Sevenans","latitude":"47.58611","longitude":"6.86583","population":"744","region":"27","departement":"90","arrondissement":"901","commune":"90094"},
{"name":"Dambenois","latitude":"47.54417","longitude":"6.86778","population":"744","region":"27","departement":"25","arrondissement":"252","commune":"25188"},
{"name":"Allenjoie","latitude":"47.53472","longitude":"6.89694","population":"739","region":"27","departement":"25","arrondissement":"252","commune":"25011"},
{"name":"Luze","latitude":"47.59694","longitude":"6.73972","population":"734","region":"27","departement":"70","arrondissement":"701","commune":"70312"},
{"name":"Vescemont","latitude":"47.74333","longitude":"6.845","population":"722","region":"27","departement":"90","arrondissement":"901","commune":"90102"},
{"name":"Chenebier","latitude":"47.64167","longitude":"6.71861","population":"696","region":"27","departement":"70","arrondissement":"701","commune":"70149"},
{"name":"Lachapelle-sous-Chaux","latitude":"47.70472","longitude":"6.82111","population":"684","region":"27","departement":"90","arrondissement":"901","commune":"90057"},
{"name":"Anjoutey","latitude":"47.70111","longitude":"6.9325","population":"683","region":"27","departement":"90","arrondissement":"901","commune":"90003"},
{"name":"Chagey","latitude":"47.61194","longitude":"6.735","population":"677","region":"27","departement":"70","arrondissement":"701","commune":"70116"},
{"name":"Brevilliers","latitude":"47.58167","longitude":"6.79222","population":"651","region":"27","departement":"70","arrondissement":"701","commune":"70096"},
{"name":"Fontaine","latitude":"47.65944","longitude":"6.99889","population":"604","region":"27","departement":"90","arrondissement":"901","commune":"90047"},
{"name":"Saint-Germain-le-Châtelet","latitude":"47.69611","longitude":"6.95861","population":"597","region":"27","departement":"90","arrondissement":"901","commune":"90091"},
{"name":"Chavannes-sur-l'Étang","latitude":"47.63167","longitude":"7.02444","population":"581","region":"44","departement":"68","arrondissement":"681","commune":"68065"},
{"name":"Dorans","latitude":"47.58778","longitude":"6.83861","population":"556","region":"27","departement":"90","arrondissement":"901","commune":"90035"},
{"name":"Lachapelle-sous-Rougemont","latitude":"47.71222","longitude":"7.01583","population":"549","region":"27","departement":"90","arrondissement":"901","commune":"90058"},
{"name":"Grosmagny","latitude":"47.72222","longitude":"6.88389","population":"541","region":"27","departement":"90","arrondissement":"901","commune":"90054"},
{"name":"Échenans-sous-Mont-Vaudois","latitude":"47.6028","longitude":"6.7724","population":"501","region":"27","departement":"70","arrondissement":"701","commune":"70206"},
{"name":"Vétrigne","latitude":"47.66833","longitude":"6.89389","population":"499","region":"27","departement":"90","arrondissement":"901","commune":"90103"},
{"name":"Froidefontaine","latitude":"47.565","longitude":"6.9475","population":"477","region":"27","departement":"90","arrondissement":"901","commune":"90051"},
{"name":"Auxelles-Bas","latitude":"47.73417","longitude":"6.78056","population":"474","region":"27","departement":"90","arrondissement":"901","commune":"90005"},
{"name":"Aibre","latitude":"47.55111","longitude":"6.69667","population":"454","region":"27","departement":"25","arrondissement":"252","commune":"25008"},
{"name":"Brognard","latitude":"47.53","longitude":"6.86417","population":"451","region":"27","departement":"25","arrondissement":"252","commune":"25097"},
{"name":"Tavey","latitude":"47.56611","longitude":"6.7425","population":"436","region":"27","departement":"70","arrondissement":"701","commune":"70497"},
{"name":"Argiésans","latitude":"47.60389","longitude":"6.82278","population":"429","region":"27","departement":"90","arrondissement":"901","commune":"90004"},
{"name":"Vyans-le-Val","latitude":"47.5497","longitude":"6.7679","population":"424","region":"27","departement":"70","arrondissement":"701","commune":"70579"},
{"name":"Boron","latitude":"47.56111","longitude":"7.01028","population":"423","region":"27","departement":"90","arrondissement":"901","commune":"90014"},
{"name":"Menoncourt","latitude":"47.67056","longitude":"6.94389","population":"412","region":"27","departement":"90","arrondissement":"901","commune":"90067"},
{"name":"Laire","latitude":"47.55","longitude":"6.73333","population":"387","region":"27","departement":"25","arrondissement":"252","commune":"25322"},
{"name":"Bermont","latitude":"47.58","longitude":"6.85333","population":"347","region":"27","departement":"90","arrondissement":"901","commune":"90011"},
{"name":"Trémoins","latitude":"47.56167","longitude":"6.70472","population":"347","region":"27","departement":"70","arrondissement":"701","commune":"70506"},
{"name":"Petit-Croix","latitude":"47.61361","longitude":"6.97278","population":"340","region":"27","departement":"90","arrondissement":"901","commune":"90077"},
{"name":"Coisevaux","latitude":"47.57972","longitude":"6.70611","population":"335","region":"27","departement":"70","arrondissement":"701","commune":"70160"},
{"name":"Brebotte","latitude":"47.57833","longitude":"6.9725","population":"331","region":"27","departement":"90","arrondissement":"901","commune":"90018"},
{"name":"Moval","latitude":"47.58667","longitude":"6.88139","population":"324","region":"27","departement":"90","arrondissement":"901","commune":"90073"},
{"name":"Phaffans","latitude":"47.66028","longitude":"6.93444","population":"321","region":"27","departement":"90","arrondissement":"901","commune":"90080"},
{"name":"Grosne","latitude":"47.57472","longitude":"6.99917","population":"317","region":"27","departement":"90","arrondissement":"901","commune":"90055"},
{"name":"Semondans","latitude":"47.54278","longitude":"6.69306","population":"316","region":"27","departement":"25","arrondissement":"252","commune":"25540"},
{"name":"Reppe","latitude":"47.66167","longitude":"7.02611","population":"312","region":"27","departement":"90","arrondissement":"901","commune":"90084"},
{"name":"Angeot","latitude":"47.69639","longitude":"7.01389","population":"308","region":"27","departement":"90","arrondissement":"901","commune":"90002"},
{"name":"Auxelles-Haut","latitude":"47.74333","longitude":"6.77306","population":"308","region":"27","departement":"90","arrondissement":"901","commune":"90006"},
{"name":"Larivière","latitude":"47.67639","longitude":"6.99778","population":"305","region":"27","departement":"90","arrondissement":"901","commune":"90062"},
{"name":"Autrechêne","latitude":"47.5947","longitude":"6.9596","population":"304","region":"27","departement":"90","arrondissement":"901","commune":"90082"},
{"name":"Buc","latitude":"47.61472","longitude":"6.78528","population":"303","region":"27","departement":"90","arrondissement":"901","commune":"90020"},
{"name":"Charmois","latitude":"47.57389","longitude":"6.93806","population":"293","region":"27","departement":"90","arrondissement":"901","commune":"90021"},
{"name":"Botans","latitude":"47.59667","longitude":"6.85028","population":"283","region":"27","departement":"90","arrondissement":"901","commune":"90015"},
{"name":"Cunelières","latitude":"47.62583","longitude":"6.99722","population":"283","region":"27","departement":"90","arrondissement":"901","commune":"90031"},
{"name":"Raynans","latitude":"47.53306","longitude":"6.71889","population":"278","region":"27","departement":"25","arrondissement":"252","commune":"25481"},
{"name":"Petitmagny","latitude":"47.7216","longitude":"6.8984","population":"275","region":"27","departement":"90","arrondissement":"901","commune":"90079"},
{"name":"Banvillars","latitude":"47.59222","longitude":"6.81472","population":"273","region":"27","departement":"90","arrondissement":"901","commune":"90007"},
{"name":"Eguenigue","latitude":"47.67028","longitude":"6.93472","population":"265","region":"27","departement":"90","arrondissement":"901","commune":"90036"},
{"name":"Felon","latitude":"47.70694","longitude":"6.97528","population":"260","region":"27","departement":"90","arrondissement":"901","commune":"90044"},
{"name":"Vellescot","latitude":"47.5725","longitude":"7.01389","population":"252","region":"27","departement":"90","arrondissement":"901","commune":"90101"},
{"name":"Novillard","latitude":"47.60694","longitude":"6.97056","population":"252","region":"27","departement":"90","arrondissement":"901","commune":"90074"},
{"name":"Thiancourt","latitude":"47.52333","longitude":"6.99028","population":"251","region":"27","departement":"90","arrondissement":"901","commune":"90096"},
{"name":"Issans","latitude":"47.5275","longitude":"6.72778","population":"251","region":"27","departement":"25","arrondissement":"252","commune":"25316"},
{"name":"Lacollonge","latitude":"47.66389","longitude":"6.96","population":"250","region":"27","departement":"90","arrondissement":"901","commune":"90059"},
{"name":"Bretagne","latitude":"47.59528","longitude":"6.99778","population":"246","region":"27","departement":"90","arrondissement":"901","commune":"90019"},
{"name":"Bethonvilliers","latitude":"47.68056","longitude":"6.96222","population":"241","region":"27","departement":"90","arrondissement":"901","commune":"90013"},
{"name":"Frais","latitude":"47.64667","longitude":"6.98667","population":"241","region":"27","departement":"90","arrondissement":"901","commune":"90050"},
{"name":"Errevet","latitude":"47.685","longitude":"6.77583","population":"234","region":"27","departement":"70","arrondissement":"701","commune":"70215"},
{"name":"Urcerey","latitude":"47.60806","longitude":"6.80917","population":"224","region":"27","departement":"90","arrondissement":"901","commune":"90098"},
{"name":"Allondans","latitude":"47.51917","longitude":"6.7475","population":"221","region":"27","departement":"25","arrondissement":"252","commune":"25013"},
{"name":"Mandrevillars","latitude":"47.61306","longitude":"6.77778","population":"216","region":"27","departement":"70","arrondissement":"701","commune":"70330"},
{"name":"Romagny-sous-Rougemont","latitude":"47.71833","longitude":"6.96833","population":"213","region":"27","departement":"90","arrondissement":"901","commune":"90086"},
{"name":"Échavanne","latitude":"47.65694","longitude":"6.73139","population":"197","region":"27","departement":"70","arrondissement":"701","commune":"70205"},
{"name":"Petitefontaine","latitude":"47.7216","longitude":"7.0082","population":"196","region":"27","departement":"90","arrondissement":"901","commune":"90078"},
{"name":"Leval","latitude":"47.72889","longitude":"6.98167","population":"188","region":"27","departement":"90","arrondissement":"901","commune":"90066"},
{"name":"Saint-Julien-lès-Montbéliard","latitude":"47.52222","longitude":"6.71056","population":"179","region":"27","departement":"25","arrondissement":"252","commune":"25521"},
{"name":"Verlans","latitude":"47.57167","longitude":"6.72083","population":"143","region":"27","departement":"70","arrondissement":"701","commune":"70547"},
{"name":"Fontenelle","latitude":"47.62167","longitude":"6.95639","population":"139","region":"27","departement":"90","arrondissement":"901","commune":"90048"},
{"name":"Bourg-sous-Châtelet","latitude":"47.70194","longitude":"6.9475","population":"129","region":"27","departement":"90","arrondissement":"901","commune":"90016"},
{"name":"Échenans","latitude":"47.5263","longitude":"6.6959","population":"126","region":"27","departement":"25","arrondissement":"252","commune":"25210"},
{"name":"Lagrange","latitude":"47.68056","longitude":"6.97917","population":"101","region":"27","departement":"90","arrondissement":"901","commune":"90060"},
{"name":"Recouvrance","latitude":"47.57417","longitude":"6.98111","population":"71","region":"27","departement":"90","arrondissement":"901","commune":"90083"}
]