[
{"name":"Souillac","latitude":"44.89778","longitude":"1.47417","population":"3864","region":"76","departement":"46","arrondissement":"463","commune":"46309"},
{"name":"Martel","latitude":"44.937","longitude":"1.61","population":"1615","region":"76","departement":"46","arrondissement":"463","commune":"46185"},
{"name":"Vayrac","latitude":"44.95306","longitude":"1.70417","population":"1330","region":"76","departement":"46","arrondissement":"463","commune":"46330"},
{"name":"Meyssac","latitude":"45.05556","longitude":"1.67417","population":"1245","region":"75","departement":"19","arrondissement":"191","commune":"19138"},
{"name":"Bétaille","latitude":"44.94389","longitude":"1.73389","population":"1060","region":"76","departement":"46","arrondissement":"463","commune":"46028"},
{"name":"Jugeals-Nazareth","latitude":"45.08139","longitude":"1.55944","population":"836","region":"75","departement":"19","arrondissement":"191","commune":"19093"},
{"name":"Turenne","latitude":"45.05417","longitude":"1.5825","population":"796","region":"75","departement":"19","arrondissement":"191","commune":"19273"},
{"name":"Lachapelle-Auzac","latitude":"44.9082","longitude":"1.4732","population":"765","region":"76","departement":"46","arrondissement":"463","commune":"46145"},
{"name":"Pinsac","latitude":"44.85556","longitude":"1.51417","population":"739","region":"76","departement":"46","arrondissement":"463","commune":"46220"},
{"name":"Les Quatre-Routes-du-Lot","latitude":"44.9973","longitude":"1.646","population":"679","region":"76","departement":"46","arrondissement":"463","commune":"46232"},
{"name":"Cressensac","latitude":"45.02083","longitude":"1.52028","population":"633","region":"76","departement":"46","arrondissement":"463","commune":"46083"},
{"name":"Gignac","latitude":"45.00528","longitude":"1.45778","population":"628","region":"76","departement":"46","arrondissement":"463","commune":"46118"},
{"name":"Nespouls","latitude":"45.05","longitude":"1.5025","population":"612","region":"75","departement":"19","arrondissement":"191","commune":"19147"},
{"name":"Lanzac","latitude":"44.87417","longitude":"1.48278","population":"579","region":"76","departement":"46","arrondissement":"463","commune":"46153"},
{"name":"Sarrazac","latitude":"45.01694","longitude":"1.58889","population":"572","region":"76","departement":"46","arrondissement":"463","commune":"46298"},
{"name":"Cuzance","latitude":"44.96389","longitude":"1.53889","population":"528","region":"76","departement":"46","arrondissement":"463","commune":"46086"},
{"name":"Saint-Sozy","latitude":"44.88028","longitude":"1.56417","population":"498","region":"76","departement":"46","arrondissement":"463","commune":"46293"},
{"name":"Collonges-la-Rouge","latitude":"45.0612","longitude":"1.6559","population":"464","region":"75","departement":"19","arrondissement":"191","commune":"19057"},
{"name":"Cavagnac","latitude":"45.009","longitude":"1.6406","population":"443","region":"76","departement":"46","arrondissement":"463","commune":"46065"},
{"name":"Miers","latitude":"44.85361","longitude":"1.70722","population":"435","region":"76","departement":"46","arrondissement":"463","commune":"46193"},
{"name":"Cazoulès","latitude":"44.883","longitude":"1.4345","population":"434","region":"75","departement":"24","arrondissement":"244","commune":"24089"},
{"name":"Condat","latitude":"44.99","longitude":"1.66389","population":"427","region":"76","departement":"46","arrondissement":"463","commune":"46074"},
{"name":"Cazillac","latitude":"44.99806","longitude":"1.61111","population":"412","region":"76","departement":"46","arrondissement":"463","commune":"46067"},
{"name":"Baladou","latitude":"44.92306","longitude":"1.55583","population":"404","region":"76","departement":"46","arrondissement":"463","commune":"46016"},
{"name":"Chauffour-sur-Vell","latitude":"45.01889","longitude":"1.665","population":"383","region":"75","departement":"19","arrondissement":"191","commune":"19050"},
{"name":"Carennac","latitude":"44.91861","longitude":"1.73194","population":"382","region":"76","departement":"46","arrondissement":"463","commune":"46058"},
{"name":"Saint-Denis-lès-Martel","latitude":"44.94083","longitude":"1.66167","population":"379","region":"76","departement":"46","arrondissement":"463","commune":"46265"},
{"name":"Noailhac","latitude":"45.0729","longitude":"1.619","population":"349","region":"75","departement":"19","arrondissement":"191","commune":"19150"},
{"name":"Chartrier-Ferrière","latitude":"45.07083","longitude":"1.45194","population":"340","region":"75","departement":"19","arrondissement":"191","commune":"19047"},
{"name":"Meyronne","latitude":"44.87694","longitude":"1.5775","population":"303","region":"76","departement":"46","arrondissement":"463","commune":"46192"},
{"name":"Montvalent","latitude":"44.88139","longitude":"1.61806","population":"302","region":"76","departement":"46","arrondissement":"463","commune":"46208"},
{"name":"Creysse","latitude":"44.88583","longitude":"1.59639","population":"296","region":"76","departement":"46","arrondissement":"463","commune":"46084"},
{"name":"Saint-Michel-de-Bannières","latitude":"44.97611","longitude":"1.68889","population":"295","region":"76","departement":"46","arrondissement":"463","commune":"46283"},
{"name":"Ligneyrac","latitude":"45.05194","longitude":"1.61861","population":"294","region":"75","departement":"19","arrondissement":"191","commune":"19115"},
{"name":"Lacave","latitude":"44.84444","longitude":"1.55806","population":"284","region":"76","departement":"46","arrondissement":"463","commune":"46144"},
{"name":"Le Pescher","latitude":"45.0702","longitude":"1.7387","population":"277","region":"75","departement":"19","arrondissement":"191","commune":"19163"},
{"name":"Strenquels","latitude":"44.98472","longitude":"1.6375","population":"276","region":"76","departement":"46","arrondissement":"463","commune":"46312"},
{"name":"Floirac","latitude":"44.91583","longitude":"1.65472","population":"271","region":"76","departement":"46","arrondissement":"463","commune":"46106"},
{"name":"Mayrac","latitude":"44.89861","longitude":"1.55833","population":"267","region":"76","departement":"46","arrondissement":"463","commune":"46337"},
{"name":"Branceilles","latitude":"45.01139","longitude":"1.71028","population":"255","region":"75","departement":"19","arrondissement":"191","commune":"19029"},
{"name":"Le Roc","latitude":"44.86611","longitude":"1.44111","population":"230","region":"76","departement":"46","arrondissement":"463","commune":"46239"},
{"name":"Lagleygeolle","latitude":"45.07778","longitude":"1.69556","population":"229","region":"75","departement":"19","arrondissement":"191","commune":"19099"},
{"name":"La Chapelle-aux-Saints","latitude":"44.98722","longitude":"1.72528","population":"216","region":"75","departement":"19","arrondissement":"191","commune":"19044"},
{"name":"Peyrillac-et-Millac","latitude":"44.88778","longitude":"1.4075","population":"213","region":"75","departement":"24","arrondissement":"244","commune":"24325"},
{"name":"Curemonte","latitude":"45.00083","longitude":"1.74222","population":"213","region":"75","departement":"19","arrondissement":"191","commune":"19067"},
{"name":"Padirac","latitude":"44.84167","longitude":"1.75333","population":"194","region":"76","departement":"46","arrondissement":"463","commune":"46213"},
{"name":"Nadaillac-de-Rouge","latitude":"44.84917","longitude":"1.42889","population":"185","region":"76","departement":"46","arrondissement":"463","commune":"46209"},
{"name":"Marcillac-la-Croze","latitude":"45.03528","longitude":"1.74306","population":"185","region":"75","departement":"19","arrondissement":"191","commune":"19126"},
{"name":"Saillac","latitude":"45.0375","longitude":"1.64056","population":"175","region":"75","departement":"19","arrondissement":"191","commune":"19179"},
{"name":"Végennes","latitude":"44.98194","longitude":"1.73972","population":"166","region":"75","departement":"19","arrondissement":"191","commune":"19280"},
{"name":"Saint-Julien-Maumont","latitude":"45.03806","longitude":"1.70583","population":"166","region":"75","departement":"19","arrondissement":"191","commune":"19217"},
{"name":"Saint-Bazile-de-Meyssac","latitude":"45.05083","longitude":"1.72639","population":"156","region":"75","departement":"19","arrondissement":"191","commune":"19184"},
{"name":"Estivals","latitude":"45.02806","longitude":"1.46167","population":"132","region":"75","departement":"19","arrondissement":"191","commune":"19077"}
]