[
{"name":"Aspet","latitude":"43.01528","longitude":"0.80139","population":"947","region":"76","departement":"31","arrondissement":"312","commune":"31020"},
{"name":"Prat-Bonrepaux","latitude":"43.029","longitude":"1.0196","population":"841","region":"76","departement":"09","arrondissement":"093","commune":"09235"},
{"name":"Encausse-les-Thermes","latitude":"43.04806","longitude":"0.74","population":"652","region":"76","departement":"31","arrondissement":"312","commune":"31167"},
{"name":"Soueich","latitude":"43.04722","longitude":"0.78","population":"536","region":"76","departement":"31","arrondissement":"312","commune":"31550"},
{"name":"Estadens","latitude":"43.035","longitude":"0.84639","population":"507","region":"76","departement":"31","arrondissement":"312","commune":"31174"},
{"name":"Castillon-en-Couserans","latitude":"42.921","longitude":"1.0331","population":"409","region":"76","departement":"09","arrondissement":"093","commune":"09085"},
{"name":"Saleich","latitude":"43.02583","longitude":"0.97028","population":"374","region":"76","departement":"31","arrondissement":"312","commune":"31521"},
{"name":"Ganties","latitude":"43.06472","longitude":"0.83111","population":"298","region":"76","departement":"31","arrondissement":"312","commune":"31208"},
{"name":"Izaut-de-l'Hôtel","latitude":"43.01639","longitude":"0.75417","population":"296","region":"76","departement":"31","arrondissement":"312","commune":"31241"},
{"name":"Rouède","latitude":"43.05278","longitude":"0.88167","population":"284","region":"76","departement":"31","arrondissement":"312","commune":"31461"},
{"name":"Montastruc-de-Salies","latitude":"43.02944","longitude":"0.89306","population":"273","region":"76","departement":"31","arrondissement":"312","commune":"31357"},
{"name":"Boutx","latitude":"42.91778","longitude":"0.71556","population":"272","region":"76","departement":"31","arrondissement":"312","commune":"31085"},
{"name":"Fos","latitude":"42.87333","longitude":"0.73611","population":"251","region":"76","departement":"31","arrondissement":"312","commune":"31190"},
{"name":"Arbas","latitude":"42.99583","longitude":"0.90583","population":"248","region":"76","departement":"31","arrondissement":"312","commune":"31011"},
{"name":"His","latitude":"43.06667","longitude":"0.96667","population":"228","region":"76","departement":"31","arrondissement":"312","commune":"31237"},
{"name":"Castelbiague","latitude":"43.03611","longitude":"0.92444","population":"226","region":"76","departement":"31","arrondissement":"312","commune":"31114"},
{"name":"Sengouagnet","latitude":"42.98639","longitude":"0.78889","population":"222","region":"76","departement":"31","arrondissement":"312","commune":"31544"},
{"name":"Cazavet","latitude":"43.00194","longitude":"1.04361","population":"212","region":"76","departement":"09","arrondissement":"093","commune":"09091"},
{"name":"Juzet-d'Izaut","latitude":"42.97722","longitude":"0.75917","population":"205","region":"76","departement":"31","arrondissement":"312","commune":"31245"},
{"name":"La Bastide-du-Salat","latitude":"43.05583","longitude":"0.98639","population":"200","region":"76","departement":"09","arrondissement":"093","commune":"09041"},
{"name":"Balaguères","latitude":"42.94944","longitude":"1.04361","population":"200","region":"76","departement":"09","arrondissement":"093","commune":"09035"},
{"name":"Chein-Dessus","latitude":"43.01917","longitude":"0.88417","population":"196","region":"76","departement":"31","arrondissement":"312","commune":"31140"},
{"name":"Couret","latitude":"43.05","longitude":"0.81917","population":"189","region":"76","departement":"31","arrondissement":"312","commune":"31155"},
{"name":"Argein","latitude":"42.93139","longitude":"0.99278","population":"176","region":"76","departement":"09","arrondissement":"093","commune":"09014"},
{"name":"Milhas","latitude":"42.98778","longitude":"0.80722","population":"175","region":"76","departement":"31","arrondissement":"312","commune":"31342"},
{"name":"Castagnède","latitude":"43.05389","longitude":"0.97889","population":"174","region":"76","departement":"31","arrondissement":"312","commune":"31112"},
{"name":"Orgibet","latitude":"42.93361","longitude":"0.93583","population":"168","region":"76","departement":"09","arrondissement":"093","commune":"09219"},
{"name":"Les Bordes-sur-Lez","latitude":"42.89778","longitude":"1.03","population":"167","region":"76","departement":"09","arrondissement":"093","commune":"09062"},
{"name":"Saint-Lary","latitude":"42.9291","longitude":"0.8954","population":"155","region":"76","departement":"09","arrondissement":"093","commune":"09267"},
{"name":"Sentein","latitude":"42.87472","longitude":"0.95472","population":"148","region":"76","departement":"09","arrondissement":"093","commune":"09290"},
{"name":"Urau","latitude":"43.01611","longitude":"0.95667","population":"148","region":"76","departement":"31","arrondissement":"312","commune":"31562"},
{"name":"Aspret-Sarrat","latitude":"43.06667","longitude":"0.71667","population":"148","region":"76","departement":"31","arrondissement":"312","commune":"31021"},
{"name":"Cescau","latitude":"42.93111","longitude":"1.03917","population":"138","region":"76","departement":"09","arrondissement":"093","commune":"09095"},
{"name":"Bonac-Irazein","latitude":"42.8769","longitude":"0.9746","population":"136","region":"76","departement":"09","arrondissement":"093","commune":"09059"},
{"name":"Régades","latitude":"43.05","longitude":"0.72222","population":"130","region":"76","departement":"31","arrondissement":"312","commune":"31449"},
{"name":"Lacave","latitude":"43.0398","longitude":"0.998","population":"122","region":"76","departement":"09","arrondissement":"093","commune":"09148"},
{"name":"Cabanac-Cazaux","latitude":"43.03306","longitude":"0.73917","population":"117","region":"76","departement":"31","arrondissement":"312","commune":"31095"},
{"name":"Audressein","latitude":"42.92861","longitude":"1.02361","population":"116","region":"76","departement":"09","arrondissement":"093","commune":"09026"},
{"name":"Galey","latitude":"42.93583","longitude":"0.91556","population":"113","region":"76","departement":"09","arrondissement":"093","commune":"09129"},
{"name":"Melles","latitude":"42.86806","longitude":"0.75861","population":"112","region":"76","departement":"31","arrondissement":"312","commune":"31337"},
{"name":"Arrien-en-Bethmale","latitude":"42.89639","longitude":"1.04139","population":"101","region":"76","departement":"09","arrondissement":"093","commune":"09017"},
{"name":"Montgaillard-de-Salies","latitude":"43.06111","longitude":"0.93139","population":"100","region":"76","departement":"31","arrondissement":"312","commune":"31376"},
{"name":"Arlos","latitude":"42.89139","longitude":"0.70361","population":"93","region":"76","departement":"31","arrondissement":"312","commune":"31017"},
{"name":"Fougaron","latitude":"42.98694","longitude":"0.93139","population":"93","region":"76","departement":"31","arrondissement":"312","commune":"31191"},
{"name":"Payssous","latitude":"43.03417","longitude":"0.7125","population":"92","region":"76","departement":"31","arrondissement":"312","commune":"31408"},
{"name":"Mauvezin-de-Prat","latitude":"43.03083","longitude":"0.99667","population":"85","region":"76","departement":"09","arrondissement":"093","commune":"09183"},
{"name":"Arbon","latitude":"43.00056","longitude":"0.74694","population":"84","region":"76","departement":"31","arrondissement":"312","commune":"31012"},
{"name":"Illartein","latitude":"42.93667","longitude":"0.96583","population":"80","region":"76","departement":"09","arrondissement":"093","commune":"09141"},
{"name":"Lespiteau","latitude":"43.06722","longitude":"0.76083","population":"78","region":"76","departement":"31","arrondissement":"312","commune":"31294"},
{"name":"Arrout","latitude":"42.94472","longitude":"1.02778","population":"73","region":"76","departement":"09","arrondissement":"093","commune":"09018"},
{"name":"Portet-d'Aspet","latitude":"42.94056","longitude":"0.86528","population":"72","region":"76","departement":"31","arrondissement":"312","commune":"31431"},
{"name":"Herran","latitude":"42.9725","longitude":"0.91417","population":"71","region":"76","departement":"31","arrondissement":"312","commune":"31236"},
{"name":"Antras","latitude":"42.8814","longitude":"0.944","population":"67","region":"76","departement":"09","arrondissement":"093","commune":"09011"},
{"name":"Aucazein","latitude":"42.93556","longitude":"0.97472","population":"64","region":"76","departement":"09","arrondissement":"093","commune":"09025"},
{"name":"Cazaunous","latitude":"42.98583","longitude":"0.73389","population":"64","region":"76","departement":"31","arrondissement":"312","commune":"31131"},
{"name":"Augirein","latitude":"42.93167","longitude":"0.91694","population":"63","region":"76","departement":"09","arrondissement":"093","commune":"09027"},
{"name":"Arguenos","latitude":"42.97111","longitude":"0.72389","population":"52","region":"76","departement":"31","arrondissement":"312","commune":"31014"},
{"name":"Salsein","latitude":"42.90944","longitude":"1.00722","population":"45","region":"76","departement":"09","arrondissement":"093","commune":"09279"},
{"name":"Villeneuve","latitude":"42.9381","longitude":"0.9827","population":"40","region":"76","departement":"09","arrondissement":"093","commune":"09335"},
{"name":"Sor","latitude":"42.92028","longitude":"1.00972","population":"33","region":"76","departement":"09","arrondissement":"093","commune":"09297"},
{"name":"Moncaup","latitude":"42.97778","longitude":"0.70639","population":"31","region":"76","departement":"31","arrondissement":"312","commune":"31348"},
{"name":"Razecueillé","latitude":"42.96806","longitude":"0.79778","population":"31","region":"76","departement":"31","arrondissement":"312","commune":"31447"},
{"name":"Argut-Dessous","latitude":"42.88917","longitude":"0.71778","population":"30","region":"76","departement":"31","arrondissement":"312","commune":"31015"},
{"name":"Uchentein","latitude":"42.88806","longitude":"1.00111","population":"29","region":"76","departement":"09","arrondissement":"093","commune":"09317"},
{"name":"Saint-Jean-du-Castillonnais","latitude":"42.93583","longitude":"0.93111","population":"27","region":"76","departement":"09","arrondissement":"093","commune":"09263"},
{"name":"Buzan","latitude":"42.94167","longitude":"0.96333","population":"23","region":"76","departement":"09","arrondissement":"093","commune":"09069"},
{"name":"Francazal","latitude":"43.01889","longitude":"0.99694","population":"21","region":"76","departement":"31","arrondissement":"312","commune":"31195"},
{"name":"Balacet","latitude":"42.88389","longitude":"0.98139","population":"20","region":"76","departement":"09","arrondissement":"093","commune":"09034"}
]