[
{"name":"Prades","latitude":"42.61722","longitude":"2.42194","population":"6308","region":"76","departement":"66","arrondissement":"663","commune":"66149"},
{"name":"Ria-Sirach","latitude":"42.6087","longitude":"2.4002","population":"1173","region":"76","departement":"66","arrondissement":"663","commune":"66161"},
{"name":"Catllar","latitude":"42.63361","longitude":"2.42222","population":"716","region":"76","departement":"66","arrondissement":"663","commune":"66045"},
{"name":"Axat","latitude":"42.80361","longitude":"2.23528","population":"656","region":"76","departement":"11","arrondissement":"112","commune":"11021"},
{"name":"Corneilla-de-Conflent","latitude":"42.56639","longitude":"2.38056","population":"465","region":"76","departement":"66","arrondissement":"663","commune":"66057"},
{"name":"Sournia","latitude":"42.72778","longitude":"2.44222","population":"448","region":"76","departement":"66","arrondissement":"663","commune":"66198"},
{"name":"Eus","latitude":"42.64361","longitude":"2.45722","population":"405","region":"76","departement":"66","arrondissement":"663","commune":"66074"},
{"name":"Olette","latitude":"42.55528","longitude":"2.26972","population":"389","region":"76","departement":"66","arrondissement":"663","commune":"66125"},
{"name":"Fuilla","latitude":"42.56194","longitude":"2.36278","population":"372","region":"76","departement":"66","arrondissement":"663","commune":"66085"},
{"name":"Codalet","latitude":"42.61028","longitude":"2.41667","population":"364","region":"76","departement":"66","arrondissement":"663","commune":"66052"},
{"name":"Taurinya","latitude":"42.58028","longitude":"2.42667","population":"324","region":"76","departement":"66","arrondissement":"663","commune":"66204"},
{"name":"Mosset","latitude":"42.66806","longitude":"2.34833","population":"295","region":"76","departement":"66","arrondissement":"663","commune":"66119"},
{"name":"Matemale","latitude":"42.58667","longitude":"2.11861","population":"294","region":"76","departement":"66","arrondissement":"663","commune":"66105"},
{"name":"Puilaurens","latitude":"42.80972","longitude":"2.305","population":"258","region":"76","departement":"11","arrondissement":"112","commune":"11302"},
{"name":"Clara","latitude":"42.58528","longitude":"2.44306","population":"240","region":"76","departement":"66","arrondissement":"663","commune":"66051"},
{"name":"Villefranche-de-Conflent","latitude":"42.59644","longitude":"2.36013","population":"232","region":"76","departement":"66","arrondissement":"663","commune":"66223"},
{"name":"Serdinya","latitude":"42.56806","longitude":"2.32167","population":"216","region":"76","departement":"66","arrondissement":"663","commune":"66193"},
{"name":"Molitg-les-Bains","latitude":"42.6528","longitude":"2.3894","population":"216","region":"76","departement":"66","arrondissement":"663","commune":"66109"},
{"name":"Fillols","latitude":"42.56083","longitude":"2.40944","population":"157","region":"76","departement":"66","arrondissement":"663","commune":"66078"},
{"name":"Rabouillet","latitude":"42.73111","longitude":"2.38972","population":"106","region":"76","departement":"66","arrondissement":"663","commune":"66156"},
{"name":"Campôme","latitude":"42.65056","longitude":"2.37611","population":"105","region":"76","departement":"66","arrondissement":"663","commune":"66034"},
{"name":"Montfort-sur-Boulzane","latitude":"42.74278","longitude":"2.30778","population":"101","region":"76","departement":"11","arrondissement":"112","commune":"11244"},
{"name":"Escouloubre","latitude":"42.73889","longitude":"2.12417","population":"94","region":"76","departement":"11","arrondissement":"112","commune":"11127"},
{"name":"Le Vivier","latitude":"42.77167","longitude":"2.45333","population":"91","region":"76","departement":"66","arrondissement":"663","commune":"66234"},
{"name":"Fenouillet","latitude":"42.7925","longitude":"2.38028","population":"88","region":"76","departement":"66","arrondissement":"662","commune":"66077"},
{"name":"Artigues","latitude":"42.80306","longitude":"2.21111","population":"85","region":"76","departement":"11","arrondissement":"112","commune":"11017"},
{"name":"Salvezines","latitude":"42.78028","longitude":"2.30667","population":"82","region":"76","departement":"11","arrondissement":"112","commune":"11373"},
{"name":"Roquefort-de-Sault","latitude":"42.7383","longitude":"2.2013","population":"81","region":"76","departement":"11","arrondissement":"112","commune":"11321"},
{"name":"Prats-de-Sournia","latitude":"42.74417","longitude":"2.46056","population":"73","region":"76","departement":"66","arrondissement":"663","commune":"66151"},
{"name":"Puyvalador","latitude":"42.64639","longitude":"2.11972","population":"73","region":"76","departement":"66","arrondissement":"663","commune":"66154"},
{"name":"Nohèdes","latitude":"42.62306","longitude":"2.28889","population":"72","region":"76","departement":"66","arrondissement":"663","commune":"66122"},
{"name":"Bessède-de-Sault","latitude":"42.78861","longitude":"2.12528","population":"54","region":"76","departement":"11","arrondissement":"112","commune":"11038"},
{"name":"Conat","latitude":"42.61333","longitude":"2.35667","population":"52","region":"76","departement":"66","arrondissement":"663","commune":"66054"},
{"name":"Sainte-Colombe-sur-Guette","latitude":"42.75","longitude":"2.23472","population":"48","region":"76","departement":"11","arrondissement":"112","commune":"11335"},
{"name":"Réal","latitude":"42.63056","longitude":"2.13389","population":"46","region":"76","departement":"66","arrondissement":"663","commune":"66159"},
{"name":"Jujols","latitude":"42.5709","longitude":"2.2958","population":"46","region":"76","departement":"66","arrondissement":"663","commune":"66090"},
{"name":"Gincla","latitude":"42.76278","longitude":"2.32556","population":"46","region":"76","departement":"11","arrondissement":"112","commune":"11163"},
{"name":"Le Bousquet","latitude":"42.74333","longitude":"2.16306","population":"46","region":"76","departement":"11","arrondissement":"112","commune":"11047"},
{"name":"Campoussy","latitude":"42.71028","longitude":"2.45861","population":"45","region":"76","departement":"66","arrondissement":"663","commune":"66035"},
{"name":"Ayguatébia-Talau","latitude":"42.5727","longitude":"2.1851","population":"45","region":"76","departement":"66","arrondissement":"663","commune":"66010"},
{"name":"Counozouls","latitude":"42.73222","longitude":"2.22722","population":"45","region":"76","departement":"11","arrondissement":"112","commune":"11104"},
{"name":"Fosse","latitude":"42.78833","longitude":"2.43111","population":"40","region":"76","departement":"66","arrondissement":"662","commune":"66083"},
{"name":"Vira","latitude":"42.77","longitude":"2.41389","population":"35","region":"76","departement":"66","arrondissement":"662","commune":"66232"},
{"name":"Le Clat","latitude":"42.78583","longitude":"2.16778","population":"35","region":"76","departement":"11","arrondissement":"112","commune":"11093"},
{"name":"Urbanya","latitude":"42.63889","longitude":"2.305","population":"26","region":"76","departement":"66","arrondissement":"663","commune":"66219"},
{"name":"Sansa","latitude":"42.60222","longitude":"2.17361","population":"24","region":"76","departement":"66","arrondissement":"663","commune":"66191"},
{"name":"Railleu","latitude":"42.58611","longitude":"2.18222","population":"18","region":"76","departement":"66","arrondissement":"663","commune":"66157"},
{"name":"Oreilla","latitude":"42.55917","longitude":"2.25389","population":"16","region":"76","departement":"66","arrondissement":"663","commune":"66128"},
{"name":"Caudiès-de-Conflent","latitude":"42.5673","longitude":"2.1617","population":"13","region":"76","departement":"66","arrondissement":"663","commune":"66047"}
]