[
{"name":"Crépy-en-Valois","latitude":"49.23444","longitude":"2.8875","population":"13839","region":"32","departement":"60","arrondissement":"604","commune":"60176"},
{"name":"Villers-Cotterêts","latitude":"49.25311","longitude":"3.09003","population":"10242","region":"32","departement":"02","arrondissement":"024","commune":"02810"},
{"name":"La Ferté-Milon","latitude":"49.1787","longitude":"3.1247","population":"2269","region":"32","departement":"02","arrondissement":"021","commune":"02307"},
{"name":"Pierrefonds","latitude":"49.35111","longitude":"2.98028","population":"1969","region":"32","departement":"60","arrondissement":"603","commune":"60491"},
{"name":"Béthisy-Saint-Martin","latitude":"49.29472","longitude":"2.81528","population":"1089","region":"32","departement":"60","arrondissement":"604","commune":"60067"},
{"name":"Betz","latitude":"49.15667","longitude":"2.95556","population":"1072","region":"32","departement":"60","arrondissement":"604","commune":"60069"},
{"name":"Bonneuil-en-Valois","latitude":"49.28472","longitude":"2.99361","population":"1056","region":"32","departement":"60","arrondissement":"604","commune":"60083"},
{"name":"Péroy-les-Gombries","latitude":"49.1625","longitude":"2.84611","population":"1034","region":"32","departement":"60","arrondissement":"604","commune":"60489"},
{"name":"Morienval","latitude":"49.2977","longitude":"2.92078","population":"1029","region":"32","departement":"60","arrondissement":"604","commune":"60430"},
{"name":"Boissy-Fresnoy","latitude":"49.16361","longitude":"2.87056","population":"896","region":"32","departement":"60","arrondissement":"604","commune":"60079"},
{"name":"Lévignen","latitude":"49.19694","longitude":"2.91444","population":"879","region":"32","departement":"60","arrondissement":"604","commune":"60358"},
{"name":"Vaumoise","latitude":"49.23667","longitude":"2.97972","population":"872","region":"32","departement":"60","arrondissement":"604","commune":"60661"},
{"name":"Marolles","latitude":"49.17","longitude":"3.105","population":"668","region":"32","departement":"60","arrondissement":"604","commune":"60385"},
{"name":"Montigny-Lengrain","latitude":"49.37139","longitude":"3.09917","population":"663","region":"32","departement":"02","arrondissement":"024","commune":"02514"},
{"name":"Ormoy-Villers","latitude":"49.19639","longitude":"2.84028","population":"638","region":"32","departement":"60","arrondissement":"604","commune":"60479"},
{"name":"Fresnoy-la-Rivière","latitude":"49.28444","longitude":"2.91611","population":"607","region":"32","departement":"60","arrondissement":"604","commune":"60260"},
{"name":"Gilocourt","latitude":"49.2923","longitude":"2.8788","population":"603","region":"32","departement":"60","arrondissement":"604","commune":"60272"},
{"name":"Haramont","latitude":"49.27836","longitude":"3.06145","population":"603","region":"32","departement":"02","arrondissement":"024","commune":"02368"},
{"name":"Vauciennes","latitude":"49.23565","longitude":"3.03025","population":"601","region":"32","departement":"60","arrondissement":"604","commune":"60658"},
{"name":"Orrouy","latitude":"49.29333","longitude":"2.86028","population":"589","region":"32","departement":"60","arrondissement":"604","commune":"60481"},
{"name":"Thury-en-Valois","latitude":"49.15722","longitude":"3.02444","population":"473","region":"32","departement":"60","arrondissement":"604","commune":"60637"},
{"name":"Duvy","latitude":"49.23611","longitude":"2.855","population":"467","region":"32","departement":"60","arrondissement":"604","commune":"60203"},
{"name":"Cœuvres-et-Valsery","latitude":"49.3389","longitude":"3.1553","population":"461","region":"32","departement":"02","arrondissement":"024","commune":"02201"},
{"name":"Chelles","latitude":"49.35278","longitude":"3.03444","population":"460","region":"32","departement":"60","arrondissement":"603","commune":"60145"},
{"name":"Dampleux","latitude":"49.24333","longitude":"3.15417","population":"433","region":"32","departement":"02","arrondissement":"024","commune":"02259"},
{"name":"Feigneux","latitude":"49.25873","longitude":"2.93065","population":"420","region":"32","departement":"60","arrondissement":"604","commune":"60231"},
{"name":"Vivières","latitude":"49.30028","longitude":"3.10361","population":"393","region":"32","departement":"02","arrondissement":"024","commune":"02822"},
{"name":"Retheuil","latitude":"49.32213","longitude":"3.00987","population":"382","region":"32","departement":"02","arrondissement":"024","commune":"02644"},
{"name":"Coyolles","latitude":"49.23425","longitude":"3.04287","population":"370","region":"32","departement":"02","arrondissement":"024","commune":"02232"},
{"name":"Glaignes","latitude":"49.27222","longitude":"2.85194","population":"367","region":"32","departement":"60","arrondissement":"604","commune":"60274"},
{"name":"Saint-Étienne-Roilaye","latitude":"49.36778","longitude":"3.01972","population":"326","region":"32","departement":"60","arrondissement":"603","commune":"60572"},
{"name":"Vez","latitude":"49.26389","longitude":"3.0025","population":"320","region":"32","departement":"60","arrondissement":"604","commune":"60672"},
{"name":"Cuvergnon","latitude":"49.17389","longitude":"2.98917","population":"315","region":"32","departement":"60","arrondissement":"604","commune":"60190"},
{"name":"Ormoy-le-Davien","latitude":"49.19556","longitude":"2.95889","population":"305","region":"32","departement":"60","arrondissement":"604","commune":"60478"},
{"name":"Séry-Magneval","latitude":"49.25778","longitude":"2.855","population":"301","region":"32","departement":"60","arrondissement":"604","commune":"60618"},
{"name":"Saint-Jean-aux-Bois","latitude":"49.34778","longitude":"2.90417","population":"297","region":"32","departement":"60","arrondissement":"603","commune":"60579"},
{"name":"Rouville","latitude":"49.20778","longitude":"2.8725","population":"295","region":"32","departement":"60","arrondissement":"604","commune":"60552"},
{"name":"Éméville","latitude":"49.28417","longitude":"3.02778","population":"293","region":"32","departement":"60","arrondissement":"604","commune":"60207"},
{"name":"Boursonne","latitude":"49.2025","longitude":"3.04528","population":"283","region":"32","departement":"60","arrondissement":"604","commune":"60094"},
{"name":"Autheuil-en-Valois","latitude":"49.17194","longitude":"3.06083","population":"282","region":"32","departement":"60","arrondissement":"604","commune":"60031"},
{"name":"Taillefontaine","latitude":"49.31217","longitude":"3.04235","population":"276","region":"32","departement":"02","arrondissement":"024","commune":"02734"},
{"name":"Bargny","latitude":"49.17833","longitude":"2.95611","population":"276","region":"32","departement":"60","arrondissement":"604","commune":"60046"},
{"name":"Hautefontaine","latitude":"49.36583","longitude":"3.06139","population":"258","region":"32","departement":"60","arrondissement":"603","commune":"60305"},
{"name":"Béthancourt-en-Valois","latitude":"49.2855","longitude":"2.87704","population":"249","region":"32","departement":"60","arrondissement":"604","commune":"60066"},
{"name":"Ivors","latitude":"49.20139","longitude":"3.01639","population":"242","region":"32","departement":"60","arrondissement":"604","commune":"60320"},
{"name":"Mortefontaine","latitude":"49.3317","longitude":"3.077","population":"241","region":"32","departement":"02","arrondissement":"024","commune":"02528"},
{"name":"Gondreville","latitude":"49.21611","longitude":"2.95472","population":"239","region":"32","departement":"60","arrondissement":"604","commune":"60279"},
{"name":"Largny-sur-Automne","latitude":"49.26027","longitude":"3.04167","population":"236","region":"32","departement":"02","arrondissement":"024","commune":"02410"},
{"name":"Puiseux-en-Retz","latitude":"49.29778","longitude":"3.12889","population":"219","region":"32","departement":"02","arrondissement":"024","commune":"02628"},
{"name":"Montgobert","latitude":"49.30694","longitude":"3.14833","population":"192","region":"32","departement":"02","arrondissement":"024","commune":"02506"},
{"name":"Russy-Bémont","latitude":"49.2433","longitude":"2.96442","population":"183","region":"32","departement":"60","arrondissement":"604","commune":"60561"},
{"name":"La Villeneuve-sous-Thury","latitude":"49.1562","longitude":"3.0626","population":"172","region":"32","departement":"60","arrondissement":"604","commune":"60679"},
{"name":"Oigny-en-Valois","latitude":"49.21944","longitude":"3.13667","population":"146","region":"32","departement":"02","arrondissement":"024","commune":"02568"},
{"name":"Silly-la-Poterie","latitude":"49.19722","longitude":"3.14722","population":"137","region":"32","departement":"02","arrondissement":"021","commune":"02718"},
{"name":"Fleury","latitude":"49.2579","longitude":"3.1571","population":"131","region":"32","departement":"02","arrondissement":"024","commune":"02316"},
{"name":"Rocquemont","latitude":"49.25889","longitude":"2.81833","population":"101","region":"32","departement":"60","arrondissement":"604","commune":"60543"},
{"name":"Soucy","latitude":"49.31278","longitude":"3.12583","population":"87","region":"32","departement":"02","arrondissement":"024","commune":"02729"}
]