[
{"name":"Vic-Fezensac","latitude":"43.75833","longitude":"0.30333","population":"3637","region":"76","departement":"32","arrondissement":"321","commune":"32462"},
{"name":"Plaisance","latitude":"43.60556","longitude":"0.04639","population":"1465","region":"76","departement":"32","arrondissement":"323","commune":"32319"},
{"name":"Manciet","latitude":"43.7994","longitude":"0.0413","population":"804","region":"76","departement":"32","arrondissement":"322","commune":"32227"},
{"name":"Aignan","latitude":"43.69778","longitude":"0.08333","population":"802","region":"76","departement":"32","arrondissement":"323","commune":"32001"},
{"name":"Beaumarchés","latitude":"43.58583","longitude":"0.08972","population":"681","region":"76","departement":"32","arrondissement":"323","commune":"32036"},
{"name":"Lannepax","latitude":"43.80028","longitude":"0.22778","population":"572","region":"76","departement":"32","arrondissement":"322","commune":"32190"},
{"name":"Marambat","latitude":"43.77611","longitude":"0.31444","population":"423","region":"76","departement":"32","arrondissement":"321","commune":"32231"},
{"name":"Dému","latitude":"43.7652","longitude":"0.1673","population":"326","region":"76","departement":"32","arrondissement":"322","commune":"32115"},
{"name":"Castillon-Debats","latitude":"43.7292","longitude":"0.2168","population":"325","region":"76","departement":"32","arrondissement":"321","commune":"32088"},
{"name":"Jû-Belloc","latitude":"43.58278","longitude":"0.005","population":"319","region":"76","departement":"32","arrondissement":"323","commune":"32163"},
{"name":"Lupiac","latitude":"43.68194","longitude":"0.18167","population":"308","region":"76","departement":"32","arrondissement":"323","commune":"32219"},
{"name":"Tasque","latitude":"43.6392","longitude":"0.0197","population":"244","region":"76","departement":"32","arrondissement":"323","commune":"32440"},
{"name":"Riguepeu","latitude":"43.64944","longitude":"0.34333","population":"210","region":"76","departement":"32","arrondissement":"321","commune":"32343"},
{"name":"Couloumé-Mondebat","latitude":"43.64111","longitude":"0.0925","population":"202","region":"76","departement":"32","arrondissement":"323","commune":"32109"},
{"name":"Lasserade","latitude":"43.62472","longitude":"0.06333","population":"199","region":"76","departement":"32","arrondissement":"323","commune":"32199"},
{"name":"Roquebrune","latitude":"43.72056","longitude":"0.3","population":"195","region":"76","departement":"32","arrondissement":"321","commune":"32346"},
{"name":"Margouët-Meymes","latitude":"43.725","longitude":"0.10306","population":"195","region":"76","departement":"32","arrondissement":"323","commune":"32235"},
{"name":"Caillavet","latitude":"43.71222","longitude":"0.33194","population":"192","region":"76","departement":"32","arrondissement":"321","commune":"32071"},
{"name":"Bouzon-Gellenave","latitude":"43.6878","longitude":"0.0305","population":"191","region":"76","departement":"32","arrondissement":"323","commune":"32063"},
{"name":"Galiax","latitude":"43.61556","longitude":"0.01472","population":"177","region":"76","departement":"32","arrondissement":"323","commune":"32136"},
{"name":"Peyrusse-Grande","latitude":"43.632","longitude":"0.215","population":"170","region":"76","departement":"32","arrondissement":"323","commune":"32315"},
{"name":"Avéron-Bergelle","latitude":"43.74472","longitude":"0.06972","population":"158","region":"76","departement":"32","arrondissement":"323","commune":"32022"},
{"name":"Belmont","latitude":"43.6896","longitude":"0.2402","population":"152","region":"76","departement":"32","arrondissement":"321","commune":"32043"},
{"name":"Castelnavet","latitude":"43.67361","longitude":"0.12972","population":"148","region":"76","departement":"32","arrondissement":"323","commune":"32081"},
{"name":"Ramouzens","latitude":"43.8129","longitude":"0.1862","population":"148","region":"76","departement":"32","arrondissement":"322","commune":"32338"},
{"name":"Bascous","latitude":"43.7967","longitude":"0.1466","population":"144","region":"76","departement":"32","arrondissement":"322","commune":"32031"},
{"name":"Pouydraguin","latitude":"43.65861","longitude":"0.0375","population":"143","region":"76","departement":"32","arrondissement":"323","commune":"32325"},
{"name":"Préneron","latitude":"43.72667","longitude":"0.27694","population":"143","region":"76","departement":"32","arrondissement":"321","commune":"32332"},
{"name":"Cazaux-d'Anglès","latitude":"43.65861","longitude":"0.26056","population":"143","region":"76","departement":"32","arrondissement":"321","commune":"32097"},
{"name":"Bezolles","latitude":"43.8228","longitude":"0.3509","population":"140","region":"76","departement":"32","arrondissement":"322","commune":"32052"},
{"name":"Sabazan","latitude":"43.705","longitude":"0.04722","population":"138","region":"76","departement":"32","arrondissement":"323","commune":"32354"},
{"name":"Loubédat","latitude":"43.7463","longitude":"0.0269","population":"130","region":"76","departement":"32","arrondissement":"322","commune":"32214"},
{"name":"Fustérouau","latitude":"43.68667","longitude":"0.00306","population":"129","region":"76","departement":"32","arrondissement":"323","commune":"32135"},
{"name":"Espas","latitude":"43.7814","longitude":"0.0719","population":"115","region":"76","departement":"32","arrondissement":"322","commune":"32125"},
{"name":"Sion","latitude":"43.73944","longitude":"0.00889","population":"114","region":"76","departement":"32","arrondissement":"322","commune":"32434"},
{"name":"Bazian","latitude":"43.66917","longitude":"0.32222","population":"109","region":"76","departement":"32","arrondissement":"321","commune":"32033"},
{"name":"Cravencères","latitude":"43.7661","longitude":"0.0368","population":"104","region":"76","departement":"32","arrondissement":"322","commune":"32113"},
{"name":"Noulens","latitude":"43.80944","longitude":"0.16528","population":"98","region":"76","departement":"32","arrondissement":"322","commune":"32299"},
{"name":"Justian","latitude":"43.8156","longitude":"0.3005","population":"96","region":"76","departement":"32","arrondissement":"322","commune":"32166"},
{"name":"Bétous","latitude":"43.7166","longitude":"0.0269","population":"95","region":"76","departement":"32","arrondissement":"322","commune":"32049"},
{"name":"Castelnau-d'Anglès","latitude":"43.60917","longitude":"0.29556","population":"94","region":"76","departement":"32","arrondissement":"323","commune":"32077"},
{"name":"Gazax-et-Baccarisse","latitude":"43.60806","longitude":"0.19167","population":"87","region":"76","departement":"32","arrondissement":"323","commune":"32144"},
{"name":"Mourède","latitude":"43.8003","longitude":"0.2969","population":"84","region":"76","departement":"32","arrondissement":"322","commune":"32294"},
{"name":"Louslitges","latitude":"43.59528","longitude":"0.16444","population":"80","region":"76","departement":"32","arrondissement":"323","commune":"32217"},
{"name":"Saint-Pierre-d'Aubézies","latitude":"43.6437","longitude":"0.1664","population":"79","region":"76","departement":"32","arrondissement":"323","commune":"32403"},
{"name":"Peyrusse-Vieille","latitude":"43.62944","longitude":"0.18083","population":"68","region":"76","departement":"32","arrondissement":"323","commune":"32317"},
{"name":"Séailles","latitude":"43.74972","longitude":"0.11333","population":"65","region":"76","departement":"32","arrondissement":"322","commune":"32423"},
{"name":"Tudelle","latitude":"43.67917","longitude":"0.28917","population":"64","region":"76","departement":"32","arrondissement":"321","commune":"32456"},
{"name":"Callian","latitude":"43.62889","longitude":"0.2775","population":"53","region":"76","departement":"32","arrondissement":"321","commune":"32072"},
{"name":"Loussous-Débat","latitude":"43.65278","longitude":"0.07361","population":"47","region":"76","departement":"32","arrondissement":"323","commune":"32218"}
]