[
{"name":"Chambéry","latitude":"45.56639","longitude":"5.92083","population":"56476","region":"84","departement":"73","arrondissement":"732","commune":"73065"},
{"name":"La Ravoire","latitude":"45.55694","longitude":"5.96639","population":"7458","region":"84","departement":"73","arrondissement":"732","commune":"73213"},
{"name":"Cognin","latitude":"45.56194","longitude":"5.89722","population":"5943","region":"84","departement":"73","arrondissement":"732","commune":"73087"},
{"name":"Saint-Alban-Leysse","latitude":"45.5805","longitude":"5.9588","population":"5692","region":"84","departement":"73","arrondissement":"732","commune":"73222"},
{"name":"Barberaz","latitude":"45.5634","longitude":"5.9453","population":"4635","region":"84","departement":"73","arrondissement":"732","commune":"73029"},
{"name":"Saint-Laurent-du-Pont","latitude":"45.3875","longitude":"5.73472","population":"4496","region":"84","departement":"38","arrondissement":"381","commune":"38412"},
{"name":"Jacob-Bellecombette","latitude":"45.55556","longitude":"5.91361","population":"4019","region":"84","departement":"73","arrondissement":"732","commune":"73137"},
{"name":"Bassens","latitude":"45.58111","longitude":"5.94083","population":"3709","region":"84","departement":"73","arrondissement":"732","commune":"73031"},
{"name":"Le Pont-de-Beauvoisin","latitude":"45.53444","longitude":"5.66639","population":"3449","region":"84","departement":"38","arrondissement":"382","commune":"38315"},
{"name":"Le Touvet","latitude":"45.3575","longitude":"5.94806","population":"3009","region":"84","departement":"38","arrondissement":"381","commune":"38511"},
{"name":"Saint-Baldoph","latitude":"45.53528","longitude":"5.9525","population":"2951","region":"84","departement":"73","arrondissement":"732","commune":"73225"},
{"name":"Saint-Étienne-de-Crossey","latitude":"45.3789","longitude":"5.6456","population":"2531","region":"84","departement":"38","arrondissement":"381","commune":"38383"},
{"name":"Saint-Geoire-en-Valdaine","latitude":"45.45694","longitude":"5.63528","population":"2374","region":"84","departement":"38","arrondissement":"382","commune":"38386"},
{"name":"Le Pont-de-Beauvoisin","latitude":"45.53694","longitude":"5.67333","population":"2007","region":"84","departement":"73","arrondissement":"732","commune":"73204"},
{"name":"Entre-deux-Guiers","latitude":"45.43222","longitude":"5.75","population":"1742","region":"84","departement":"38","arrondissement":"381","commune":"38155"},
{"name":"Miribel-les-Échelles","latitude":"45.4293","longitude":"5.7086","population":"1741","region":"84","departement":"38","arrondissement":"381","commune":"38236"},
{"name":"Vimines","latitude":"45.54556","longitude":"5.865","population":"1724","region":"84","departement":"73","arrondissement":"732","commune":"73326"},
{"name":"Domessin","latitude":"45.54028","longitude":"5.70917","population":"1664","region":"84","departement":"73","arrondissement":"732","commune":"73100"},
{"name":"Saint-Béron","latitude":"45.50139","longitude":"5.72917","population":"1535","region":"84","departement":"73","arrondissement":"732","commune":"73226"},
{"name":"Saint-Vincent-de-Mercuze","latitude":"45.37417","longitude":"5.94972","population":"1429","region":"84","departement":"38","arrondissement":"381","commune":"38466"},
{"name":"Romagnieu","latitude":"45.57","longitude":"5.64139","population":"1400","region":"84","departement":"38","arrondissement":"382","commune":"38343"},
{"name":"Les Échelles","latitude":"45.43667","longitude":"5.75389","population":"1224","region":"84","departement":"73","arrondissement":"732","commune":"73105"},
{"name":"La Bridoire","latitude":"45.52611","longitude":"5.7425","population":"1188","region":"84","departement":"73","arrondissement":"732","commune":"73058"},
{"name":"Saint-Joseph-de-Rivière","latitude":"45.37583","longitude":"5.69694","population":"1104","region":"84","departement":"38","arrondissement":"381","commune":"38405"},
{"name":"Pressins","latitude":"45.52556","longitude":"5.62722","population":"1088","region":"84","departement":"38","arrondissement":"382","commune":"38323"},
{"name":"Saint-Aupre","latitude":"45.3996","longitude":"5.6708","population":"1057","region":"84","departement":"38","arrondissement":"381","commune":"38362"},
{"name":"Saint-Pierre-de-Chartreuse","latitude":"45.3425","longitude":"5.81556","population":"999","region":"84","departement":"38","arrondissement":"381","commune":"38442"},
{"name":"Apremont","latitude":"45.5112","longitude":"5.9588","population":"955","region":"84","departement":"73","arrondissement":"732","commune":"73017"},
{"name":"Saint-Thibaud-de-Couz","latitude":"45.50111","longitude":"5.84444","population":"920","region":"84","departement":"73","arrondissement":"732","commune":"73282"},
{"name":"Saint-Jean-d'Avelanne","latitude":"45.50694","longitude":"5.67306","population":"863","region":"84","departement":"38","arrondissement":"382","commune":"38398"},
{"name":"Montagnole","latitude":"45.53806","longitude":"5.90861","population":"800","region":"84","departement":"73","arrondissement":"732","commune":"73160"},
{"name":"Saint-Cassin","latitude":"45.53806","longitude":"5.89417","population":"767","region":"84","departement":"73","arrondissement":"732","commune":"73228"},
{"name":"Saint-Christophe-sur-Guiers","latitude":"45.43861","longitude":"5.77389","population":"764","region":"84","departement":"38","arrondissement":"381","commune":"38376"},
{"name":"Saint-Sulpice","latitude":"45.5679","longitude":"5.8454","population":"726","region":"84","departement":"73","arrondissement":"732","commune":"73281"},
{"name":"Saint-Bueil","latitude":"45.477","longitude":"5.6906","population":"701","region":"84","departement":"38","arrondissement":"382","commune":"38372"},
{"name":"Saint-Alban-de-Montbel","latitude":"45.55167","longitude":"5.78333","population":"605","region":"84","departement":"73","arrondissement":"732","commune":"73219"},
{"name":"Entremont-le-Vieux","latitude":"45.4518","longitude":"5.885","population":"576","region":"84","departement":"73","arrondissement":"732","commune":"73107"},
{"name":"Saint-Pierre-d'Entremont","latitude":"45.4149","longitude":"5.8544","population":"565","region":"84","departement":"38","arrondissement":"381","commune":"38446"},
{"name":"Sainte-Marie-d'Alloix","latitude":"45.37917","longitude":"5.96639","population":"555","region":"84","departement":"38","arrondissement":"381","commune":"38417"},
{"name":"Attignat-Oncin","latitude":"45.50833","longitude":"5.77583","population":"551","region":"84","departement":"73","arrondissement":"732","commune":"73022"},
{"name":"Belmont-Tramonet","latitude":"45.55944","longitude":"5.67944","population":"540","region":"84","departement":"73","arrondissement":"732","commune":"73039"},
{"name":"Saint-Christophe","latitude":"45.4509","longitude":"5.7761","population":"506","region":"84","departement":"73","arrondissement":"732","commune":"73229"},
{"name":"Velanne","latitude":"45.48833","longitude":"5.64833","population":"491","region":"84","departement":"38","arrondissement":"382","commune":"38531"},
{"name":"Merlas","latitude":"45.44472","longitude":"5.66278","population":"487","region":"84","departement":"38","arrondissement":"382","commune":"38228"},
{"name":"Avressieux","latitude":"45.57222","longitude":"5.69472","population":"464","region":"84","departement":"73","arrondissement":"732","commune":"73025"},
{"name":"La Flachère","latitude":"45.39861","longitude":"5.96306","population":"439","region":"84","departement":"38","arrondissement":"381","commune":"38166"},
{"name":"Saint-Julien-de-Raz","latitude":"45.3501","longitude":"5.6618","population":"431","region":"84","departement":"38","arrondissement":"381","commune":"38407"},
{"name":"Saint-Pierre-d'Entremont","latitude":"45.41722","longitude":"5.85417","population":"426","region":"84","departement":"73","arrondissement":"732","commune":"73274"},
{"name":"Lépin-le-Lac","latitude":"45.53528","longitude":"5.79444","population":"407","region":"84","departement":"73","arrondissement":"732","commune":"73145"},
{"name":"Dullin","latitude":"45.55389","longitude":"5.74472","population":"397","region":"84","departement":"73","arrondissement":"732","commune":"73104"},
{"name":"La Bauche","latitude":"45.4825","longitude":"5.765","population":"362","region":"84","departement":"73","arrondissement":"732","commune":"73033"},
{"name":"Saint-Albin-de-Vaulserre","latitude":"45.50472","longitude":"5.7025","population":"361","region":"84","departement":"38","arrondissement":"382","commune":"38354"},
{"name":"Ayn","latitude":"45.5725","longitude":"5.75083","population":"348","region":"84","departement":"73","arrondissement":"732","commune":"73027"},
{"name":"Saint-Pierre-de-Genebroz","latitude":"45.45278","longitude":"5.75389","population":"333","region":"84","departement":"73","arrondissement":"732","commune":"73275"},
{"name":"Verel-de-Montbel","latitude":"45.55917","longitude":"5.73028","population":"288","region":"84","departement":"73","arrondissement":"732","commune":"73309"},
{"name":"Saint-Jean-de-Couz","latitude":"45.46722","longitude":"5.81833","population":"249","region":"84","departement":"73","arrondissement":"732","commune":"73246"},
{"name":"Saint-Martin-de-Vaulserre","latitude":"45.4941","longitude":"5.6834","population":"245","region":"84","departement":"38","arrondissement":"382","commune":"38420"},
{"name":"Sainte-Marie-du-Mont","latitude":"45.40611","longitude":"5.94556","population":"238","region":"84","departement":"38","arrondissement":"381","commune":"38418"},
{"name":"Aiguebelette-le-Lac","latitude":"45.53778","longitude":"5.815","population":"229","region":"84","departement":"73","arrondissement":"732","commune":"73001"},
{"name":"Voissant","latitude":"45.48361","longitude":"5.71","population":"208","region":"84","departement":"38","arrondissement":"382","commune":"38564"},
{"name":"Rochefort","latitude":"45.58222","longitude":"5.72222","population":"206","region":"84","departement":"73","arrondissement":"732","commune":"73214"},
{"name":"Saint-Franc","latitude":"45.49139","longitude":"5.74611","population":"154","region":"84","departement":"73","arrondissement":"732","commune":"73233"},
{"name":"Corbel","latitude":"45.42944","longitude":"5.82528","population":"135","region":"84","departement":"73","arrondissement":"732","commune":"73092"}
]