[
{"name":"Beauvais","latitude":"49.43417","longitude":"2.0875","population":"54461","region":"32","departement":"60","arrondissement":"601","commune":"60057"},
{"name":"Crèvecœur-le-Grand","latitude":"49.60833","longitude":"2.07806","population":"3337","region":"32","departement":"60","arrondissement":"601","commune":"60178"},
{"name":"Saint-Germer-de-Fly","latitude":"49.44306","longitude":"1.78139","population":"1758","region":"32","departement":"60","arrondissement":"601","commune":"60577"},
{"name":"Milly-sur-Thérain","latitude":"49.5025","longitude":"1.99528","population":"1709","region":"32","departement":"60","arrondissement":"601","commune":"60403"},
{"name":"Lachapelle-aux-Pots","latitude":"49.4487","longitude":"1.9034","population":"1621","region":"32","departement":"60","arrondissement":"601","commune":"60333"},
{"name":"Saint-Paul","latitude":"49.42917","longitude":"2.00694","population":"1609","region":"32","departement":"60","arrondissement":"601","commune":"60591"},
{"name":"Saint-Omer-en-Chaussée","latitude":"49.53194","longitude":"2.00222","population":"1324","region":"32","departement":"60","arrondissement":"601","commune":"60590"},
{"name":"Ons-en-Bray","latitude":"49.41417","longitude":"1.91972","population":"1284","region":"32","departement":"60","arrondissement":"601","commune":"60477"},
{"name":"Goincourt","latitude":"49.42639","longitude":"2.03611","population":"1267","region":"32","departement":"60","arrondissement":"601","commune":"60277"},
{"name":"Marseille-en-Beauvaisis","latitude":"49.57556","longitude":"1.95556","population":"1168","region":"32","departement":"60","arrondissement":"601","commune":"60387"},
{"name":"Troissereux","latitude":"49.48","longitude":"2.04278","population":"1152","region":"32","departement":"60","arrondissement":"601","commune":"60646"},
{"name":"Songeons","latitude":"49.54917","longitude":"1.85306","population":"1113","region":"32","departement":"60","arrondissement":"601","commune":"60623"},
{"name":"Saint-Martin-le-Nœud","latitude":"49.3965","longitude":"2.0609","population":"1065","region":"32","departement":"60","arrondissement":"601","commune":"60586"},
{"name":"Saint-Aubin-en-Bray","latitude":"49.4199","longitude":"1.8791","population":"1020","region":"32","departement":"60","arrondissement":"601","commune":"60567"},
{"name":"Cuigy-en-Bray","latitude":"49.42611","longitude":"1.82611","population":"1012","region":"32","departement":"60","arrondissement":"601","commune":"60187"},
{"name":"Rainvillers","latitude":"49.4064","longitude":"2.0087","population":"873","region":"32","departement":"60","arrondissement":"601","commune":"60523"},
{"name":"Le Coudray-Saint-Germer","latitude":"49.41194","longitude":"1.83694","population":"869","region":"32","departement":"60","arrondissement":"601","commune":"60164"},
{"name":"Verderel-lès-Sauqueuse","latitude":"49.5036","longitude":"2.0978","population":"750","region":"32","departement":"60","arrondissement":"601","commune":"60668"},
{"name":"Aux Marais","latitude":"49.4145","longitude":"2.0429","population":"738","region":"32","departement":"60","arrondissement":"601","commune":"60703"},
{"name":"Savignies","latitude":"49.465","longitude":"1.96444","population":"733","region":"32","departement":"60","arrondissement":"601","commune":"60609"},
{"name":"Lalande-en-Son","latitude":"49.39111","longitude":"1.78167","population":"681","region":"32","departement":"60","arrondissement":"601","commune":"60343"},
{"name":"Senantes","latitude":"49.4856","longitude":"1.8359","population":"670","region":"32","departement":"60","arrondissement":"601","commune":"60611"},
{"name":"Herchies","latitude":"49.4883","longitude":"2.0123","population":"608","region":"32","departement":"60","arrondissement":"601","commune":"60310"},
{"name":"Hanvoile","latitude":"49.51167","longitude":"1.87972","population":"600","region":"32","departement":"60","arrondissement":"601","commune":"60298"},
{"name":"Frocourt","latitude":"49.38333","longitude":"2.08333","population":"573","region":"32","departement":"60","arrondissement":"601","commune":"60264"},
{"name":"Le Mont-Saint-Adrien","latitude":"49.44639","longitude":"2.00444","population":"570","region":"32","departement":"60","arrondissement":"601","commune":"60428"},
{"name":"Blacourt","latitude":"49.4625","longitude":"1.85806","population":"511","region":"32","departement":"60","arrondissement":"601","commune":"60073"},
{"name":"Villers-Saint-Barthélemy","latitude":"49.39806","longitude":"1.94778","population":"465","region":"32","departement":"60","arrondissement":"601","commune":"60681"},
{"name":"Hodenc-en-Bray","latitude":"49.4676","longitude":"1.8989","population":"449","region":"32","departement":"60","arrondissement":"601","commune":"60315"},
{"name":"Morvillers","latitude":"49.58111","longitude":"1.87056","population":"447","region":"32","departement":"60","arrondissement":"601","commune":"60435"},
{"name":"Fouquenies","latitude":"49.46583","longitude":"2.04","population":"447","region":"32","departement":"60","arrondissement":"601","commune":"60250"},
{"name":"Crillon","latitude":"49.52028","longitude":"1.92972","population":"438","region":"32","departement":"60","arrondissement":"601","commune":"60180"},
{"name":"Lalandelle","latitude":"49.39778","longitude":"1.87611","population":"438","region":"32","departement":"60","arrondissement":"601","commune":"60344"},
{"name":"Espaubourg","latitude":"49.4217","longitude":"1.8674","population":"433","region":"32","departement":"60","arrondissement":"601","commune":"60220"},
{"name":"Fontaine-Lavaganne","latitude":"49.59833","longitude":"1.95472","population":"432","region":"32","departement":"60","arrondissement":"601","commune":"60242"},
{"name":"Saint-Germain-la-Poterie","latitude":"49.44556","longitude":"1.9825","population":"425","region":"32","departement":"60","arrondissement":"601","commune":"60576"},
{"name":"Pisseleu","latitude":"49.5387","longitude":"2.0609","population":"418","region":"32","departement":"60","arrondissement":"601","commune":"60493"},
{"name":"Puiseux-en-Bray","latitude":"49.41528","longitude":"1.78333","population":"405","region":"32","departement":"60","arrondissement":"601","commune":"60516"},
{"name":"Pierrefitte-en-Beauvaisis","latitude":"49.47528","longitude":"1.98083","population":"379","region":"32","departement":"60","arrondissement":"601","commune":"60490"},
{"name":"Lihus","latitude":"49.60528","longitude":"2.04389","population":"374","region":"32","departement":"60","arrondissement":"601","commune":"60365"},
{"name":"Grémévillers","latitude":"49.56417","longitude":"1.89611","population":"369","region":"32","departement":"60","arrondissement":"601","commune":"60288"},
{"name":"Saint-Léger-en-Bray","latitude":"49.39083","longitude":"2.02667","population":"355","region":"32","departement":"60","arrondissement":"601","commune":"60583"},
{"name":"Villers-sur-Auchy","latitude":"49.4865","longitude":"1.7954","population":"345","region":"32","departement":"60","arrondissement":"601","commune":"60687"},
{"name":"Roy-Boissy","latitude":"49.58306","longitude":"1.92278","population":"338","region":"32","departement":"60","arrondissement":"601","commune":"60557"},
{"name":"Achy","latitude":"49.55639","longitude":"1.97917","population":"334","region":"32","departement":"60","arrondissement":"601","commune":"60004"},
{"name":"La Neuville-sur-Oudeuil","latitude":"49.57333","longitude":"2.00694","population":"327","region":"32","departement":"60","arrondissement":"601","commune":"60458"},
{"name":"Blicourt","latitude":"49.55667","longitude":"2.05694","population":"314","region":"32","departement":"60","arrondissement":"601","commune":"60077"},
{"name":"Haute-Épine","latitude":"49.58389","longitude":"2.01056","population":"294","region":"32","departement":"60","arrondissement":"601","commune":"60304"},
{"name":"Juvignies","latitude":"49.51917","longitude":"2.08639","population":"288","region":"32","departement":"60","arrondissement":"601","commune":"60328"},
{"name":"Oudeuil","latitude":"49.54806","longitude":"2.0275","population":"250","region":"32","departement":"60","arrondissement":"601","commune":"60484"},
{"name":"Villembray","latitude":"49.47639","longitude":"1.86889","population":"247","region":"32","departement":"60","arrondissement":"601","commune":"60677"},
{"name":"Escames","latitude":"49.55333","longitude":"1.80056","population":"202","region":"32","departement":"60","arrondissement":"601","commune":"60217"},
{"name":"Rotangy","latitude":"49.5825","longitude":"2.08278","population":"199","region":"32","departement":"60","arrondissement":"601","commune":"60549"},
{"name":"Rothois","latitude":"49.59833","longitude":"1.99472","population":"199","region":"32","departement":"60","arrondissement":"601","commune":"60550"},
{"name":"Ernemont-Boutavent","latitude":"49.58917","longitude":"1.80806","population":"191","region":"32","departement":"60","arrondissement":"601","commune":"60214"},
{"name":"Glatigny","latitude":"49.4975","longitude":"1.89444","population":"191","region":"32","departement":"60","arrondissement":"601","commune":"60275"},
{"name":"Troussures","latitude":"49.3893","longitude":"1.9736","population":"189","region":"32","departement":"60","arrondissement":"601","commune":"60649"},
{"name":"Thérines","latitude":"49.60278","longitude":"1.89333","population":"188","region":"32","departement":"60","arrondissement":"601","commune":"60629"},
{"name":"La Neuville-Vault","latitude":"49.48639","longitude":"1.95139","population":"176","region":"32","departement":"60","arrondissement":"601","commune":"60460"},
{"name":"Lhéraule","latitude":"49.48722","longitude":"1.93083","population":"174","region":"32","departement":"60","arrondissement":"601","commune":"60359"},
{"name":"Prévillers","latitude":"49.6107","longitude":"1.997","population":"168","region":"32","departement":"60","arrondissement":"601","commune":"60514"},
{"name":"Lachapelle-sous-Gerberoy","latitude":"49.535","longitude":"1.86889","population":"168","region":"32","departement":"60","arrondissement":"601","commune":"60335"},
{"name":"Villers-sur-Bonnières","latitude":"49.53833","longitude":"1.96556","population":"165","region":"32","departement":"60","arrondissement":"601","commune":"60688"},
{"name":"Bonnières","latitude":"49.50833","longitude":"1.96694","population":"159","region":"32","departement":"60","arrondissement":"601","commune":"60084"},
{"name":"Omécourt","latitude":"49.61028","longitude":"1.8475","population":"158","region":"32","departement":"60","arrondissement":"601","commune":"60476"},
{"name":"Sully","latitude":"49.55917","longitude":"1.78111","population":"154","region":"32","departement":"60","arrondissement":"601","commune":"60624"},
{"name":"Wambez","latitude":"49.52639","longitude":"1.85111","population":"153","region":"32","departement":"60","arrondissement":"601","commune":"60699"},
{"name":"Hécourt","latitude":"49.52028","longitude":"1.76","population":"151","region":"32","departement":"60","arrondissement":"601","commune":"60306"},
{"name":"Loueuse","latitude":"49.59889","longitude":"1.82528","population":"150","region":"32","departement":"60","arrondissement":"601","commune":"60371"},
{"name":"Martincourt","latitude":"49.52306","longitude":"1.8975","population":"149","region":"32","departement":"60","arrondissement":"601","commune":"60388"},
{"name":"Haucourt","latitude":"49.51278","longitude":"1.93806","population":"147","region":"32","departement":"60","arrondissement":"601","commune":"60301"},
{"name":"Buicourt","latitude":"49.54","longitude":"1.81917","population":"140","region":"32","departement":"60","arrondissement":"601","commune":"60114"},
{"name":"Hannaches","latitude":"49.49806","longitude":"1.80722","population":"133","region":"32","departement":"60","arrondissement":"601","commune":"60296"},
{"name":"Fontenay-Torcy","latitude":"49.56806","longitude":"1.76972","population":"129","region":"32","departement":"60","arrondissement":"601","commune":"60244"},
{"name":"Héricourt-sur-Thérain","latitude":"49.58222","longitude":"1.76056","population":"110","region":"32","departement":"60","arrondissement":"601","commune":"60312"},
{"name":"Saint-Deniscourt","latitude":"49.60556","longitude":"1.87028","population":"96","region":"32","departement":"60","arrondissement":"601","commune":"60571"},
{"name":"Gerberoy","latitude":"49.53333","longitude":"1.85","population":"90","region":"32","departement":"60","arrondissement":"601","commune":"60271"},
{"name":"Vrocourt","latitude":"49.52889","longitude":"1.88639","population":"39","region":"32","departement":"60","arrondissement":"601","commune":"60697"}
]