[
{"name":"Saint-Éloy-les-Mines","latitude":"46.161","longitude":"2.834","population":"3703","region":"84","departement":"63","arrondissement":"634","commune":"63338"},
{"name":"Ébreuil","latitude":"46.11556","longitude":"3.08667","population":"1261","region":"84","departement":"03","arrondissement":"031","commune":"03107"},
{"name":"Chantelle","latitude":"46.23806","longitude":"3.15306","population":"1062","region":"84","departement":"03","arrondissement":"032","commune":"03053"},
{"name":"Bellenaves","latitude":"46.20056","longitude":"3.08","population":"1024","region":"84","departement":"03","arrondissement":"031","commune":"03022"},
{"name":"Saint-Bonnet-de-Rochefort","latitude":"46.14639","longitude":"3.13833","population":"643","region":"84","departement":"03","arrondissement":"033","commune":"03220"},
{"name":"Menat","latitude":"46.10389","longitude":"2.90444","population":"593","region":"84","departement":"63","arrondissement":"634","commune":"63223"},
{"name":"Lapeyrouse","latitude":"46.22417","longitude":"2.87222","population":"561","region":"84","departement":"63","arrondissement":"634","commune":"63187"},
{"name":"Servant","latitude":"46.13889","longitude":"2.92917","population":"535","region":"84","departement":"63","arrondissement":"634","commune":"63419"},
{"name":"Échassières","latitude":"46.18444","longitude":"2.93444","population":"402","region":"84","departement":"03","arrondissement":"031","commune":"03108"},
{"name":"Charroux","latitude":"46.1853","longitude":"3.1616","population":"385","region":"84","departement":"03","arrondissement":"032","commune":"03062"},
{"name":"Lalizolle","latitude":"46.15694","longitude":"3.00167","population":"374","region":"84","departement":"03","arrondissement":"031","commune":"03135"},
{"name":"Saint-Quintin-sur-Sioule","latitude":"46.1","longitude":"3.07028","population":"329","region":"84","departement":"63","arrondissement":"634","commune":"63390"},
{"name":"Vicq","latitude":"46.1466","longitude":"3.0932","population":"326","region":"84","departement":"03","arrondissement":"031","commune":"03311"},
{"name":"Hyds","latitude":"46.28472","longitude":"2.82972","population":"313","region":"84","departement":"03","arrondissement":"031","commune":"03129"},
{"name":"Moureuille","latitude":"46.16694","longitude":"2.90667","population":"303","region":"84","departement":"63","arrondissement":"634","commune":"63243"},
{"name":"Teilhet","latitude":"46.09639","longitude":"2.82167","population":"297","region":"84","departement":"63","arrondissement":"634","commune":"63428"},
{"name":"Beaune-d'Allier","latitude":"46.2807","longitude":"2.8853","population":"292","region":"84","departement":"03","arrondissement":"031","commune":"03020"},
{"name":"Neuf-Église","latitude":"46.09639","longitude":"2.88972","population":"289","region":"84","departement":"63","arrondissement":"634","commune":"63251"},
{"name":"Louroux-de-Bouble","latitude":"46.22583","longitude":"2.97778","population":"286","region":"84","departement":"03","arrondissement":"031","commune":"03152"},
{"name":"Pouzol","latitude":"46.0908","longitude":"2.9699","population":"275","region":"84","departement":"63","arrondissement":"634","commune":"63286"},
{"name":"Monestier","latitude":"46.25556","longitude":"3.11333","population":"266","region":"84","departement":"03","arrondissement":"032","commune":"03175"},
{"name":"Target","latitude":"46.2897","longitude":"3.0617","population":"264","region":"84","departement":"03","arrondissement":"032","commune":"03277"},
{"name":"Buxières-sous-Montaigut","latitude":"46.20306","longitude":"2.84778","population":"244","region":"84","departement":"63","arrondissement":"634","commune":"63062"},
{"name":"Chouvigny","latitude":"46.12611","longitude":"2.99083","population":"238","region":"84","departement":"03","arrondissement":"031","commune":"03078"},
{"name":"Bègues","latitude":"46.1275","longitude":"3.15583","population":"230","region":"84","departement":"03","arrondissement":"033","commune":"03021"},
{"name":"Taxat-Senat","latitude":"46.20083","longitude":"3.13806","population":"226","region":"84","departement":"03","arrondissement":"032","commune":"03278"},
{"name":"Marcillat","latitude":"46.07944","longitude":"3.03694","population":"221","region":"84","departement":"63","arrondissement":"634","commune":"63208"},
{"name":"Saint-Rémy-de-Blot","latitude":"46.07722","longitude":"2.93056","population":"217","region":"84","departement":"63","arrondissement":"634","commune":"63391"},
{"name":"Blomard","latitude":"46.28944","longitude":"2.97722","population":"203","region":"84","departement":"03","arrondissement":"031","commune":"03032"},
{"name":"Durmignat","latitude":"46.18639","longitude":"2.88917","population":"201","region":"84","departement":"63","arrondissement":"634","commune":"63140"},
{"name":"Saint-Bonnet-de-Four","latitude":"46.31278","longitude":"2.91056","population":"194","region":"84","departement":"03","arrondissement":"031","commune":"03219"},
{"name":"Louroux-de-Beaune","latitude":"46.29278","longitude":"2.85472","population":"183","region":"84","departement":"03","arrondissement":"031","commune":"03151"},
{"name":"Vernusse","latitude":"46.269","longitude":"2.978","population":"166","region":"84","departement":"03","arrondissement":"031","commune":"03308"},
{"name":"Chezelle","latitude":"46.21806","longitude":"3.12333","population":"162","region":"84","departement":"03","arrondissement":"032","commune":"03075"},
{"name":"Chirat-l'Église","latitude":"46.24306","longitude":"3.03444","population":"135","region":"84","departement":"03","arrondissement":"031","commune":"03077"},
{"name":"Coutansouze","latitude":"46.21833","longitude":"3.01056","population":"131","region":"84","departement":"03","arrondissement":"031","commune":"03089"},
{"name":"Saint-Gal-sur-Sioule","latitude":"46.11083","longitude":"3.00972","population":"129","region":"84","departement":"63","arrondissement":"634","commune":"63344"},
{"name":"Nades","latitude":"46.15917","longitude":"2.96806","population":"120","region":"84","departement":"03","arrondissement":"031","commune":"03192"},
{"name":"Naves","latitude":"46.1754","longitude":"3.1103","population":"119","region":"84","departement":"03","arrondissement":"031","commune":"03194"},
{"name":"Sussat","latitude":"46.1525","longitude":"3.06361","population":"100","region":"84","departement":"03","arrondissement":"031","commune":"03276"},
{"name":"Deneuille-lès-Chantelle","latitude":"46.2456","longitude":"3.1472","population":"95","region":"84","departement":"03","arrondissement":"032","commune":"03096"},
{"name":"Valignat","latitude":"46.17667","longitude":"3.07528","population":"72","region":"84","departement":"03","arrondissement":"031","commune":"03295"},
{"name":"Veauce","latitude":"46.16528","longitude":"3.05667","population":"41","region":"84","departement":"03","arrondissement":"031","commune":"03302"}
]