[
{"name":"Rambouillet","latitude":"48.64361","longitude":"1.83","population":"26065","region":"11","departement":"78","arrondissement":"782","commune":"78517"},
{"name":"Dourdan","latitude":"48.52889","longitude":"2.01083","population":"9805","region":"11","departement":"91","arrondissement":"911","commune":"91200"},
{"name":"Limours","latitude":"48.64556","longitude":"2.07611","population":"6456","region":"11","departement":"91","arrondissement":"913","commune":"91338"},
{"name":"Saint-Arnoult-en-Yvelines","latitude":"48.57167","longitude":"1.94056","population":"6127","region":"11","departement":"78","arrondissement":"782","commune":"78537"},
{"name":"Auneau-Bleury-Saint-Symphorien","latitude":"48.4623","longitude":"1.7738","population":"4094","region":"24","departement":"28","arrondissement":"281","commune":"28015"},
{"name":"Forges-les-Bains","latitude":"48.6279","longitude":"2.0996","population":"3711","region":"11","departement":"91","arrondissement":"913","commune":"91249"},
{"name":"Ablis","latitude":"48.51667","longitude":"1.83556","population":"3247","region":"11","departement":"78","arrondissement":"782","commune":"78003"},
{"name":"Bullion","latitude":"48.62194","longitude":"1.99583","population":"1952","region":"11","departement":"78","arrondissement":"782","commune":"78120"},
{"name":"Les Molières","latitude":"48.67222","longitude":"2.06889","population":"1950","region":"11","departement":"91","arrondissement":"913","commune":"91411"},
{"name":"Bonnelles","latitude":"48.61861","longitude":"2.02778","population":"1949","region":"11","departement":"78","arrondissement":"782","commune":"78087"},
{"name":"Corbreuse","latitude":"48.49889","longitude":"1.96111","population":"1697","region":"11","departement":"91","arrondissement":"911","commune":"91175"},
{"name":"Sermaise","latitude":"48.53611","longitude":"2.08056","population":"1663","region":"11","departement":"91","arrondissement":"911","commune":"91593"},
{"name":"Cernay-la-Ville","latitude":"48.67333","longitude":"1.97472","population":"1647","region":"11","departement":"78","arrondissement":"782","commune":"78128"},
{"name":"Angervilliers","latitude":"48.59278","longitude":"2.06528","population":"1638","region":"11","departement":"91","arrondissement":"911","commune":"91017"},
{"name":"Sonchamp","latitude":"48.57583","longitude":"1.87778","population":"1577","region":"11","departement":"78","arrondissement":"782","commune":"78601"},
{"name":"Le Val-Saint-Germain","latitude":"48.565","longitude":"2.06389","population":"1471","region":"11","departement":"91","arrondissement":"911","commune":"91630"},
{"name":"Roinville","latitude":"48.53139","longitude":"2.04528","population":"1216","region":"11","departement":"91","arrondissement":"911","commune":"91525"},
{"name":"Gazeran","latitude":"48.63389","longitude":"1.77361","population":"1212","region":"11","departement":"78","arrondissement":"782","commune":"78269"},
{"name":"Les Granges-le-Roi","latitude":"48.50167","longitude":"2.01917","population":"1026","region":"11","departement":"91","arrondissement":"911","commune":"91284"},
{"name":"Saint-Cyr-sous-Dourdan","latitude":"48.56861","longitude":"2.03611","population":"1007","region":"11","departement":"91","arrondissement":"911","commune":"91546"},
{"name":"Rochefort-en-Yvelines","latitude":"48.58583","longitude":"1.98778","population":"950","region":"11","departement":"78","arrondissement":"782","commune":"78522"},
{"name":"La Celle-les-Bordes","latitude":"48.63694","longitude":"1.95417","population":"935","region":"11","departement":"78","arrondissement":"782","commune":"78125"},
{"name":"Orphin","latitude":"48.57861","longitude":"1.78111","population":"916","region":"11","departement":"78","arrondissement":"782","commune":"78470"},
{"name":"Sainte-Mesme","latitude":"48.53056","longitude":"1.95889","population":"907","region":"11","departement":"78","arrondissement":"782","commune":"78569"},
{"name":"Orcemont","latitude":"48.58806","longitude":"1.81056","population":"851","region":"11","departement":"78","arrondissement":"782","commune":"78464"},
{"name":"Vieille-Église-en-Yvelines","latitude":"48.66944","longitude":"1.87583","population":"820","region":"11","departement":"78","arrondissement":"782","commune":"78655"},
{"name":"Prunay-en-Yvelines","latitude":"48.528","longitude":"1.7963","population":"810","region":"11","departement":"78","arrondissement":"782","commune":"78506"},
{"name":"Clairefontaine-en-Yvelines","latitude":"48.6126","longitude":"1.9088","population":"773","region":"11","departement":"78","arrondissement":"782","commune":"78164"},
{"name":"Boissy-le-Sec","latitude":"48.4776","longitude":"2.0906","population":"659","region":"11","departement":"91","arrondissement":"911","commune":"91081"},
{"name":"Boullay-les-Troux","latitude":"48.67861","longitude":"2.04833","population":"657","region":"11","departement":"91","arrondissement":"913","commune":"91093"},
{"name":"Saint-Martin-de-Bréthencourt","latitude":"48.50944","longitude":"1.9275","population":"623","region":"11","departement":"78","arrondissement":"782","commune":"78564"},
{"name":"Pecqueuse","latitude":"48.64639","longitude":"2.04861","population":"613","region":"11","departement":"91","arrondissement":"913","commune":"91482"},
{"name":"Ponthévrard","latitude":"48.55139","longitude":"1.91","population":"601","region":"11","departement":"78","arrondissement":"782","commune":"78499"},
{"name":"Boinville-le-Gaillard","latitude":"48.49306","longitude":"1.87167","population":"600","region":"11","departement":"78","arrondissement":"782","commune":"78071"},
{"name":"Senlisse","latitude":"48.68694","longitude":"1.98167","population":"540","region":"11","departement":"78","arrondissement":"782","commune":"78590"},
{"name":"Choisel","latitude":"48.68639","longitude":"2.01778","population":"524","region":"11","departement":"78","arrondissement":"782","commune":"78162"},
{"name":"Longvilliers","latitude":"48.57889","longitude":"1.99222","population":"514","region":"11","departement":"78","arrondissement":"782","commune":"78349"},
{"name":"La Forêt-le-Roi","latitude":"48.47861","longitude":"2.04194","population":"477","region":"11","departement":"91","arrondissement":"911","commune":"91247"},
{"name":"Richarville","latitude":"48.47167","longitude":"2.00083","population":"418","region":"11","departement":"91","arrondissement":"911","commune":"91519"},
{"name":"Orsonville","latitude":"48.47778","longitude":"1.83528","population":"332","region":"11","departement":"78","arrondissement":"782","commune":"78472"},
{"name":"Paray-Douaville","latitude":"48.46361","longitude":"1.8775","population":"238","region":"11","departement":"78","arrondissement":"782","commune":"78478"},
{"name":"Chatignonville","latitude":"48.4675","longitude":"1.93167","population":"59","region":"11","departement":"91","arrondissement":"911","commune":"91145"}
]