[
{"name":"Ambert","latitude":"45.54944","longitude":"3.74167","population":"6962","region":"84","departement":"63","arrondissement":"631","commune":"63003"},
{"name":"Arlanc","latitude":"45.41306","longitude":"3.72444","population":"1929","region":"84","departement":"63","arrondissement":"631","commune":"63010"},
{"name":"Marsac-en-Livradois","latitude":"45.47889","longitude":"3.72778","population":"1446","region":"84","departement":"63","arrondissement":"631","commune":"63211"},
{"name":"Dore-l'Église","latitude":"45.38333","longitude":"3.75","population":"634","region":"84","departement":"63","arrondissement":"631","commune":"63139"},
{"name":"Saint-Ferréol-des-Côtes","latitude":"45.52861","longitude":"3.7075","population":"547","region":"84","departement":"63","arrondissement":"631","commune":"63341"},
{"name":"Saint-Amant-Roche-Savine","latitude":"45.57556","longitude":"3.63222","population":"539","region":"84","departement":"63","arrondissement":"631","commune":"63314"},
{"name":"Saint-Germain-l'Herm","latitude":"45.45861","longitude":"3.54139","population":"508","region":"84","departement":"63","arrondissement":"631","commune":"63353"},
{"name":"Fournols","latitude":"45.51722","longitude":"3.58833","population":"365","region":"84","departement":"63","arrondissement":"631","commune":"63162"},
{"name":"Beurières","latitude":"45.4392","longitude":"3.7754","population":"304","region":"84","departement":"63","arrondissement":"631","commune":"63039"},
{"name":"Saint-Martin-des-Olmes","latitude":"45.53028","longitude":"3.79778","population":"273","region":"84","departement":"63","arrondissement":"631","commune":"63374"},
{"name":"Champétières","latitude":"45.51944","longitude":"3.69417","population":"253","region":"84","departement":"63","arrondissement":"631","commune":"63081"},
{"name":"Saint-Bonnet-le-Chastel","latitude":"45.45","longitude":"3.63333","population":"236","region":"84","departement":"63","arrondissement":"631","commune":"63324"},
{"name":"Échandelys","latitude":"45.54361","longitude":"3.53","population":"232","region":"84","departement":"63","arrondissement":"631","commune":"63142"},
{"name":"Chaumont-le-Bourg","latitude":"45.45","longitude":"3.7718","population":"216","region":"84","departement":"63","arrondissement":"631","commune":"63105"},
{"name":"Le Monestier","latitude":"45.56306","longitude":"3.66194","population":"190","region":"84","departement":"63","arrondissement":"631","commune":"63230"},
{"name":"Saint-Jean-d'Aubrigoux","latitude":"45.3609","longitude":"3.8141","population":"183","region":"84","departement":"43","arrondissement":"432","commune":"43196"},
{"name":"Mayres","latitude":"45.38833","longitude":"3.695","population":"182","region":"84","departement":"63","arrondissement":"631","commune":"63218"},
{"name":"Saint-Alyre-d'Arlanc","latitude":"45.36806","longitude":"3.63861","population":"174","region":"84","departement":"63","arrondissement":"631","commune":"63312"},
{"name":"Chambon-sur-Dolore","latitude":"45.49694","longitude":"3.61278","population":"172","region":"84","departement":"63","arrondissement":"631","commune":"63076"},
{"name":"Grandrif","latitude":"45.505","longitude":"3.81722","population":"168","region":"84","departement":"63","arrondissement":"631","commune":"63173"},
{"name":"Saint-Just","latitude":"45.46833","longitude":"3.78833","population":"162","region":"84","departement":"63","arrondissement":"631","commune":"63371"},
{"name":"Novacelles","latitude":"45.4375","longitude":"3.65","population":"151","region":"84","departement":"63","arrondissement":"631","commune":"63256"},
{"name":"Doranges","latitude":"45.40694","longitude":"3.61583","population":"149","region":"84","departement":"63","arrondissement":"631","commune":"63137"},
{"name":"Saint-Bonnet-le-Bourg","latitude":"45.43444","longitude":"3.60833","population":"149","region":"84","departement":"63","arrondissement":"631","commune":"63323"},
{"name":"La Chapelle-Geneste","latitude":"45.35","longitude":"3.66667","population":"138","region":"84","departement":"43","arrondissement":"431","commune":"43059"},
{"name":"Malvières","latitude":"45.33722","longitude":"3.73222","population":"134","region":"84","departement":"43","arrondissement":"431","commune":"43128"},
{"name":"Baffie","latitude":"45.47194","longitude":"3.82722","population":"117","region":"84","departement":"63","arrondissement":"631","commune":"63027"},
{"name":"Medeyrolles","latitude":"45.405","longitude":"3.80333","population":"113","region":"84","departement":"63","arrondissement":"631","commune":"63221"},
{"name":"Saint-Sauveur-la-Sagne","latitude":"45.3951","longitude":"3.6674","population":"112","region":"84","departement":"63","arrondissement":"631","commune":"63398"},
{"name":"Saint-Vert","latitude":"45.37167","longitude":"3.53194","population":"107","region":"84","departement":"43","arrondissement":"431","commune":"43226"},
{"name":"Fayet-Ronaye","latitude":"45.42528","longitude":"3.53583","population":"100","region":"84","departement":"63","arrondissement":"631","commune":"63158"},
{"name":"Aix-la-Fayette","latitude":"45.51694","longitude":"3.52139","population":"76","region":"84","departement":"63","arrondissement":"631","commune":"63002"},
{"name":"Laval-sur-Doulon","latitude":"45.35167","longitude":"3.56139","population":"62","region":"84","departement":"43","arrondissement":"431","commune":"43116"},
{"name":"Saint-Éloy-la-Glacière","latitude":"45.56083","longitude":"3.57361","population":"62","region":"84","departement":"63","arrondissement":"631","commune":"63337"}
]