[
{"name":"Saint-Germain-en-Laye","latitude":"48.89639","longitude":"2.09056","population":"40945","region":"11","departement":"78","arrondissement":"783","commune":"78551"},
{"name":"Montigny-le-Bretonneux","latitude":"48.77056","longitude":"2.0325","population":"33691","region":"11","departement":"78","arrondissement":"784","commune":"78423"},
{"name":"Plaisir","latitude":"48.81778","longitude":"1.94639","population":"30709","region":"11","departement":"78","arrondissement":"784","commune":"78490"},
{"name":"Trappes","latitude":"48.77667","longitude":"2.00167","population":"28638","region":"11","departement":"78","arrondissement":"784","commune":"78621"},
{"name":"Guyancourt","latitude":"48.77056","longitude":"2.07306","population":"28189","region":"11","departement":"78","arrondissement":"784","commune":"78297"},
{"name":"Élancourt","latitude":"48.78389","longitude":"1.95806","population":"27300","region":"11","departement":"78","arrondissement":"782","commune":"78208"},
{"name":"Maurepas","latitude":"48.76278","longitude":"1.94556","population":"18768","region":"11","departement":"78","arrondissement":"782","commune":"78383"},
{"name":"Saint-Cyr-l'École","latitude":"48.80028","longitude":"2.0625","population":"17549","region":"11","departement":"78","arrondissement":"784","commune":"78545"},
{"name":"Les Clayes-sous-Bois","latitude":"48.82056","longitude":"1.98361","population":"17488","region":"11","departement":"78","arrondissement":"784","commune":"78165"},
{"name":"Marly-le-Roi","latitude":"48.86694","longitude":"2.09417","population":"16604","region":"11","departement":"78","arrondissement":"783","commune":"78372"},
{"name":"Le Pecq","latitude":"48.89667","longitude":"2.10611","population":"16447","region":"11","departement":"78","arrondissement":"783","commune":"78481"},
{"name":"Bois-d'Arcy","latitude":"48.80139","longitude":"2.03167","population":"13646","region":"11","departement":"78","arrondissement":"784","commune":"78073"},
{"name":"Fontenay-le-Fleury","latitude":"48.81361","longitude":"2.04861","population":"12607","region":"11","departement":"78","arrondissement":"784","commune":"78242"},
{"name":"Voisins-le-Bretonneux","latitude":"48.75833","longitude":"2.05083","population":"11910","region":"11","departement":"78","arrondissement":"782","commune":"78688"},
{"name":"Villepreux","latitude":"48.83","longitude":"2.00222","population":"9897","region":"11","departement":"78","arrondissement":"783","commune":"78674"},
{"name":"Magny-les-Hameaux","latitude":"48.72389","longitude":"2.08417","population":"8954","region":"11","departement":"78","arrondissement":"782","commune":"78356"},
{"name":"Saint-Rémy-lès-Chevreuse","latitude":"48.70583","longitude":"2.07194","population":"8013","region":"11","departement":"78","arrondissement":"782","commune":"78575"},
{"name":"Noisy-le-Roi","latitude":"48.84639","longitude":"2.06","population":"7888","region":"11","departement":"78","arrondissement":"783","commune":"78455"},
{"name":"Beynes","latitude":"48.85639","longitude":"1.87278","population":"7628","region":"11","departement":"78","arrondissement":"782","commune":"78062"},
{"name":"Le Mesnil-Saint-Denis","latitude":"48.744","longitude":"1.9637","population":"6623","region":"11","departement":"78","arrondissement":"782","commune":"78397"},
{"name":"Le Perray-en-Yvelines","latitude":"48.69417","longitude":"1.85417","population":"6531","region":"11","departement":"78","arrondissement":"782","commune":"78486"},
{"name":"Les Essarts-le-Roi","latitude":"48.71667","longitude":"1.89444","population":"6331","region":"11","departement":"78","arrondissement":"782","commune":"78220"},
{"name":"La Verrière","latitude":"48.75861","longitude":"1.96222","population":"6034","region":"11","departement":"78","arrondissement":"782","commune":"78644"},
{"name":"Chambourcy","latitude":"48.90611","longitude":"2.04028","population":"5898","region":"11","departement":"78","arrondissement":"783","commune":"78133"},
{"name":"Orgeval","latitude":"48.92056","longitude":"1.97583","population":"5841","region":"11","departement":"78","arrondissement":"783","commune":"78466"},
{"name":"Maule","latitude":"48.90889","longitude":"1.84833","population":"5838","region":"11","departement":"78","arrondissement":"781","commune":"78380"},
{"name":"Chevreuse","latitude":"48.7075","longitude":"2.03833","population":"5740","region":"11","departement":"78","arrondissement":"782","commune":"78160"},
{"name":"Jouars-Pontchartrain","latitude":"48.8034","longitude":"1.9025","population":"5239","region":"11","departement":"78","arrondissement":"782","commune":"78321"},
{"name":"Saint-Nom-la-Bretèche","latitude":"48.8601","longitude":"2.0222","population":"5157","region":"11","departement":"78","arrondissement":"783","commune":"78571"},
{"name":"L'Étang-la-Ville","latitude":"48.86889","longitude":"2.07111","population":"4810","region":"11","departement":"78","arrondissement":"783","commune":"78224"},
{"name":"Coignières","latitude":"48.74722","longitude":"1.92028","population":"4527","region":"11","departement":"78","arrondissement":"782","commune":"78168"},
{"name":"Fourqueux","latitude":"48.88694","longitude":"2.06528","population":"4114","region":"11","departement":"78","arrondissement":"783","commune":"78251"},
{"name":"Bailly","latitude":"48.84139","longitude":"2.07722","population":"3942","region":"11","departement":"78","arrondissement":"783","commune":"78043"},
{"name":"Mareil-Marly","latitude":"48.88194","longitude":"2.07667","population":"3517","region":"11","departement":"78","arrondissement":"783","commune":"78367"},
{"name":"Montfort-l'Amaury","latitude":"48.77722","longitude":"1.80917","population":"3115","region":"11","departement":"78","arrondissement":"782","commune":"78420"},
{"name":"Neauphle-le-Château","latitude":"48.81444","longitude":"1.90222","population":"2995","region":"11","departement":"78","arrondissement":"782","commune":"78442"},
{"name":"Feucherolles","latitude":"48.87306","longitude":"1.97306","population":"2968","region":"11","departement":"78","arrondissement":"783","commune":"78233"},
{"name":"Villiers-Saint-Frédéric","latitude":"48.82083","longitude":"1.89","population":"2738","region":"11","departement":"78","arrondissement":"782","commune":"78683"},
{"name":"La Queue-les-Yvelines","latitude":"48.80528","longitude":"1.76833","population":"2126","region":"11","departement":"78","arrondissement":"782","commune":"78513"},
{"name":"Auffargis","latitude":"48.70028","longitude":"1.88722","population":"1979","region":"11","departement":"78","arrondissement":"782","commune":"78030"},
{"name":"Chavenay","latitude":"48.85389","longitude":"1.98639","population":"1857","region":"11","departement":"78","arrondissement":"783","commune":"78152"},
{"name":"Saint-Germain-de-la-Grange","latitude":"48.83333","longitude":"1.9","population":"1837","region":"11","departement":"78","arrondissement":"782","commune":"78550"},
{"name":"Mareil-sur-Mauldre","latitude":"48.89472","longitude":"1.86889","population":"1736","region":"11","departement":"78","arrondissement":"781","commune":"78368"},
{"name":"Méré","latitude":"48.78611","longitude":"1.81722","population":"1712","region":"11","departement":"78","arrondissement":"782","commune":"78389"},
{"name":"Lévis-Saint-Nom","latitude":"48.72139","longitude":"1.94861","population":"1702","region":"11","departement":"78","arrondissement":"782","commune":"78334"},
{"name":"Crespières","latitude":"48.88306","longitude":"1.92167","population":"1601","region":"11","departement":"78","arrondissement":"783","commune":"78189"},
{"name":"Saint-Léger-en-Yvelines","latitude":"48.72139","longitude":"1.76556","population":"1470","region":"11","departement":"78","arrondissement":"782","commune":"78562"},
{"name":"Châteaufort","latitude":"48.73639","longitude":"2.09111","population":"1403","region":"11","departement":"78","arrondissement":"784","commune":"78143"},
{"name":"Saint-Rémy-l'Honoré","latitude":"48.75639","longitude":"1.88083","population":"1388","region":"11","departement":"78","arrondissement":"782","commune":"78576"},
{"name":"Les Bréviaires","latitude":"48.70778","longitude":"1.81389","population":"1227","region":"11","departement":"78","arrondissement":"782","commune":"78108"},
{"name":"Les Alluets-le-Roi","latitude":"48.91417","longitude":"1.91917","population":"1196","region":"11","departement":"78","arrondissement":"783","commune":"78010"},
{"name":"Galluis","latitude":"48.79556","longitude":"1.79361","population":"1145","region":"11","departement":"78","arrondissement":"782","commune":"78262"},
{"name":"Thoiry","latitude":"48.86556","longitude":"1.79389","population":"1128","region":"11","departement":"78","arrondissement":"782","commune":"78616"},
{"name":"Dampierre-en-Yvelines","latitude":"48.7044","longitude":"1.9844","population":"1125","region":"11","departement":"78","arrondissement":"782","commune":"78193"},
{"name":"Aigremont","latitude":"48.90278","longitude":"2.01917","population":"1092","region":"11","departement":"78","arrondissement":"783","commune":"78007"},
{"name":"Thiverval-Grignon","latitude":"48.84831","longitude":"1.92806","population":"1011","region":"11","departement":"78","arrondissement":"784","commune":"78615"},
{"name":"Le Tremblay-sur-Mauldre","latitude":"48.7775","longitude":"1.87833","population":"958","region":"11","departement":"78","arrondissement":"782","commune":"78623"},
{"name":"Auteuil","latitude":"48.84056","longitude":"1.81722","population":"905","region":"11","departement":"78","arrondissement":"782","commune":"78034"},
{"name":"Grosrouvre","latitude":"48.78222","longitude":"1.76222","population":"900","region":"11","departement":"78","arrondissement":"782","commune":"78289"},
{"name":"Les Mesnuls","latitude":"48.75639","longitude":"1.83806","population":"874","region":"11","departement":"78","arrondissement":"782","commune":"78398"},
{"name":"Saulx-Marchais","latitude":"48.84028","longitude":"1.83583","population":"870","region":"11","departement":"78","arrondissement":"782","commune":"78588"},
{"name":"Marcq","latitude":"48.85944","longitude":"1.81889","population":"711","region":"11","departement":"78","arrondissement":"782","commune":"78364"},
{"name":"Villiers-le-Mahieu","latitude":"48.85972","longitude":"1.7725","population":"709","region":"11","departement":"78","arrondissement":"782","commune":"78681"},
{"name":"Neauphle-le-Vieux","latitude":"48.81583","longitude":"1.86306","population":"691","region":"11","departement":"78","arrondissement":"782","commune":"78443"},
{"name":"Goussonville","latitude":"48.92","longitude":"1.76472","population":"611","region":"11","departement":"78","arrondissement":"781","commune":"78281"},
{"name":"Bazoches-sur-Guyonne","latitude":"48.77833","longitude":"1.86028","population":"603","region":"11","departement":"78","arrondissement":"782","commune":"78050"},
{"name":"Boissy-sans-Avoir","latitude":"48.82056","longitude":"1.79361","population":"595","region":"11","departement":"78","arrondissement":"782","commune":"78084"},
{"name":"Jumeauville","latitude":"48.91083","longitude":"1.78806","population":"593","region":"11","departement":"78","arrondissement":"781","commune":"78325"},
{"name":"Montainville","latitude":"48.88194","longitude":"1.86111","population":"572","region":"11","departement":"78","arrondissement":"781","commune":"78415"},
{"name":"Andelu","latitude":"48.88028","longitude":"1.825","population":"500","region":"11","departement":"78","arrondissement":"781","commune":"78013"},
{"name":"Saint-Forget","latitude":"48.7075","longitude":"1.99611","population":"478","region":"11","departement":"78","arrondissement":"782","commune":"78548"},
{"name":"Autouillet","latitude":"48.84944","longitude":"1.80389","population":"466","region":"11","departement":"78","arrondissement":"782","commune":"78036"},
{"name":"Goupillières","latitude":"48.87972","longitude":"1.765","population":"441","region":"11","departement":"78","arrondissement":"782","commune":"78278"},
{"name":"Mareil-le-Guyon","latitude":"48.79028","longitude":"1.85278","population":"418","region":"11","departement":"78","arrondissement":"782","commune":"78366"},
{"name":"Saint-Lambert","latitude":"48.73194","longitude":"2.02083","population":"415","region":"11","departement":"78","arrondissement":"782","commune":"78561"},
{"name":"Davron","latitude":"48.86556","longitude":"1.94667","population":"341","region":"11","departement":"78","arrondissement":"783","commune":"78196"},
{"name":"Milon-la-Chapelle","latitude":"48.72639","longitude":"2.04917","population":"328","region":"11","departement":"78","arrondissement":"782","commune":"78406"},
{"name":"Vicq","latitude":"48.81528","longitude":"1.83472","population":"325","region":"11","departement":"78","arrondissement":"782","commune":"78653"},
{"name":"Herbeville","latitude":"48.90611","longitude":"1.88639","population":"308","region":"11","departement":"78","arrondissement":"781","commune":"78305"},
{"name":"Rennemoulin","latitude":"48.83361","longitude":"2.04306","population":"121","region":"11","departement":"78","arrondissement":"783","commune":"78518"}
]