[
{"name":"Luxeuil-les-Bains","latitude":"47.81611","longitude":"6.38083","population":"7370","region":"27","departement":"70","arrondissement":"701","commune":"70311"},
{"name":"Le Val-d'Ajol","latitude":"47.925","longitude":"6.48333","population":"4069","region":"44","departement":"88","arrondissement":"881","commune":"88487"},
{"name":"Fougerolles","latitude":"47.88528","longitude":"6.40278","population":"3839","region":"27","departement":"70","arrondissement":"701","commune":"70245"},
{"name":"Rupt-sur-Moselle","latitude":"47.92667","longitude":"6.66278","population":"3582","region":"44","departement":"88","arrondissement":"881","commune":"88408"},
{"name":"Saint-Sauveur","latitude":"47.80389","longitude":"6.38472","population":"2128","region":"27","departement":"70","arrondissement":"701","commune":"70473"},
{"name":"Froideconche","latitude":"47.82056","longitude":"6.41611","population":"1991","region":"27","departement":"70","arrondissement":"701","commune":"70258"},
{"name":"Plombières-les-Bains","latitude":"47.96639","longitude":"6.46306","population":"1869","region":"44","departement":"88","arrondissement":"881","commune":"88351"},
{"name":"Aillevillers-et-Lyaumont","latitude":"47.92028","longitude":"6.33583","population":"1677","region":"27","departement":"70","arrondissement":"701","commune":"70006"},
{"name":"Fontaine-lès-Luxeuil","latitude":"47.85556","longitude":"6.33472","population":"1462","region":"27","departement":"70","arrondissement":"701","commune":"70240"},
{"name":"Vecoux","latitude":"47.97889","longitude":"6.63583","population":"980","region":"44","departement":"88","arrondissement":"881","commune":"88498"},
{"name":"Raddon-et-Chapendu","latitude":"47.84167","longitude":"6.47111","population":"915","region":"27","departement":"70","arrondissement":"701","commune":"70435"},
{"name":"Breuches","latitude":"47.79806","longitude":"6.33028","population":"743","region":"27","departement":"70","arrondissement":"701","commune":"70093"},
{"name":"Fresse","latitude":"47.7575","longitude":"6.65722","population":"725","region":"27","departement":"70","arrondissement":"701","commune":"70256"},
{"name":"Faucogney-et-la-Mer","latitude":"47.84222","longitude":"6.56361","population":"588","region":"27","departement":"70","arrondissement":"701","commune":"70227"},
{"name":"Baudoncourt","latitude":"47.77778","longitude":"6.34528","population":"551","region":"27","departement":"70","arrondissement":"701","commune":"70055"},
{"name":"Ternuay-Melay-et-Saint-Hilaire","latitude":"47.785","longitude":"6.62917","population":"526","region":"27","departement":"70","arrondissement":"701","commune":"70498"},
{"name":"Esboz-Brest","latitude":"47.80611","longitude":"6.45194","population":"492","region":"27","departement":"70","arrondissement":"701","commune":"70216"},
{"name":"Saint-Bresson","latitude":"47.87028","longitude":"6.50639","population":"439","region":"27","departement":"70","arrondissement":"701","commune":"70460"},
{"name":"La Chapelle-lès-Luxeuil","latitude":"47.77111","longitude":"6.36667","population":"432","region":"27","departement":"70","arrondissement":"701","commune":"70128"},
{"name":"Amage","latitude":"47.83667","longitude":"6.49306","population":"335","region":"27","departement":"70","arrondissement":"701","commune":"70011"},
{"name":"Breuchotte","latitude":"47.83611","longitude":"6.46917","population":"317","region":"27","departement":"70","arrondissement":"701","commune":"70094"},
{"name":"Ailloncourt","latitude":"47.75528","longitude":"6.38833","population":"297","region":"27","departement":"70","arrondissement":"701","commune":"70007"},
{"name":"La Longine","latitude":"47.88361","longitude":"6.59083","population":"249","region":"27","departement":"70","arrondissement":"701","commune":"70308"},
{"name":"Belonchamp","latitude":"47.76972","longitude":"6.61111","population":"235","region":"27","departement":"70","arrondissement":"701","commune":"70063"},
{"name":"Girmont-Val-d'Ajol","latitude":"47.95389","longitude":"6.56139","population":"231","region":"44","departement":"88","arrondissement":"881","commune":"88205"},
{"name":"Saint-Valbert","latitude":"47.8525","longitude":"6.39583","population":"217","region":"27","departement":"70","arrondissement":"701","commune":"70475"},
{"name":"Brotte-lès-Luxeuil","latitude":"47.75667","longitude":"6.34778","population":"217","region":"27","departement":"70","arrondissement":"701","commune":"70098"},
{"name":"La Vaivre","latitude":"47.9151","longitude":"6.3674","population":"213","region":"27","departement":"70","arrondissement":"701","commune":"70512"},
{"name":"Sainte-Marie-en-Chanois","latitude":"47.83306","longitude":"6.51222","population":"206","region":"27","departement":"70","arrondissement":"701","commune":"70469"},
{"name":"La Bruyère","latitude":"47.83056","longitude":"6.48472","population":"204","region":"27","departement":"70","arrondissement":"701","commune":"70103"},
{"name":"Corravillers","latitude":"47.8935","longitude":"6.623","population":"199","region":"27","departement":"70","arrondissement":"701","commune":"70176"},
{"name":"La Lanterne-et-les-Armonts","latitude":"47.79361","longitude":"6.52667","population":"183","region":"27","departement":"70","arrondissement":"701","commune":"70295"},
{"name":"Amont-et-Effreney","latitude":"47.8755","longitude":"6.5753","population":"179","region":"27","departement":"70","arrondissement":"701","commune":"70016"},
{"name":"Écromagny","latitude":"47.79361","longitude":"6.56333","population":"171","region":"27","departement":"70","arrondissement":"701","commune":"70210"},
{"name":"La Proiselière-et-Langle","latitude":"47.82694","longitude":"6.50278","population":"170","region":"27","departement":"70","arrondissement":"701","commune":"70425"},
{"name":"Magnivray","latitude":"47.78083","longitude":"6.47028","population":"167","region":"27","departement":"70","arrondissement":"701","commune":"70314"},
{"name":"La Voivre","latitude":"47.8233","longitude":"6.5384","population":"140","region":"27","departement":"70","arrondissement":"701","commune":"70573"},
{"name":"Les Fessey","latitude":"47.8197","longitude":"6.5186","population":"133","region":"27","departement":"70","arrondissement":"701","commune":"70233"},
{"name":"Belmont","latitude":"47.7873","longitude":"6.5042","population":"111","region":"27","departement":"70","arrondissement":"701","commune":"70062"},
{"name":"La Corbière","latitude":"47.79222","longitude":"6.49111","population":"102","region":"27","departement":"70","arrondissement":"701","commune":"70172"},
{"name":"Esmoulières","latitude":"47.8525","longitude":"6.61528","population":"98","region":"27","departement":"70","arrondissement":"701","commune":"70217"},
{"name":"Rignovelle","latitude":"47.76444","longitude":"6.48083","population":"96","region":"27","departement":"70","arrondissement":"701","commune":"70445"},
{"name":"La Rosière","latitude":"47.9075","longitude":"6.625","population":"92","region":"27","departement":"70","arrondissement":"701","commune":"70453"},
{"name":"Beulotte-Saint-Laurent","latitude":"47.86056","longitude":"6.6775","population":"69","region":"27","departement":"70","arrondissement":"701","commune":"70071"},
{"name":"La Montagne","latitude":"47.92083","longitude":"6.59167","population":"39","region":"27","departement":"70","arrondissement":"701","commune":"70352"}
]