[
{"name":"Moulins","latitude":"46.56472","longitude":"3.3325","population":"19837","region":"84","departement":"03","arrondissement":"032","commune":"03190"},
{"name":"Yzeure","latitude":"46.56583","longitude":"3.35444","population":"12867","region":"84","departement":"03","arrondissement":"032","commune":"03321"},
{"name":"Avermes","latitude":"46.58778","longitude":"3.30722","population":"3802","region":"84","departement":"03","arrondissement":"032","commune":"03013"},
{"name":"Lusigny","latitude":"46.5876","longitude":"3.4919","population":"1623","region":"84","departement":"03","arrondissement":"032","commune":"03156"},
{"name":"Trévol","latitude":"46.62917","longitude":"3.30611","population":"1615","region":"84","departement":"03","arrondissement":"032","commune":"03290"},
{"name":"Neuvy","latitude":"46.5624","longitude":"3.2912","population":"1544","region":"84","departement":"03","arrondissement":"032","commune":"03200"},
{"name":"Dornes","latitude":"46.715","longitude":"3.3525","population":"1321","region":"27","departement":"58","arrondissement":"583","commune":"58104"},
{"name":"Chantenay-Saint-Imbert","latitude":"46.73333","longitude":"3.18333","population":"1256","region":"27","departement":"58","arrondissement":"583","commune":"58057"},
{"name":"Lucenay-lès-Aix","latitude":"46.70361","longitude":"3.48389","population":"1047","region":"27","departement":"58","arrondissement":"583","commune":"58146"},
{"name":"Villeneuve-sur-Allier","latitude":"46.6605","longitude":"3.2489","population":"969","region":"84","departement":"03","arrondissement":"032","commune":"03316"},
{"name":"Cossaye","latitude":"46.74861","longitude":"3.48444","population":"777","region":"27","departement":"58","arrondissement":"583","commune":"58087"},
{"name":"Saint-Ennemond","latitude":"46.67611","longitude":"3.4225","population":"656","region":"84","departement":"03","arrondissement":"032","commune":"03229"},
{"name":"Gennetines","latitude":"46.6362","longitude":"3.4091","population":"629","region":"84","departement":"03","arrondissement":"032","commune":"03121"},
{"name":"Montilly","latitude":"46.61222","longitude":"3.25194","population":"561","region":"84","departement":"03","arrondissement":"032","commune":"03184"},
{"name":"Toury-Lurcy","latitude":"46.73861","longitude":"3.42528","population":"424","region":"27","departement":"58","arrondissement":"583","commune":"58293"},
{"name":"Aurouër","latitude":"46.6875","longitude":"3.3002","population":"377","region":"84","departement":"03","arrondissement":"032","commune":"03011"},
{"name":"Saint-Germain-Chassenay","latitude":"46.77583","longitude":"3.39278","population":"364","region":"27","departement":"58","arrondissement":"583","commune":"58241"},
{"name":"Bagneux","latitude":"46.65778","longitude":"3.20556","population":"305","region":"84","departement":"03","arrondissement":"032","commune":"03015"},
{"name":"Neuville-lès-Decize","latitude":"46.77028","longitude":"3.31528","population":"283","region":"27","departement":"58","arrondissement":"583","commune":"58192"},
{"name":"Azy-le-Vif","latitude":"46.78556","longitude":"3.22944","population":"226","region":"27","departement":"58","arrondissement":"583","commune":"58021"},
{"name":"Chézy","latitude":"46.61111","longitude":"3.46778","population":"211","region":"84","departement":"03","arrondissement":"032","commune":"03076"},
{"name":"Marigny","latitude":"46.58194","longitude":"3.20833","population":"188","region":"84","departement":"03","arrondissement":"032","commune":"03162"},
{"name":"Tresnay","latitude":"46.69694","longitude":"3.18722","population":"176","region":"27","departement":"58","arrondissement":"583","commune":"58296"},
{"name":"Saint-Parize-en-Viry","latitude":"46.75222","longitude":"3.3575","population":"163","region":"27","departement":"58","arrondissement":"583","commune":"58259"},
{"name":"Aubigny","latitude":"46.6821","longitude":"3.167","population":"130","region":"84","departement":"03","arrondissement":"032","commune":"03009"},
{"name":"Toury-sur-Jour","latitude":"46.72889","longitude":"3.24083","population":"125","region":"27","departement":"58","arrondissement":"583","commune":"58294"}
]