[
{"name":"Miserey-Salines","latitude":"47.28639","longitude":"5.97361","population":"2108","region":"27","departement":"25","arrondissement":"251","commune":"25381"},
{"name":"Marnay","latitude":"47.28972","longitude":"5.77167","population":"1398","region":"27","departement":"70","arrondissement":"702","commune":"70334"},
{"name":"Geneuille","latitude":"47.32361","longitude":"5.97056","population":"1317","region":"27","departement":"25","arrondissement":"251","commune":"25265"},
{"name":"Les Auxons","latitude":"47.30139","longitude":"5.97306","population":"1154","region":"27","departement":"25","arrondissement":"251","commune":"25035"},
{"name":"Gy","latitude":"47.40611","longitude":"5.81222","population":"1044","region":"27","departement":"70","arrondissement":"702","commune":"70282"},
{"name":"Beaujeu-Saint-Vallier-Pierrejux-et-Quitteur","latitude":"47.5047","longitude":"5.6771","population":"1008","region":"27","departement":"70","arrondissement":"702","commune":"70058"},
{"name":"Cussey-sur-l'Ognon","latitude":"47.33889","longitude":"5.93806","population":"929","region":"27","departement":"25","arrondissement":"251","commune":"25186"},
{"name":"Pin","latitude":"47.3229","longitude":"5.8652","population":"702","region":"27","departement":"70","arrondissement":"702","commune":"70410"},
{"name":"Fretigney-et-Velloreille","latitude":"47.4876","longitude":"5.9471","population":"675","region":"27","departement":"70","arrondissement":"702","commune":"70257"},
{"name":"Valay","latitude":"47.33833","longitude":"5.63917","population":"675","region":"27","departement":"70","arrondissement":"702","commune":"70514"},
{"name":"Étuz","latitude":"47.34972","longitude":"5.93972","population":"674","region":"27","departement":"70","arrondissement":"702","commune":"70224"},
{"name":"Bucey-lès-Gy","latitude":"47.42306","longitude":"5.84306","population":"655","region":"27","departement":"70","arrondissement":"702","commune":"70104"},
{"name":"Rigny","latitude":"47.4725","longitude":"5.63306","population":"616","region":"27","departement":"70","arrondissement":"702","commune":"70446"},
{"name":"Émagny","latitude":"47.31139","longitude":"5.86944","population":"614","region":"27","departement":"25","arrondissement":"251","commune":"25217"},
{"name":"Boulot","latitude":"47.34778","longitude":"5.96","population":"597","region":"27","departement":"70","arrondissement":"702","commune":"70084"},
{"name":"Chaucenne","latitude":"47.28472","longitude":"5.89778","population":"533","region":"27","departement":"25","arrondissement":"251","commune":"25136"},
{"name":"Velesmes-Échevanne","latitude":"47.4201","longitude":"5.7023","population":"512","region":"27","departement":"70","arrondissement":"702","commune":"70528"},
{"name":"Montagney","latitude":"47.2869","longitude":"5.6618","population":"490","region":"27","departement":"70","arrondissement":"702","commune":"70353"},
{"name":"Ancier","latitude":"47.44833","longitude":"5.63194","population":"472","region":"27","departement":"70","arrondissement":"702","commune":"70018"},
{"name":"Oiselay-et-Grachaux","latitude":"47.42139","longitude":"5.93361","population":"396","region":"27","departement":"70","arrondissement":"702","commune":"70393"},
{"name":"Avrigney-Virey","latitude":"47.3346","longitude":"5.7788","population":"389","region":"27","departement":"70","arrondissement":"702","commune":"70045"},
{"name":"Choye","latitude":"47.39111","longitude":"5.75972","population":"373","region":"27","departement":"70","arrondissement":"702","commune":"70152"},
{"name":"Chambornay-lès-Pin","latitude":"47.3375","longitude":"5.90694","population":"358","region":"27","departement":"70","arrondissement":"702","commune":"70119"},
{"name":"Bonnevent-Velloreille","latitude":"47.3922","longitude":"5.9336","population":"348","region":"27","departement":"70","arrondissement":"702","commune":"70076"},
{"name":"Charcenne","latitude":"47.37167","longitude":"5.77639","population":"345","region":"27","departement":"70","arrondissement":"702","commune":"70130"},
{"name":"Moncley","latitude":"47.30833","longitude":"5.89167","population":"339","region":"27","departement":"25","arrondissement":"251","commune":"25383"},
{"name":"Ruffey-le-Château","latitude":"47.2875","longitude":"5.79833","population":"316","region":"27","departement":"25","arrondissement":"251","commune":"25510"},
{"name":"Autoreille","latitude":"47.36972","longitude":"5.81111","population":"293","region":"27","departement":"70","arrondissement":"702","commune":"70039"},
{"name":"Frasne-le-Château","latitude":"47.46278","longitude":"5.89389","population":"287","region":"27","departement":"70","arrondissement":"702","commune":"70253"},
{"name":"Bussières","latitude":"47.3375","longitude":"5.97417","population":"279","region":"27","departement":"70","arrondissement":"702","commune":"70107"},
{"name":"Beaumotte-lès-Pin","latitude":"47.31694","longitude":"5.83083","population":"270","region":"27","departement":"70","arrondissement":"702","commune":"70060"},
{"name":"Brussey","latitude":"47.30028","longitude":"5.81028","population":"267","region":"27","departement":"70","arrondissement":"702","commune":"70102"},
{"name":"Montboillon","latitude":"47.37111","longitude":"5.92333","population":"264","region":"27","departement":"70","arrondissement":"702","commune":"70356"},
{"name":"Chenevrey-et-Morogne","latitude":"47.28278","longitude":"5.74333","population":"259","region":"27","departement":"70","arrondissement":"702","commune":"70150"},
{"name":"Chevigney-sur-l'Ognon","latitude":"47.29778","longitude":"5.83833","population":"245","region":"27","departement":"25","arrondissement":"251","commune":"25150"},
{"name":"Battrans","latitude":"47.42861","longitude":"5.63722","population":"229","region":"27","departement":"70","arrondissement":"702","commune":"70054"},
{"name":"Montureux-et-Prantigny","latitude":"47.50333","longitude":"5.63806","population":"223","region":"27","departement":"70","arrondissement":"702","commune":"70371"},
{"name":"Cult","latitude":"47.31361","longitude":"5.73861","population":"221","region":"27","departement":"70","arrondissement":"702","commune":"70193"},
{"name":"Igny","latitude":"47.47889","longitude":"5.76222","population":"187","region":"27","departement":"70","arrondissement":"702","commune":"70289"},
{"name":"Cresancey","latitude":"47.39278","longitude":"5.65361","population":"185","region":"27","departement":"70","arrondissement":"702","commune":"70185"},
{"name":"Gézier-et-Fontenelay","latitude":"47.35722","longitude":"5.89722","population":"182","region":"27","departement":"70","arrondissement":"702","commune":"70268"},
{"name":"Cugney","latitude":"47.36556","longitude":"5.71889","population":"179","region":"27","departement":"70","arrondissement":"702","commune":"70192"},
{"name":"Venère","latitude":"47.36083","longitude":"5.675","population":"177","region":"27","departement":"70","arrondissement":"702","commune":"70542"},
{"name":"Vregille","latitude":"47.31972","longitude":"5.89167","population":"173","region":"27","departement":"70","arrondissement":"702","commune":"70578"},
{"name":"Bonboillon","latitude":"47.33722","longitude":"5.70361","population":"166","region":"27","departement":"70","arrondissement":"702","commune":"70075"},
{"name":"Sauvagney","latitude":"47.32361","longitude":"5.90389","population":"158","region":"27","departement":"25","arrondissement":"251","commune":"25536"},
{"name":"Vantoux-et-Longevelle","latitude":"47.43417","longitude":"5.84639","population":"157","region":"27","departement":"70","arrondissement":"702","commune":"70521"},
{"name":"Chancey","latitude":"47.32111","longitude":"5.6825","population":"155","region":"27","departement":"70","arrondissement":"702","commune":"70126"},
{"name":"Chaumercenne","latitude":"47.29972","longitude":"5.62861","population":"151","region":"27","departement":"70","arrondissement":"702","commune":"70142"},
{"name":"Bourguignon-lès-la-Charité","latitude":"47.50722","longitude":"5.97028","population":"149","region":"27","departement":"70","arrondissement":"702","commune":"70088"},
{"name":"Villefrancon","latitude":"47.40472","longitude":"5.74389","population":"137","region":"27","departement":"70","arrondissement":"702","commune":"70557"},
{"name":"La Chapelle-Saint-Quillain","latitude":"47.47583","longitude":"5.81472","population":"136","region":"27","departement":"70","arrondissement":"702","commune":"70129"},
{"name":"Angirey","latitude":"47.45528","longitude":"5.76722","population":"132","region":"27","departement":"70","arrondissement":"702","commune":"70022"},
{"name":"Hugier","latitude":"47.31444","longitude":"5.70889","population":"131","region":"27","departement":"70","arrondissement":"702","commune":"70286"},
{"name":"Courcuire","latitude":"47.34194","longitude":"5.82389","population":"130","region":"27","departement":"70","arrondissement":"702","commune":"70181"},
{"name":"Saint-Broing","latitude":"47.44917","longitude":"5.69806","population":"130","region":"27","departement":"70","arrondissement":"702","commune":"70461"},
{"name":"Villers-Chemin-et-Mont-lès-Étrelles","latitude":"47.4426","longitude":"5.8706","population":"127","region":"27","departement":"70","arrondissement":"702","commune":"70366"},
{"name":"Cordonnet","latitude":"47.4165","longitude":"5.9714","population":"122","region":"27","departement":"70","arrondissement":"702","commune":"70174"},
{"name":"Bay","latitude":"47.28889","longitude":"5.72","population":"122","region":"27","departement":"70","arrondissement":"702","commune":"70057"},
{"name":"Saint-Loup-Nantouard","latitude":"47.42528","longitude":"5.725","population":"114","region":"27","departement":"70","arrondissement":"702","commune":"70466"},
{"name":"Motey-Besuche","latitude":"47.29806","longitude":"5.66806","population":"113","region":"27","departement":"70","arrondissement":"702","commune":"70374"},
{"name":"Sauvigney-lès-Gray","latitude":"47.4471","longitude":"5.7419","population":"112","region":"27","departement":"70","arrondissement":"702","commune":"70479"},
{"name":"Tromarey","latitude":"47.33806","longitude":"5.71972","population":"108","region":"27","departement":"70","arrondissement":"702","commune":"70509"},
{"name":"Vellefrey-et-Vellefrange","latitude":"47.43","longitude":"5.83","population":"104","region":"27","departement":"70","arrondissement":"702","commune":"70533"},
{"name":"Citey","latitude":"47.43","longitude":"5.78944","population":"95","region":"27","departement":"70","arrondissement":"702","commune":"70156"},
{"name":"Velleclaire","latitude":"47.43083","longitude":"5.86111","population":"93","region":"27","departement":"70","arrondissement":"702","commune":"70531"},
{"name":"Vellemoz","latitude":"47.47417","longitude":"5.79444","population":"89","region":"27","departement":"70","arrondissement":"702","commune":"70538"},
{"name":"Champtonnay","latitude":"47.37917","longitude":"5.66944","population":"87","region":"27","departement":"70","arrondissement":"702","commune":"70124"},
{"name":"Étrelles-et-la-Montbleuse","latitude":"47.46","longitude":"5.86194","population":"82","region":"27","departement":"70","arrondissement":"702","commune":"70222"},
{"name":"Les Bâties","latitude":"47.50722","longitude":"5.89194","population":"81","region":"27","departement":"70","arrondissement":"702","commune":"70053"},
{"name":"Velloreille-lès-Choye","latitude":"47.39222","longitude":"5.73694","population":"80","region":"27","departement":"70","arrondissement":"702","commune":"70540"},
{"name":"Vaux-le-Moncelot","latitude":"47.4725","longitude":"5.90139","population":"76","region":"27","departement":"70","arrondissement":"702","commune":"70527"},
{"name":"Onay","latitude":"47.38556","longitude":"5.68722","population":"73","region":"27","departement":"70","arrondissement":"702","commune":"70394"},
{"name":"La Vernotte","latitude":"47.50944","longitude":"5.86806","population":"73","region":"27","departement":"70","arrondissement":"702","commune":"70549"},
{"name":"Noiron","latitude":"47.38389","longitude":"5.62889","population":"70","region":"27","departement":"70","arrondissement":"702","commune":"70389"},
{"name":"Arsans","latitude":"47.36528","longitude":"5.62806","population":"40","region":"27","departement":"70","arrondissement":"702","commune":"70030"},
{"name":"Sainte-Reine","latitude":"47.49722","longitude":"5.77833","population":"35","region":"27","departement":"70","arrondissement":"702","commune":"70471"}
]