[
{"name":"Haguenau","latitude":"48.81667","longitude":"7.78778","population":"34648","region":"44","departement":"67","arrondissement":"672","commune":"67180"},
{"name":"Bischwiller","latitude":"48.76639","longitude":"7.85694","population":"12646","region":"44","departement":"67","arrondissement":"672","commune":"67046"},
{"name":"Drusenheim","latitude":"48.76194","longitude":"7.95167","population":"4990","region":"44","departement":"67","arrondissement":"672","commune":"67106"},
{"name":"Soufflenheim","latitude":"48.82972","longitude":"7.96306","population":"4861","region":"44","departement":"67","arrondissement":"672","commune":"67472"},
{"name":"Herrlisheim","latitude":"48.73083","longitude":"7.90655","population":"4693","region":"44","departement":"67","arrondissement":"672","commune":"67194"},
{"name":"Gambsheim","latitude":"48.69222","longitude":"7.88333","population":"4568","region":"44","departement":"67","arrondissement":"676","commune":"67151"},
{"name":"Hœrdt","latitude":"48.69639","longitude":"7.78389","population":"4438","region":"44","departement":"67","arrondissement":"676","commune":"67205"},
{"name":"Betschdorf","latitude":"48.8988","longitude":"7.9064","population":"4072","region":"44","departement":"67","arrondissement":"677","commune":"67339"},
{"name":"Weyersheim","latitude":"48.71639","longitude":"7.80389","population":"3350","region":"44","departement":"67","arrondissement":"676","commune":"67529"},
{"name":"Oberhoffen-sur-Moder","latitude":"48.78389","longitude":"7.86361","population":"3262","region":"44","departement":"67","arrondissement":"672","commune":"67345"},
{"name":"Gries","latitude":"48.75472","longitude":"7.81639","population":"2754","region":"44","departement":"67","arrondissement":"676","commune":"67169"},
{"name":"Weitbruch","latitude":"48.75639","longitude":"7.77778","population":"2659","region":"44","departement":"67","arrondissement":"672","commune":"67523"},
{"name":"Geudertheim","latitude":"48.72426","longitude":"7.75377","population":"2312","region":"44","departement":"67","arrondissement":"676","commune":"67156"},
{"name":"Kaltenhouse","latitude":"48.79083","longitude":"7.83194","population":"2242","region":"44","departement":"67","arrondissement":"672","commune":"67230"},
{"name":"Schirrhein","latitude":"48.80139","longitude":"7.90611","population":"2175","region":"44","departement":"67","arrondissement":"672","commune":"67449"},
{"name":"Rœschwoog","latitude":"48.82861","longitude":"8.03417","population":"2156","region":"44","departement":"67","arrondissement":"672","commune":"67405"},
{"name":"Offendorf","latitude":"48.71194","longitude":"7.91611","population":"2152","region":"44","departement":"67","arrondissement":"672","commune":"67356"},
{"name":"Sessenheim","latitude":"48.79694","longitude":"7.98639","population":"2090","region":"44","departement":"67","arrondissement":"672","commune":"67465"},
{"name":"Hatten","latitude":"48.90194","longitude":"7.97889","population":"1965","region":"44","departement":"67","arrondissement":"677","commune":"67184"},
{"name":"Beinheim","latitude":"48.86306","longitude":"8.08389","population":"1886","region":"44","departement":"67","arrondissement":"677","commune":"67025"},
{"name":"Rohrwiller","latitude":"48.75556","longitude":"7.90528","population":"1670","region":"44","departement":"67","arrondissement":"672","commune":"67407"},
{"name":"Surbourg","latitude":"48.90889","longitude":"7.84778","population":"1630","region":"44","departement":"67","arrondissement":"677","commune":"67487"},
{"name":"Niederschaeffolsheim","latitude":"48.77222","longitude":"7.73833","population":"1253","region":"44","departement":"67","arrondissement":"672","commune":"67331"},
{"name":"Durrenbach","latitude":"48.89639","longitude":"7.76833","population":"1066","region":"44","departement":"67","arrondissement":"677","commune":"67110"},
{"name":"Rountzenheim","latitude":"48.81917","longitude":"8.00639","population":"1036","region":"44","departement":"67","arrondissement":"672","commune":"67418"},
{"name":"Dalhunden","latitude":"48.77497","longitude":"7.99101","population":"991","region":"44","departement":"67","arrondissement":"672","commune":"67082"},
{"name":"Kurtzenhouse","latitude":"48.74","longitude":"7.80694","population":"980","region":"44","departement":"67","arrondissement":"676","commune":"67252"},
{"name":"Roppenheim","latitude":"48.8439","longitude":"8.0549","population":"937","region":"44","departement":"67","arrondissement":"672","commune":"67409"},
{"name":"Eschbach","latitude":"48.87417","longitude":"7.73639","population":"928","region":"44","departement":"67","arrondissement":"677","commune":"67132"},
{"name":"Rittershoffen","latitude":"48.90361","longitude":"7.95139","population":"903","region":"44","departement":"67","arrondissement":"677","commune":"67404"},
{"name":"Niederrœdern","latitude":"48.90611","longitude":"8.04778","population":"893","region":"44","departement":"67","arrondissement":"677","commune":"67330"},
{"name":"Auenheim","latitude":"48.81194","longitude":"8.00972","population":"866","region":"44","departement":"67","arrondissement":"672","commune":"67014"},
{"name":"Leutenheim","latitude":"48.84278","longitude":"8.02083","population":"855","region":"44","departement":"67","arrondissement":"672","commune":"67264"},
{"name":"Walbourg","latitude":"48.88662","longitude":"7.78965","population":"786","region":"44","departement":"67","arrondissement":"677","commune":"67511"},
{"name":"Forstfeld","latitude":"48.86028","longitude":"8.03861","population":"709","region":"44","departement":"67","arrondissement":"672","commune":"67140"},
{"name":"Schirrhoffen","latitude":"48.80611","longitude":"7.92194","population":"700","region":"44","departement":"67","arrondissement":"672","commune":"67450"},
{"name":"Gunstett","latitude":"48.915","longitude":"7.76389","population":"687","region":"44","departement":"67","arrondissement":"677","commune":"67177"},
{"name":"Stattmatten","latitude":"48.79694","longitude":"8.0025","population":"677","region":"44","departement":"67","arrondissement":"672","commune":"67476"},
{"name":"Morsbronn-les-Bains","latitude":"48.9","longitude":"7.74194","population":"652","region":"44","departement":"67","arrondissement":"677","commune":"67303"},
{"name":"Buhl","latitude":"48.9168","longitude":"8.0072","population":"519","region":"44","departement":"67","arrondissement":"677","commune":"67069"},
{"name":"Oberrœdern","latitude":"48.92194","longitude":"7.97453","population":"519","region":"44","departement":"67","arrondissement":"677","commune":"67349"},
{"name":"Kesseldorf","latitude":"48.87623","longitude":"8.06774","population":"431","region":"44","departement":"67","arrondissement":"677","commune":"67235"},
{"name":"Hegeney","latitude":"48.89091","longitude":"7.74021","population":"381","region":"44","departement":"67","arrondissement":"677","commune":"67186"},
{"name":"Biblisheim","latitude":"48.89889","longitude":"7.795","population":"360","region":"44","departement":"67","arrondissement":"677","commune":"67037"},
{"name":"Neuhaeusel","latitude":"48.82393","longitude":"8.08474","population":"356","region":"44","departement":"67","arrondissement":"672","commune":"67319"},
{"name":"Fort-Louis","latitude":"48.80139","longitude":"8.05639","population":"328","region":"44","departement":"67","arrondissement":"672","commune":"67142"},
{"name":"Bietlenheim","latitude":"48.71944","longitude":"7.78139","population":"282","region":"44","departement":"67","arrondissement":"676","commune":"67038"},
{"name":"Kauffenheim","latitude":"48.8525","longitude":"8.02806","population":"222","region":"44","departement":"67","arrondissement":"672","commune":"67231"}
]