[
{"name":"Longwy","latitude":"49.51972","longitude":"5.76056","population":"14354","region":"44","departement":"54","arrondissement":"541","commune":"54323"},
{"name":"Villerupt","latitude":"49.46972","longitude":"5.92861","population":"9450","region":"44","departement":"54","arrondissement":"541","commune":"54580"},
{"name":"Mont-Saint-Martin","latitude":"49.54056","longitude":"5.77944","population":"8080","region":"44","departement":"54","arrondissement":"541","commune":"54382"},
{"name":"Audun-le-Tiche","latitude":"49.47333","longitude":"5.95778","population":"6152","region":"44","departement":"57","arrondissement":"578","commune":"57038"},
{"name":"Herserange","latitude":"49.51833","longitude":"5.78417","population":"4487","region":"44","departement":"54","arrondissement":"541","commune":"54261"},
{"name":"Réhon","latitude":"49.50167","longitude":"5.755","population":"3719","region":"44","departement":"54","arrondissement":"541","commune":"54451"},
{"name":"Hussigny-Godbrange","latitude":"49.49278","longitude":"5.87417","population":"3366","region":"44","departement":"54","arrondissement":"541","commune":"54270"},
{"name":"Haucourt-Moulaine","latitude":"49.48972","longitude":"5.80639","population":"3101","region":"44","departement":"54","arrondissement":"541","commune":"54254"},
{"name":"Lexy","latitude":"49.50111","longitude":"5.73222","population":"2958","region":"44","departement":"54","arrondissement":"541","commune":"54314"},
{"name":"Longlaville","latitude":"49.53417","longitude":"5.79861","population":"2468","region":"44","departement":"54","arrondissement":"541","commune":"54321"},
{"name":"Cosnes-et-Romain","latitude":"49.51917","longitude":"5.71111","population":"2462","region":"44","departement":"54","arrondissement":"541","commune":"54138"},
{"name":"Gorcy","latitude":"49.5351","longitude":"5.6852","population":"2405","region":"44","departement":"54","arrondissement":"541","commune":"54234"},
{"name":"Saulnes","latitude":"49.53278","longitude":"5.82583","population":"2349","region":"44","departement":"54","arrondissement":"541","commune":"54493"},
{"name":"Aumetz","latitude":"49.41778","longitude":"5.94444","population":"2298","region":"44","departement":"57","arrondissement":"578","commune":"57041"},
{"name":"Mexy","latitude":"49.5","longitude":"5.78333","population":"2216","region":"44","departement":"54","arrondissement":"541","commune":"54367"},
{"name":"Crusnes","latitude":"49.43444","longitude":"5.91639","population":"1618","region":"44","departement":"54","arrondissement":"541","commune":"54149"},
{"name":"Thil","latitude":"49.47306","longitude":"5.90833","population":"1615","region":"44","departement":"54","arrondissement":"541","commune":"54521"},
{"name":"Villers-la-Montagne","latitude":"49.47083","longitude":"5.82139","population":"1464","region":"44","departement":"54","arrondissement":"541","commune":"54575"},
{"name":"Mercy-le-Bas","latitude":"49.38361","longitude":"5.75194","population":"1344","region":"44","departement":"54","arrondissement":"541","commune":"54362"},
{"name":"Morfontaine","latitude":"49.44444","longitude":"5.80833","population":"1131","region":"44","departement":"54","arrondissement":"541","commune":"54385"},
{"name":"Russange","latitude":"49.48083","longitude":"5.95361","population":"1049","region":"44","departement":"57","arrondissement":"578","commune":"57603"},
{"name":"Cutry","latitude":"49.48361","longitude":"5.74194","population":"956","region":"44","departement":"54","arrondissement":"541","commune":"54151"},
{"name":"Rédange","latitude":"49.4946","longitude":"5.9201","population":"954","region":"44","departement":"57","arrondissement":"578","commune":"57565"},
{"name":"Pierrepont","latitude":"49.41583","longitude":"5.71139","population":"921","region":"44","departement":"54","arrondissement":"541","commune":"54428"},
{"name":"Errouville","latitude":"49.41611","longitude":"5.90278","population":"784","region":"44","departement":"54","arrondissement":"541","commune":"54181"},
{"name":"Ugny","latitude":"49.47139","longitude":"5.69861","population":"720","region":"44","departement":"54","arrondissement":"541","commune":"54537"},
{"name":"Beuveille","latitude":"49.43194","longitude":"5.69028","population":"704","region":"44","departement":"54","arrondissement":"541","commune":"54067"},
{"name":"Viviers-sur-Chiers","latitude":"49.47306","longitude":"5.63361","population":"678","region":"44","departement":"54","arrondissement":"541","commune":"54590"},
{"name":"Tiercelet","latitude":"49.46194","longitude":"5.88417","population":"672","region":"44","departement":"54","arrondissement":"541","commune":"54525"},
{"name":"Ville-Houdlémont","latitude":"49.54415","longitude":"5.64723","population":"618","region":"44","departement":"54","arrondissement":"541","commune":"54572"},
{"name":"Serrouville","latitude":"49.39861","longitude":"5.88778","population":"614","region":"44","departement":"54","arrondissement":"541","commune":"54504"},
{"name":"Chenières","latitude":"49.47111","longitude":"5.76556","population":"607","region":"44","departement":"54","arrondissement":"541","commune":"54127"},
{"name":"Tellancourt","latitude":"49.50806","longitude":"5.63333","population":"574","region":"44","departement":"54","arrondissement":"541","commune":"54514"},
{"name":"Baslieux","latitude":"49.43333","longitude":"5.75917","population":"573","region":"44","departement":"54","arrondissement":"541","commune":"54049"},
{"name":"Cons-la-Grandville","latitude":"49.48417","longitude":"5.70111","population":"573","region":"44","departement":"54","arrondissement":"541","commune":"54137"},
{"name":"Villers-la-Chèvre","latitude":"49.50444","longitude":"5.69361","population":"539","region":"44","departement":"54","arrondissement":"541","commune":"54574"},
{"name":"Montigny-sur-Chiers","latitude":"49.47972","longitude":"5.66917","population":"474","region":"44","departement":"54","arrondissement":"541","commune":"54378"},
{"name":"Boismont","latitude":"49.40611","longitude":"5.73944","population":"471","region":"44","departement":"54","arrondissement":"541","commune":"54081"},
{"name":"Fillières","latitude":"49.40333","longitude":"5.84361","population":"468","region":"44","departement":"54","arrondissement":"541","commune":"54194"},
{"name":"Arrancy-sur-Crusne","latitude":"49.4136","longitude":"5.6591","population":"463","region":"44","departement":"55","arrondissement":"553","commune":"55013"},
{"name":"Fresnois-la-Montagne","latitude":"49.49444","longitude":"5.64583","population":"415","region":"44","departement":"54","arrondissement":"541","commune":"54212"},
{"name":"Beuvillers","latitude":"49.38361","longitude":"5.91528","population":"337","region":"44","departement":"54","arrondissement":"541","commune":"54069"},
{"name":"Saint-Pancré","latitude":"49.52917","longitude":"5.64833","population":"312","region":"44","departement":"54","arrondissement":"541","commune":"54485"},
{"name":"Bréhain-la-Ville","latitude":"49.4375","longitude":"5.88139","population":"285","region":"44","departement":"54","arrondissement":"541","commune":"54096"},
{"name":"Doncourt-lès-Longuyon","latitude":"49.43917","longitude":"5.71222","population":"284","region":"44","departement":"54","arrondissement":"541","commune":"54172"},
{"name":"Ville-au-Montois","latitude":"49.41139","longitude":"5.78222","population":"266","region":"44","departement":"54","arrondissement":"541","commune":"54568"},
{"name":"Laix","latitude":"49.44667","longitude":"5.78","population":"214","region":"44","departement":"54","arrondissement":"541","commune":"54290"},
{"name":"Bazailles","latitude":"49.4082","longitude":"5.7662","population":"169","region":"44","departement":"54","arrondissement":"541","commune":"54056"},
{"name":"Joppécourt","latitude":"49.38806","longitude":"5.79528","population":"141","region":"44","departement":"54","arrondissement":"541","commune":"54282"},
{"name":"Han-devant-Pierrepont","latitude":"49.3974","longitude":"5.7077","population":"131","region":"44","departement":"54","arrondissement":"541","commune":"54602"}
]