[
{"name":"Lure","latitude":"47.68306","longitude":"6.49667","population":"8295","region":"27","departement":"70","arrondissement":"701","commune":"70310"},
{"name":"Ronchamp","latitude":"47.70028","longitude":"6.63333","population":"2899","region":"27","departement":"70","arrondissement":"701","commune":"70451"},
{"name":"Mélisey","latitude":"47.75306","longitude":"6.58","population":"1699","region":"27","departement":"70","arrondissement":"701","commune":"70339"},
{"name":"Villersexel","latitude":"47.55","longitude":"6.43333","population":"1472","region":"27","departement":"70","arrondissement":"701","commune":"70561"},
{"name":"Arcey","latitude":"47.52222","longitude":"6.66083","population":"1394","region":"27","departement":"25","arrondissement":"252","commune":"25022"},
{"name":"Saint-Germain","latitude":"47.72194","longitude":"6.53056","population":"1303","region":"27","departement":"70","arrondissement":"701","commune":"70464"},
{"name":"Roye","latitude":"47.66917","longitude":"6.54278","population":"1303","region":"27","departement":"70","arrondissement":"701","commune":"70455"},
{"name":"Magny-Vernois","latitude":"47.66861","longitude":"6.47417","population":"1270","region":"27","departement":"70","arrondissement":"701","commune":"70321"},
{"name":"Saint-Barthélemy","latitude":"47.74917","longitude":"6.58806","population":"1151","region":"27","departement":"70","arrondissement":"701","commune":"70459"},
{"name":"Citers","latitude":"47.74","longitude":"6.40389","population":"839","region":"27","departement":"70","arrondissement":"701","commune":"70155"},
{"name":"Saulnot","latitude":"47.5625","longitude":"6.63333","population":"783","region":"27","departement":"70","arrondissement":"701","commune":"70477"},
{"name":"Désandans","latitude":"47.53306","longitude":"6.67722","population":"714","region":"27","departement":"25","arrondissement":"252","commune":"25198"},
{"name":"Esprels","latitude":"47.53639","longitude":"6.3725","population":"692","region":"27","departement":"70","arrondissement":"702","commune":"70219"},
{"name":"Vy-lès-Lure","latitude":"47.6475","longitude":"6.44694","population":"663","region":"27","departement":"70","arrondissement":"701","commune":"70581"},
{"name":"Athesans-Étroitefontaine","latitude":"47.5965","longitude":"6.5105","population":"639","region":"27","departement":"70","arrondissement":"701","commune":"70031"},
{"name":"Frotey-lès-Lure","latitude":"47.655","longitude":"6.55417","population":"627","region":"27","departement":"70","arrondissement":"701","commune":"70260"},
{"name":"Moffans-et-Vacheresse","latitude":"47.62917","longitude":"6.55056","population":"625","region":"27","departement":"70","arrondissement":"701","commune":"70348"},
{"name":"La Côte","latitude":"47.68694","longitude":"6.57194","population":"521","region":"27","departement":"70","arrondissement":"701","commune":"70178"},
{"name":"Magny-Danigon","latitude":"47.6748","longitude":"6.6032","population":"450","region":"27","departement":"70","arrondissement":"701","commune":"70318"},
{"name":"Gouhenans","latitude":"47.60694","longitude":"6.46944","population":"434","region":"27","departement":"70","arrondissement":"701","commune":"70271"},
{"name":"Clairegoutte","latitude":"47.66361","longitude":"6.62139","population":"417","region":"27","departement":"70","arrondissement":"701","commune":"70157"},
{"name":"Franchevelle","latitude":"47.74028","longitude":"6.46111","population":"410","region":"27","departement":"70","arrondissement":"701","commune":"70250"},
{"name":"Vouhenans","latitude":"47.65083","longitude":"6.48139","population":"403","region":"27","departement":"70","arrondissement":"701","commune":"70577"},
{"name":"Lyoffans","latitude":"47.64806","longitude":"6.58111","population":"389","region":"27","departement":"70","arrondissement":"701","commune":"70313"},
{"name":"Amblans-et-Velotte","latitude":"47.67833","longitude":"6.41083","population":"385","region":"27","departement":"70","arrondissement":"701","commune":"70014"},
{"name":"Malbouhans","latitude":"47.71167","longitude":"6.58","population":"381","region":"27","departement":"70","arrondissement":"701","commune":"70328"},
{"name":"Lomont","latitude":"47.62417","longitude":"6.61389","population":"379","region":"27","departement":"70","arrondissement":"701","commune":"70306"},
{"name":"Lantenot","latitude":"47.74944","longitude":"6.49583","population":"367","region":"27","departement":"70","arrondissement":"701","commune":"70294"},
{"name":"Granges-le-Bourg","latitude":"47.565","longitude":"6.58583","population":"362","region":"27","departement":"70","arrondissement":"701","commune":"70277"},
{"name":"Froideterre","latitude":"47.70694","longitude":"6.53194","population":"353","region":"27","departement":"70","arrondissement":"701","commune":"70259"},
{"name":"Quers","latitude":"47.73472","longitude":"6.42556","population":"353","region":"27","departement":"70","arrondissement":"701","commune":"70432"},
{"name":"Mignavillers","latitude":"47.58056","longitude":"6.55167","population":"337","region":"27","departement":"70","arrondissement":"701","commune":"70347"},
{"name":"La Neuvelle-lès-Lure","latitude":"47.71833","longitude":"6.55528","population":"334","region":"27","departement":"70","arrondissement":"701","commune":"70385"},
{"name":"Les Aynans","latitude":"47.62111","longitude":"6.45278","population":"312","region":"27","departement":"70","arrondissement":"701","commune":"70046"},
{"name":"Adelans-et-le-Val-de-Bithaine","latitude":"47.7099","longitude":"6.398","population":"311","region":"27","departement":"70","arrondissement":"701","commune":"70004"},
{"name":"Étobon","latitude":"47.64333","longitude":"6.67639","population":"301","region":"27","departement":"70","arrondissement":"701","commune":"70221"},
{"name":"Bouhans-lès-Lure","latitude":"47.69472","longitude":"6.42278","population":"298","region":"27","departement":"70","arrondissement":"701","commune":"70081"},
{"name":"Senargent-Mignafans","latitude":"47.565","longitude":"6.5267","population":"287","region":"27","departement":"70","arrondissement":"701","commune":"70487"},
{"name":"Dambenoît-lès-Colombe","latitude":"47.7225","longitude":"6.3854","population":"274","region":"27","departement":"70","arrondissement":"701","commune":"70195"},
{"name":"Crevans-et-la-Chapelle-lès-Granges","latitude":"47.55194","longitude":"6.58528","population":"273","region":"27","departement":"70","arrondissement":"701","commune":"70187"},
{"name":"Frédéric-Fontaine","latitude":"47.65667","longitude":"6.62944","population":"263","region":"27","departement":"70","arrondissement":"701","commune":"70254"},
{"name":"Faymont","latitude":"47.60944","longitude":"6.59417","population":"256","region":"27","departement":"70","arrondissement":"701","commune":"70229"},
{"name":"Mollans","latitude":"47.64917","longitude":"6.37028","population":"246","region":"27","departement":"70","arrondissement":"701","commune":"70351"},
{"name":"Chavanne","latitude":"47.55778","longitude":"6.65806","population":"238","region":"27","departement":"70","arrondissement":"701","commune":"70147"},
{"name":"Arpenans","latitude":"47.61611","longitude":"6.40333","population":"235","region":"27","departement":"70","arrondissement":"701","commune":"70029"},
{"name":"Autrey-lès-Cerre","latitude":"47.60889","longitude":"6.34806","population":"233","region":"27","departement":"70","arrondissement":"702","commune":"70040"},
{"name":"Borey","latitude":"47.59333","longitude":"6.35722","population":"232","region":"27","departement":"70","arrondissement":"702","commune":"70077"},
{"name":"Moimay","latitude":"47.55278","longitude":"6.40861","population":"227","region":"27","departement":"70","arrondissement":"701","commune":"70349"},
{"name":"Granges-la-Ville","latitude":"47.56667","longitude":"6.5725","population":"224","region":"27","departement":"70","arrondissement":"701","commune":"70276"},
{"name":"Andornay","latitude":"47.65556","longitude":"6.59667","population":"201","region":"27","departement":"70","arrondissement":"701","commune":"70021"},
{"name":"Villafans","latitude":"47.58111","longitude":"6.47222","population":"197","region":"27","departement":"70","arrondissement":"701","commune":"70552"},
{"name":"Pomoy","latitude":"47.6625","longitude":"6.35361","population":"186","region":"27","departement":"70","arrondissement":"701","commune":"70416"},
{"name":"Palante","latitude":"47.65889","longitude":"6.585","population":"177","region":"27","departement":"70","arrondissement":"701","commune":"70403"},
{"name":"Genevreuille","latitude":"47.67","longitude":"6.37778","population":"172","region":"27","departement":"70","arrondissement":"701","commune":"70262"},
{"name":"Mélecey","latitude":"47.51944","longitude":"6.49028","population":"169","region":"27","departement":"70","arrondissement":"701","commune":"70336"},
{"name":"Montessaux","latitude":"47.74083","longitude":"6.56611","population":"164","region":"27","departement":"70","arrondissement":"701","commune":"70361"},
{"name":"Villers-la-Ville","latitude":"47.54861","longitude":"6.46194","population":"163","region":"27","departement":"70","arrondissement":"701","commune":"70562"},
{"name":"Vellechevreux-et-Courbenans","latitude":"47.5398","longitude":"6.5393","population":"159","region":"27","departement":"70","arrondissement":"701","commune":"70530"},
{"name":"Marvelise","latitude":"47.52222","longitude":"6.59222","population":"157","region":"27","departement":"25","arrondissement":"252","commune":"25369"},
{"name":"Villers-sur-Saulnot","latitude":"47.54944","longitude":"6.64722","population":"156","region":"27","departement":"70","arrondissement":"701","commune":"70567"},
{"name":"Le Vernoy","latitude":"47.55972","longitude":"6.67556","population":"155","region":"27","departement":"25","arrondissement":"252","commune":"25608"},
{"name":"Secenans","latitude":"47.55333","longitude":"6.57444","population":"154","region":"27","departement":"70","arrondissement":"701","commune":"70484"},
{"name":"Aillevans","latitude":"47.59139","longitude":"6.41528","population":"145","region":"27","departement":"70","arrondissement":"701","commune":"70005"},
{"name":"Saint-Sulpice","latitude":"47.56611","longitude":"6.4475","population":"135","region":"27","departement":"70","arrondissement":"701","commune":"70474"},
{"name":"Les Magny","latitude":"47.52639","longitude":"6.45389","population":"133","region":"27","departement":"70","arrondissement":"701","commune":"70317"},
{"name":"Montjustin-et-Velotte","latitude":"47.6145","longitude":"6.3746","population":"132","region":"27","departement":"70","arrondissement":"702","commune":"70364"},
{"name":"Liévans","latitude":"47.6375","longitude":"6.3475","population":"132","region":"27","departement":"70","arrondissement":"702","commune":"70303"},
{"name":"Linexert","latitude":"47.74361","longitude":"6.4825","population":"129","region":"27","departement":"70","arrondissement":"701","commune":"70304"},
{"name":"Belverne","latitude":"47.63083","longitude":"6.65083","population":"124","region":"27","departement":"70","arrondissement":"701","commune":"70064"},
{"name":"Villargent","latitude":"47.54167","longitude":"6.48583","population":"115","region":"27","departement":"70","arrondissement":"701","commune":"70553"},
{"name":"Longevelle","latitude":"47.5902","longitude":"6.4484","population":"113","region":"27","departement":"70","arrondissement":"701","commune":"70307"},
{"name":"La Vergenne","latitude":"47.61083","longitude":"6.52361","population":"110","region":"27","departement":"70","arrondissement":"701","commune":"70544"},
{"name":"Courmont","latitude":"47.61194","longitude":"6.62861","population":"102","region":"27","departement":"70","arrondissement":"701","commune":"70182"},
{"name":"Magny-Jobert","latitude":"47.64929","longitude":"6.59548","population":"100","region":"27","departement":"70","arrondissement":"701","commune":"70319"},
{"name":"Beveuge","latitude":"47.55833","longitude":"6.48278","population":"89","region":"27","departement":"70","arrondissement":"701","commune":"70072"},
{"name":"Betoncourt-lès-Brotte","latitude":"47.74167","longitude":"6.34194","population":"88","region":"27","departement":"70","arrondissement":"701","commune":"70067"},
{"name":"Gémonval","latitude":"47.53222","longitude":"6.58861","population":"84","region":"27","departement":"25","arrondissement":"252","commune":"25264"},
{"name":"Saint-Ferjeux","latitude":"47.54361","longitude":"6.51","population":"81","region":"27","departement":"70","arrondissement":"701","commune":"70462"},
{"name":"La Creuse","latitude":"47.67556","longitude":"6.34722","population":"74","region":"27","departement":"70","arrondissement":"701","commune":"70186"},
{"name":"Autrey-le-Vay","latitude":"47.53806","longitude":"6.40083","population":"64","region":"27","departement":"70","arrondissement":"701","commune":"70042"},
{"name":"Georfans","latitude":"47.5362","longitude":"6.5132","population":"63","region":"27","departement":"70","arrondissement":"701","commune":"70264"},
{"name":"Le Val-de-Gouhenans","latitude":"47.62028","longitude":"6.485","population":"62","region":"27","departement":"70","arrondissement":"701","commune":"70515"},
{"name":"Pont-sur-l'Ognon","latitude":"47.52111","longitude":"6.38778","population":"57","region":"27","departement":"70","arrondissement":"701","commune":"70420"},
{"name":"Oppenans","latitude":"47.58889","longitude":"6.38028","population":"50","region":"27","departement":"70","arrondissement":"701","commune":"70395"},
{"name":"Marast","latitude":"47.5575","longitude":"6.3825","population":"42","region":"27","departement":"70","arrondissement":"701","commune":"70332"},
{"name":"Oricourt","latitude":"47.59528","longitude":"6.39306","population":"32","region":"27","departement":"70","arrondissement":"701","commune":"70396"}
]