[
{"name":"Chauvigny","latitude":"46.56861","longitude":"0.64667","population":"6848","region":"75","departement":"86","arrondissement":"862","commune":"86070"},
{"name":"Naintré","latitude":"46.76361","longitude":"0.48639","population":"5826","region":"75","departement":"86","arrondissement":"861","commune":"86174"},
{"name":"Jaunay-Clan","latitude":"46.68556","longitude":"0.37","population":"5816","region":"75","departement":"86","arrondissement":"863","commune":"86115"},
{"name":"Chasseneuil-du-Poitou","latitude":"46.65111","longitude":"0.37222","population":"4572","region":"75","departement":"86","arrondissement":"863","commune":"86062"},
{"name":"Saint-Georges-lès-Baillargeaux","latitude":"46.67083","longitude":"0.4","population":"3888","region":"75","departement":"86","arrondissement":"863","commune":"86222"},
{"name":"Montamisé","latitude":"46.62111","longitude":"0.42389","population":"3154","region":"75","departement":"86","arrondissement":"863","commune":"86163"},
{"name":"Dissay","latitude":"46.70083","longitude":"0.43167","population":"2966","region":"75","departement":"86","arrondissement":"863","commune":"86095"},
{"name":"Bonneuil-Matours","latitude":"46.68167","longitude":"0.57028","population":"2028","region":"75","departement":"86","arrondissement":"861","commune":"86032"},
{"name":"Vouneuil-sur-Vienne","latitude":"46.71694","longitude":"0.54","population":"1981","region":"75","departement":"86","arrondissement":"861","commune":"86298"},
{"name":"Sèvres-Anxaumont","latitude":"46.56972","longitude":"0.465","population":"1907","region":"75","departement":"86","arrondissement":"863","commune":"86261"},
{"name":"Cenon-sur-Vienne","latitude":"46.775","longitude":"0.53667","population":"1822","region":"75","departement":"86","arrondissement":"861","commune":"86046"},
{"name":"Beaumont","latitude":"46.73778","longitude":"0.42861","population":"1813","region":"75","departement":"86","arrondissement":"861","commune":"86019"},
{"name":"Bonnes","latitude":"46.60389","longitude":"0.59611","population":"1688","region":"75","departement":"86","arrondissement":"863","commune":"86031"},
{"name":"Availles-en-Châtellerault","latitude":"46.755","longitude":"0.5795","population":"1581","region":"75","departement":"86","arrondissement":"861","commune":"86014"},
{"name":"Colombiers","latitude":"46.77222","longitude":"0.42583","population":"1482","region":"75","departement":"86","arrondissement":"861","commune":"86081"},
{"name":"Marigny-Brizay","latitude":"46.74556","longitude":"0.37583","population":"1142","region":"75","departement":"86","arrondissement":"863","commune":"86146"},
{"name":"Lavoux","latitude":"46.59556","longitude":"0.52944","population":"1117","region":"75","departement":"86","arrondissement":"863","commune":"86124"},
{"name":"Jardres","latitude":"46.56889","longitude":"0.565","population":"1090","region":"75","departement":"86","arrondissement":"863","commune":"86114"},
{"name":"Archigny","latitude":"46.67306","longitude":"0.65167","population":"1049","region":"75","departement":"86","arrondissement":"861","commune":"86009"},
{"name":"Bignoux","latitude":"46.59917","longitude":"0.46944","population":"1044","region":"75","departement":"86","arrondissement":"863","commune":"86028"},
{"name":"Saint-Cyr","latitude":"46.71639","longitude":"0.45361","population":"1024","region":"75","departement":"86","arrondissement":"863","commune":"86219"},
{"name":"Ouzilly","latitude":"46.77639","longitude":"0.36167","population":"848","region":"75","departement":"86","arrondissement":"861","commune":"86184"},
{"name":"Monthoiron","latitude":"46.73361","longitude":"0.62","population":"665","region":"75","departement":"86","arrondissement":"861","commune":"86164"},
{"name":"La Chapelle-Moulière","latitude":"46.64944","longitude":"0.565","population":"640","region":"75","departement":"86","arrondissement":"863","commune":"86058"},
{"name":"Liniers","latitude":"46.61028","longitude":"0.53639","population":"517","region":"75","departement":"86","arrondissement":"863","commune":"86135"},
{"name":"Chenevelles","latitude":"46.728","longitude":"0.6542","population":"476","region":"75","departement":"86","arrondissement":"861","commune":"86072"},
{"name":"Bellefonds","latitude":"46.6461","longitude":"0.5921","population":"233","region":"75","departement":"86","arrondissement":"861","commune":"86020"},
{"name":"Sainte-Radégonde","latitude":"46.61831","longitude":"0.70004","population":"144","region":"75","departement":"86","arrondissement":"862","commune":"86239"}
]