[
{"name":"Confolens","latitude":"46.01361","longitude":"0.67222","population":"2799","region":"75","departement":"16","arrondissement":"163","commune":"16106"},
{"name":"Roumazières-Loubert","latitude":"45.895","longitude":"0.57528","population":"2543","region":"75","departement":"16","arrondissement":"163","commune":"16192"},
{"name":"Exideuil","latitude":"45.88611","longitude":"0.67361","population":"1092","region":"75","departement":"16","arrondissement":"163","commune":"16134"},
{"name":"Saint-Claud","latitude":"45.89528","longitude":"0.465","population":"1084","region":"75","departement":"16","arrondissement":"163","commune":"16308"},
{"name":"Champagne-Mouton","latitude":"45.99111","longitude":"0.41083","population":"970","region":"75","departement":"16","arrondissement":"163","commune":"16076"},
{"name":"Saint-Maurice-des-Lions","latitude":"45.965","longitude":"0.70194","population":"955","region":"75","departement":"16","arrondissement":"163","commune":"16337"},
{"name":"Nieuil","latitude":"45.87861","longitude":"0.50139","population":"922","region":"75","departement":"16","arrondissement":"163","commune":"16245"},
{"name":"Ansac-sur-Vienne","latitude":"45.99306","longitude":"0.64694","population":"823","region":"75","departement":"16","arrondissement":"163","commune":"16016"},
{"name":"Saint-Laurent-de-Céris","latitude":"45.94139","longitude":"0.48111","population":"768","region":"75","departement":"16","arrondissement":"163","commune":"16329"},
{"name":"Chirac","latitude":"45.91389","longitude":"0.655","population":"723","region":"75","departement":"16","arrondissement":"163","commune":"16100"},
{"name":"Genouillac","latitude":"45.85314","longitude":"0.57223","population":"595","region":"75","departement":"16","arrondissement":"163","commune":"16149"},
{"name":"Manot","latitude":"45.94278","longitude":"0.6375","population":"591","region":"75","departement":"16","arrondissement":"163","commune":"16205"},
{"name":"Lessac","latitude":"46.06861","longitude":"0.67556","population":"588","region":"75","departement":"16","arrondissement":"163","commune":"16181"},
{"name":"Cellefrouin","latitude":"45.89111","longitude":"0.39083","population":"551","region":"75","departement":"16","arrondissement":"163","commune":"16068"},
{"name":"Alloue","latitude":"46.02639","longitude":"0.51528","population":"527","region":"75","departement":"16","arrondissement":"163","commune":"16007"},
{"name":"La Péruse","latitude":"45.8775","longitude":"0.61778","population":"507","region":"75","departement":"16","arrondissement":"163","commune":"16259"},
{"name":"Ambernac","latitude":"45.98028","longitude":"0.54167","population":"405","region":"75","departement":"16","arrondissement":"163","commune":"16009"},
{"name":"Suaux","latitude":"45.85167","longitude":"0.50639","population":"382","region":"75","departement":"16","arrondissement":"163","commune":"16375"},
{"name":"Saint-Mary","latitude":"45.8325","longitude":"0.3896","population":"378","region":"75","departement":"16","arrondissement":"163","commune":"16336"},
{"name":"Benest","latitude":"46.03833","longitude":"0.45194","population":"356","region":"75","departement":"16","arrondissement":"163","commune":"16038"},
{"name":"Lussac","latitude":"45.8613","longitude":"0.4643","population":"290","region":"75","departement":"16","arrondissement":"163","commune":"16195"},
{"name":"Beaulieu-sur-Sonnette","latitude":"45.92444","longitude":"0.38361","population":"288","region":"75","departement":"16","arrondissement":"163","commune":"16035"},
{"name":"Suris","latitude":"45.84944","longitude":"0.63722","population":"279","region":"75","departement":"16","arrondissement":"163","commune":"16376"},
{"name":"Hiesse","latitude":"46.05611","longitude":"0.59139","population":"251","region":"75","departement":"16","arrondissement":"163","commune":"16164"},
{"name":"Saint-Quentin-sur-Charente","latitude":"45.83806","longitude":"0.67028","population":"220","region":"75","departement":"16","arrondissement":"163","commune":"16345"},
{"name":"Saint-Coutant","latitude":"45.9954","longitude":"0.4598","population":"215","region":"75","departement":"16","arrondissement":"163","commune":"16310"},
{"name":"Épenède","latitude":"46.06361","longitude":"0.53722","population":"208","region":"75","departement":"16","arrondissement":"163","commune":"16128"},
{"name":"Le Bouchage","latitude":"46.04806","longitude":"0.37806","population":"167","region":"75","departement":"16","arrondissement":"163","commune":"16054"},
{"name":"Chassiecq","latitude":"45.95389","longitude":"0.37917","population":"167","region":"75","departement":"16","arrondissement":"163","commune":"16087"},
{"name":"Le Grand-Madieu","latitude":"45.94","longitude":"0.44472","population":"162","region":"75","departement":"16","arrondissement":"163","commune":"16157"},
{"name":"Le Vieux-Cérier","latitude":"45.96583","longitude":"0.44472","population":"139","region":"75","departement":"16","arrondissement":"163","commune":"16403"},
{"name":"Parzac","latitude":"45.93333","longitude":"0.41667","population":"133","region":"75","departement":"16","arrondissement":"163","commune":"16255"},
{"name":"Vieux-Ruffec","latitude":"46.00944","longitude":"0.38806","population":"111","region":"75","departement":"16","arrondissement":"163","commune":"16404"},
{"name":"La Tâche","latitude":"45.8676","longitude":"0.3563","population":"106","region":"75","departement":"16","arrondissement":"163","commune":"16377"},
{"name":"Mazières","latitude":"45.83639","longitude":"0.57056","population":"100","region":"75","departement":"16","arrondissement":"163","commune":"16214"},
{"name":"Turgon","latitude":"45.95","longitude":"0.4","population":"93","region":"75","departement":"16","arrondissement":"163","commune":"16389"}
]