[
{"name":"La Porte du Der","latitude":"48.47778","longitude":"4.77","population":"2085","region":"44","departement":"52","arrondissement":"523","commune":"52331"},
{"name":"Éclaron-Braucourt-Sainte-Livière","latitude":"48.591","longitude":"4.8671","population":"1991","region":"44","departement":"52","arrondissement":"523","commune":"52182"},
{"name":"Villiers-en-Lieu","latitude":"48.66667","longitude":"4.9","population":"1582","region":"44","departement":"52","arrondissement":"523","commune":"52534"},
{"name":"Louvemont","latitude":"48.55111","longitude":"4.90917","population":"755","region":"44","departement":"52","arrondissement":"523","commune":"52294"},
{"name":"Humbécourt","latitude":"48.58278","longitude":"4.90139","population":"736","region":"44","departement":"52","arrondissement":"523","commune":"52244"},
{"name":"Chavanges","latitude":"48.50861","longitude":"4.57417","population":"665","region":"44","departement":"10","arrondissement":"101","commune":"10094"},
{"name":"Ceffonds","latitude":"48.47","longitude":"4.76333","population":"622","region":"44","departement":"52","arrondissement":"523","commune":"52088"},
{"name":"Valcourt","latitude":"48.61667","longitude":"4.90444","population":"615","region":"44","departement":"52","arrondissement":"523","commune":"52500"},
{"name":"Saint-Remy-en-Bouzemont-Saint-Genest-et-Isson","latitude":"48.6297","longitude":"4.6466","population":"588","region":"44","departement":"51","arrondissement":"514","commune":"51513"},
{"name":"Perthes","latitude":"48.6558","longitude":"4.8239","population":"555","region":"44","departement":"52","arrondissement":"523","commune":"52386"},
{"name":"Thiéblemont-Farémont","latitude":"48.69028","longitude":"4.73028","population":"517","region":"44","departement":"51","arrondissement":"514","commune":"51567"},
{"name":"Voillecomte","latitude":"48.50583","longitude":"4.865","population":"467","region":"44","departement":"52","arrondissement":"523","commune":"52543"},
{"name":"Moëslains","latitude":"48.62056","longitude":"4.89528","population":"453","region":"44","departement":"52","arrondissement":"523","commune":"52327"},
{"name":"Saint-Eulien","latitude":"48.68333","longitude":"4.88333","population":"435","region":"44","departement":"51","arrondissement":"514","commune":"51478"},
{"name":"Orconte","latitude":"48.66972","longitude":"4.73556","population":"416","region":"44","departement":"51","arrondissement":"514","commune":"51417"},
{"name":"Allichamps","latitude":"48.56056","longitude":"4.89278","population":"401","region":"44","departement":"52","arrondissement":"523","commune":"52006"},
{"name":"Bignicourt-sur-Marne","latitude":"48.68222","longitude":"4.60889","population":"386","region":"44","departement":"51","arrondissement":"514","commune":"51059"},
{"name":"Arzillières-Neuville","latitude":"48.645","longitude":"4.589","population":"354","region":"44","departement":"51","arrondissement":"514","commune":"51017"},
{"name":"Sapignicourt","latitude":"48.65083","longitude":"4.81333","population":"346","region":"44","departement":"51","arrondissement":"514","commune":"51522"},
{"name":"Blaise-sous-Arzillières","latitude":"48.67167","longitude":"4.58361","population":"342","region":"44","departement":"51","arrondissement":"514","commune":"51066"},
{"name":"Larzicourt","latitude":"48.63583","longitude":"4.71222","population":"308","region":"44","departement":"51","arrondissement":"514","commune":"51316"},
{"name":"Planrupt","latitude":"48.50833","longitude":"4.78361","population":"306","region":"44","departement":"52","arrondissement":"523","commune":"52391"},
{"name":"Hallignicourt","latitude":"48.64306","longitude":"4.87028","population":"290","region":"44","departement":"52","arrondissement":"523","commune":"52235"},
{"name":"Arrigny","latitude":"48.62361","longitude":"4.70694","population":"269","region":"44","departement":"51","arrondissement":"514","commune":"51016"},
{"name":"Giffaumont-Champaubert","latitude":"48.555","longitude":"4.7537","population":"261","region":"44","departement":"51","arrondissement":"514","commune":"51269"},
{"name":"Sainte-Marie-du-Lac-Nuisement","latitude":"48.6063","longitude":"4.7771","population":"251","region":"44","departement":"51","arrondissement":"514","commune":"51277"},
{"name":"Gigny-Bussy","latitude":"48.6063","longitude":"4.571","population":"248","region":"44","departement":"51","arrondissement":"514","commune":"51270"},
{"name":"Hauteville","latitude":"48.6378","longitude":"4.7708","population":"227","region":"44","departement":"51","arrondissement":"514","commune":"51286"},
{"name":"Ambrières","latitude":"48.63417","longitude":"4.8375","population":"225","region":"44","departement":"51","arrondissement":"514","commune":"51008"},
{"name":"Heiltz-le-Hutier","latitude":"48.68861","longitude":"4.76778","population":"222","region":"44","departement":"51","arrondissement":"514","commune":"51288"},
{"name":"Vouillers","latitude":"48.68139","longitude":"4.83417","population":"216","region":"44","departement":"51","arrondissement":"514","commune":"51654"},
{"name":"Rives Dervoises","latitude":"48.49417","longitude":"4.70028","population":"208","region":"44","departement":"52","arrondissement":"523","commune":"52411"},
{"name":"Laneuville-au-Pont","latitude":"48.62944","longitude":"4.85806","population":"183","region":"44","departement":"52","arrondissement":"523","commune":"52267"},
{"name":"Norrois","latitude":"48.67","longitude":"4.62528","population":"181","region":"44","departement":"51","arrondissement":"514","commune":"51406"},
{"name":"Drosnay","latitude":"48.57444","longitude":"4.61333","population":"176","region":"44","departement":"51","arrondissement":"514","commune":"51219"},
{"name":"Frampas","latitude":"48.51889","longitude":"4.82139","population":"158","region":"44","departement":"52","arrondissement":"523","commune":"52206"},
{"name":"Outines","latitude":"48.55444","longitude":"4.65028","population":"149","region":"44","departement":"51","arrondissement":"514","commune":"51419"},
{"name":"Landricourt","latitude":"48.61639","longitude":"4.81056","population":"145","region":"44","departement":"51","arrondissement":"514","commune":"51315"},
{"name":"Bailly-aux-Forges","latitude":"48.46194","longitude":"4.91444","population":"132","region":"44","departement":"52","arrondissement":"523","commune":"52034"},
{"name":"Cloyes-sur-Marne","latitude":"48.66306","longitude":"4.63778","population":"119","region":"44","departement":"51","arrondissement":"514","commune":"51156"},
{"name":"Matignicourt-Goncourt","latitude":"48.67667","longitude":"4.68139","population":"114","region":"44","departement":"51","arrondissement":"514","commune":"51356"},
{"name":"Isle-sur-Marne","latitude":"48.64056","longitude":"4.68833","population":"112","region":"44","departement":"51","arrondissement":"514","commune":"51300"},
{"name":"Moncetz-l'Abbaye","latitude":"48.64944","longitude":"4.65528","population":"108","region":"44","departement":"51","arrondissement":"514","commune":"51373"},
{"name":"Lentilles","latitude":"48.48361","longitude":"4.61139","population":"92","region":"44","departement":"10","arrondissement":"101","commune":"10192"},
{"name":"Joncreuil","latitude":"48.5225","longitude":"4.61278","population":"85","region":"44","departement":"10","arrondissement":"101","commune":"10180"},
{"name":"Châtillon-sur-Broué","latitude":"48.54583","longitude":"4.70306","population":"68","region":"44","departement":"51","arrondissement":"514","commune":"51135"},
{"name":"Villeret","latitude":"48.47694","longitude":"4.58889","population":"63","region":"44","departement":"10","arrondissement":"101","commune":"10424"},
{"name":"Écollemont","latitude":"48.62111","longitude":"4.7325","population":"58","region":"44","departement":"51","arrondissement":"514","commune":"51223"},
{"name":"Arrembécourt","latitude":"48.54278","longitude":"4.59722","population":"45","region":"44","departement":"10","arrondissement":"101","commune":"10010"},
{"name":"Bailly-le-Franc","latitude":"48.52306","longitude":"4.65417","population":"29","region":"44","departement":"10","arrondissement":"101","commune":"10026"},
{"name":"Laneuville-à-Rémy","latitude":"48.47315","longitude":"4.88351","population":"0","region":"44","departement":"52","arrondissement":"523","commune":"52266"}
]