[
{"name":"Signy-l'Abbaye","latitude":"49.6975","longitude":"4.42028","population":"1361","region":"44","departement":"08","arrondissement":"081","commune":"08419"},
{"name":"Rocquigny","latitude":"49.69028","longitude":"4.2475","population":"735","region":"44","departement":"08","arrondissement":"082","commune":"08366"},
{"name":"Launois-sur-Vence","latitude":"49.65333","longitude":"4.53778","population":"645","region":"44","departement":"08","arrondissement":"081","commune":"08248"},
{"name":"Rouvroy-sur-Audry","latitude":"49.78806","longitude":"4.49389","population":"570","region":"44","departement":"08","arrondissement":"081","commune":"08370"},
{"name":"Thin-le-Moutier","latitude":"49.71889","longitude":"4.50139","population":"564","region":"44","departement":"08","arrondissement":"081","commune":"08449"},
{"name":"Sormonne","latitude":"49.81056","longitude":"4.56639","population":"564","region":"44","departement":"08","arrondissement":"081","commune":"08429"},
{"name":"Liart","latitude":"49.77","longitude":"4.34167","population":"531","region":"44","departement":"08","arrondissement":"081","commune":"08254"},
{"name":"Harcy","latitude":"49.83611","longitude":"4.56333","population":"506","region":"44","departement":"08","arrondissement":"081","commune":"08212"},
{"name":"Chaumont-Porcien","latitude":"49.64944","longitude":"4.24722","population":"455","region":"44","departement":"08","arrondissement":"082","commune":"08113"},
{"name":"Rumigny","latitude":"49.80861","longitude":"4.26639","population":"377","region":"44","departement":"08","arrondissement":"081","commune":"08373"},
{"name":"Clavy-Warby","latitude":"49.75444","longitude":"4.55583","population":"352","region":"44","departement":"08","arrondissement":"081","commune":"08124"},
{"name":"Wasigny","latitude":"49.63278","longitude":"4.35667","population":"350","region":"44","departement":"08","arrondissement":"082","commune":"08499"},
{"name":"Aubigny-les-Pothées","latitude":"49.77611","longitude":"4.43583","population":"346","region":"44","departement":"08","arrondissement":"081","commune":"08026"},
{"name":"Jandun","latitude":"49.6629","longitude":"4.5575","population":"287","region":"44","departement":"08","arrondissement":"081","commune":"08236"},
{"name":"Remilly-les-Pothées","latitude":"49.78111","longitude":"4.53056","population":"261","region":"44","departement":"08","arrondissement":"081","commune":"08358"},
{"name":"Viel-Saint-Remy","latitude":"49.6296","longitude":"4.5035","population":"251","region":"44","departement":"08","arrondissement":"082","commune":"08472"},
{"name":"Laval-Morency","latitude":"49.83306","longitude":"4.49139","population":"246","region":"44","departement":"08","arrondissement":"081","commune":"08249"},
{"name":"Aouste","latitude":"49.7979","longitude":"4.3163","population":"202","region":"44","departement":"08","arrondissement":"081","commune":"08016"},
{"name":"Dommery","latitude":"49.67611","longitude":"4.47333","population":"191","region":"44","departement":"08","arrondissement":"081","commune":"08141"},
{"name":"Lalobbe","latitude":"49.66944","longitude":"4.37667","population":"190","region":"44","departement":"08","arrondissement":"081","commune":"08243"},
{"name":"Logny-Bogny","latitude":"49.7772","longitude":"4.3973","population":"189","region":"44","departement":"08","arrondissement":"081","commune":"08257"},
{"name":"Murtin-et-Bogny","latitude":"49.81694","longitude":"4.5375","population":"182","region":"44","departement":"08","arrondissement":"081","commune":"08312"},
{"name":"Villers-le-Tourneur","latitude":"49.62639","longitude":"4.56722","population":"182","region":"44","departement":"08","arrondissement":"082","commune":"08479"},
{"name":"Vaux-Villaine","latitude":"49.77083","longitude":"4.47222","population":"180","region":"44","departement":"08","arrondissement":"081","commune":"08468"},
{"name":"Le Châtelet-sur-Sormonne","latitude":"49.82722","longitude":"4.52111","population":"168","region":"44","departement":"08","arrondissement":"081","commune":"08110"},
{"name":"Hannappes","latitude":"49.82417","longitude":"4.23056","population":"159","region":"44","departement":"08","arrondissement":"081","commune":"08208"},
{"name":"La Neuville-lès-Wasigny","latitude":"49.6425","longitude":"4.35917","population":"159","region":"44","departement":"08","arrondissement":"082","commune":"08323"},
{"name":"Blanchefosse-et-Bay","latitude":"49.7772","longitude":"4.2362","population":"155","region":"44","departement":"08","arrondissement":"081","commune":"08069"},
{"name":"Marlemont","latitude":"49.74972","longitude":"4.37389","population":"145","region":"44","departement":"08","arrondissement":"081","commune":"08277"},
{"name":"Prez","latitude":"49.8","longitude":"4.35","population":"144","region":"44","departement":"08","arrondissement":"081","commune":"08344"},
{"name":"L'Échelle","latitude":"49.8006","longitude":"4.4747","population":"142","region":"44","departement":"08","arrondissement":"081","commune":"08149"},
{"name":"Saint-Jean-aux-Bois","latitude":"49.725","longitude":"4.30667","population":"142","region":"44","departement":"08","arrondissement":"082","commune":"08382"},
{"name":"La Romagne","latitude":"49.67889","longitude":"4.315","population":"129","region":"44","departement":"08","arrondissement":"082","commune":"08369"},
{"name":"Blombay","latitude":"49.82361","longitude":"4.45222","population":"119","region":"44","departement":"08","arrondissement":"081","commune":"08071"},
{"name":"Flaignes-Havys","latitude":"49.8186","longitude":"4.4018","population":"116","region":"44","departement":"08","arrondissement":"081","commune":"08169"},
{"name":"Wagnon","latitude":"49.62917","longitude":"4.42861","population":"109","region":"44","departement":"08","arrondissement":"082","commune":"08496"},
{"name":"Neuvizy","latitude":"49.62806","longitude":"4.53278","population":"109","region":"44","departement":"08","arrondissement":"082","commune":"08324"},
{"name":"Draize","latitude":"49.65722","longitude":"4.335","population":"102","region":"44","departement":"08","arrondissement":"082","commune":"08146"},
{"name":"Grandchamp","latitude":"49.6449","longitude":"4.4009","population":"101","region":"44","departement":"08","arrondissement":"082","commune":"08196"},
{"name":"Montmeillant","latitude":"49.6925","longitude":"4.33056","population":"98","region":"44","departement":"08","arrondissement":"082","commune":"08307"},
{"name":"Doumely-Bégny","latitude":"49.6287","longitude":"4.301","population":"98","region":"44","departement":"08","arrondissement":"082","commune":"08143"},
{"name":"Mesmont","latitude":"49.61528","longitude":"4.40028","population":"97","region":"44","departement":"08","arrondissement":"082","commune":"08288"},
{"name":"Lépron-les-Vallées","latitude":"49.761","longitude":"4.4531","population":"87","region":"44","departement":"08","arrondissement":"081","commune":"08251"},
{"name":"La Férée","latitude":"49.7628","longitude":"4.3028","population":"84","region":"44","departement":"08","arrondissement":"081","commune":"08167"},
{"name":"Givron","latitude":"49.64833","longitude":"4.29","population":"81","region":"44","departement":"08","arrondissement":"082","commune":"08192"},
{"name":"Estrebay","latitude":"49.82944","longitude":"4.355","population":"77","region":"44","departement":"08","arrondissement":"081","commune":"08154"},
{"name":"Les Autels","latitude":"49.76361","longitude":"4.225","population":"75","region":"32","departement":"02","arrondissement":"022","commune":"02038"},
{"name":"Le Fréty","latitude":"49.73917","longitude":"4.28222","population":"68","region":"44","departement":"08","arrondissement":"081","commune":"08182"},
{"name":"Marby","latitude":"49.8294","longitude":"4.4297","population":"66","region":"44","departement":"08","arrondissement":"081","commune":"08273"},
{"name":"Neufmaison","latitude":"49.76139","longitude":"4.50889","population":"57","region":"44","departement":"08","arrondissement":"081","commune":"08315"},
{"name":"Cernion","latitude":"49.7979","longitude":"4.4315","population":"55","region":"44","departement":"08","arrondissement":"081","commune":"08094"},
{"name":"Maranwez","latitude":"49.7286","longitude":"4.3433","population":"48","region":"44","departement":"08","arrondissement":"081","commune":"08272"}
]