[
{"name":"Albertville","latitude":"45.67583","longitude":"6.3925","population":"18967","region":"84","departement":"73","arrondissement":"731","commune":"73011"},
{"name":"Ugine","latitude":"45.75278","longitude":"6.41972","population":"7041","region":"84","departement":"73","arrondissement":"731","commune":"73303"},
{"name":"Gilly-sur-Isère","latitude":"45.65972","longitude":"6.34944","population":"2856","region":"84","departement":"73","arrondissement":"731","commune":"73124"},
{"name":"Mercury","latitude":"45.6741","longitude":"6.3377","population":"2790","region":"84","departement":"73","arrondissement":"731","commune":"73154"},
{"name":"Beaufort","latitude":"45.71806","longitude":"6.575","population":"2206","region":"84","departement":"73","arrondissement":"731","commune":"73034"},
{"name":"La Bâthie","latitude":"45.62694","longitude":"6.44944","population":"2109","region":"84","departement":"73","arrondissement":"731","commune":"73032"},
{"name":"Grignon","latitude":"45.65222","longitude":"6.37583","population":"1928","region":"84","departement":"73","arrondissement":"731","commune":"73130"},
{"name":"Marthod","latitude":"45.72583","longitude":"6.40361","population":"1381","region":"84","departement":"73","arrondissement":"731","commune":"73153"},
{"name":"Notre-Dame-des-Millières","latitude":"45.62667","longitude":"6.34389","population":"900","region":"84","departement":"73","arrondissement":"731","commune":"73188"},
{"name":"Flumet","latitude":"45.81944","longitude":"6.51694","population":"862","region":"84","departement":"73","arrondissement":"731","commune":"73114"},
{"name":"Queige","latitude":"45.71972","longitude":"6.45917","population":"858","region":"84","departement":"73","arrondissement":"731","commune":"73211"},
{"name":"Hauteluce","latitude":"45.75111","longitude":"6.58583","population":"851","region":"84","departement":"73","arrondissement":"731","commune":"73132"},
{"name":"Tours-en-Savoie","latitude":"45.65528","longitude":"6.44","population":"849","region":"84","departement":"73","arrondissement":"731","commune":"73298"},
{"name":"Val de Chaise","latitude":"45.76778","longitude":"6.34917","population":"837","region":"84","departement":"74","arrondissement":"741","commune":"74167"},
{"name":"Esserts-Blay","latitude":"45.61306","longitude":"6.43583","population":"734","region":"84","departement":"73","arrondissement":"731","commune":"73110"},
{"name":"Pallud","latitude":"45.68667","longitude":"6.39444","population":"694","region":"84","departement":"73","arrondissement":"731","commune":"73196"},
{"name":"Cevins","latitude":"45.59139","longitude":"6.45639","population":"674","region":"84","departement":"73","arrondissement":"731","commune":"73063"},
{"name":"Villard-sur-Doron","latitude":"45.72667","longitude":"6.52833","population":"656","region":"84","departement":"73","arrondissement":"731","commune":"73317"},
{"name":"Venthon","latitude":"45.68778","longitude":"6.41361","population":"605","region":"84","departement":"73","arrondissement":"731","commune":"73308"},
{"name":"Serraval","latitude":"45.80306","longitude":"6.33972","population":"594","region":"84","departement":"74","arrondissement":"741","commune":"74265"},
{"name":"Saint-Paul-sur-Isère","latitude":"45.59778","longitude":"6.43861","population":"521","region":"84","departement":"73","arrondissement":"731","commune":"73268"},
{"name":"Notre-Dame-de-Bellecombe","latitude":"45.80944","longitude":"6.51889","population":"517","region":"84","departement":"73","arrondissement":"731","commune":"73186"},
{"name":"Monthion","latitude":"45.63111","longitude":"6.35861","population":"460","region":"84","departement":"73","arrondissement":"731","commune":"73170"},
{"name":"Rognaix","latitude":"45.58528","longitude":"6.44611","population":"432","region":"84","departement":"73","arrondissement":"731","commune":"73216"},
{"name":"Saint-Nicolas-la-Chapelle","latitude":"45.80889","longitude":"6.50167","population":"409","region":"84","departement":"73","arrondissement":"731","commune":"73262"},
{"name":"Crest-Voland","latitude":"45.795","longitude":"6.50556","population":"390","region":"84","departement":"73","arrondissement":"731","commune":"73094"},
{"name":"Césarches","latitude":"45.70111","longitude":"6.41194","population":"389","region":"84","departement":"73","arrondissement":"731","commune":"73061"},
{"name":"Le Bouchet-Mont-Charvin","latitude":"45.7974","longitude":"6.3638","population":"239","region":"84","departement":"74","arrondissement":"741","commune":"74045"},
{"name":"Thénésol","latitude":"45.71222","longitude":"6.39694","population":"235","region":"84","departement":"73","arrondissement":"731","commune":"73292"},
{"name":"Allondaz","latitude":"45.70611","longitude":"6.37139","population":"222","region":"84","departement":"73","arrondissement":"731","commune":"73014"},
{"name":"Cohennoz","latitude":"45.7575","longitude":"6.48139","population":"162","region":"84","departement":"73","arrondissement":"731","commune":"73088"}
]