[
{"name":"Saint-Girons","latitude":"42.98472","longitude":"1.14583","population":"6608","region":"76","departement":"09","arrondissement":"093","commune":"09261"},
{"name":"Saint-Lizier","latitude":"43.00167","longitude":"1.13694","population":"1480","region":"76","departement":"09","arrondissement":"093","commune":"09268"},
{"name":"Lorp-Sentaraille","latitude":"43.0092","longitude":"1.1204","population":"1294","region":"76","departement":"09","arrondissement":"093","commune":"09289"},
{"name":"Montjoie-en-Couserans","latitude":"43.00167","longitude":"1.15944","population":"1046","region":"76","departement":"09","arrondissement":"093","commune":"09209"},
{"name":"Seix","latitude":"42.86444","longitude":"1.20083","population":"804","region":"76","departement":"09","arrondissement":"093","commune":"09285"},
{"name":"Moulis","latitude":"42.96111","longitude":"1.09083","population":"788","region":"76","departement":"09","arrondissement":"093","commune":"09214"},
{"name":"Massat","latitude":"42.88889","longitude":"1.34778","population":"702","region":"76","departement":"09","arrondissement":"093","commune":"09182"},
{"name":"Rimont","latitude":"42.99556","longitude":"1.28278","population":"578","region":"76","departement":"09","arrondissement":"093","commune":"09246"},
{"name":"Ercé","latitude":"42.84944","longitude":"1.28944","population":"560","region":"76","departement":"09","arrondissement":"093","commune":"09113"},
{"name":"Oust","latitude":"42.875","longitude":"1.215","population":"545","region":"76","departement":"09","arrondissement":"093","commune":"09223"},
{"name":"Eycheil","latitude":"42.96889","longitude":"1.16278","population":"540","region":"76","departement":"09","arrondissement":"093","commune":"09119"},
{"name":"Lescure","latitude":"43","longitude":"1.23333","population":"507","region":"76","departement":"09","arrondissement":"093","commune":"09164"},
{"name":"Castelnau-Durban","latitude":"43.00111","longitude":"1.34167","population":"418","region":"76","departement":"09","arrondissement":"093","commune":"09082"},
{"name":"Soueix-Rogalle","latitude":"42.8931","longitude":"1.2122","population":"391","region":"76","departement":"09","arrondissement":"093","commune":"09299"},
{"name":"Mercenac","latitude":"43.04028","longitude":"1.0775","population":"356","region":"76","departement":"09","arrondissement":"093","commune":"09187"},
{"name":"Soulan","latitude":"42.9138","longitude":"1.2338","population":"347","region":"76","departement":"09","arrondissement":"093","commune":"09301"},
{"name":"Caumont","latitude":"43.0308","longitude":"1.0862","population":"309","region":"76","departement":"09","arrondissement":"093","commune":"09086"},
{"name":"Biert","latitude":"42.89889","longitude":"1.31556","population":"295","region":"76","departement":"09","arrondissement":"093","commune":"09057"},
{"name":"Gajan","latitude":"43.0326","longitude":"1.1276","population":"290","region":"76","departement":"09","arrondissement":"093","commune":"09128"},
{"name":"Engomer","latitude":"42.94667","longitude":"1.05972","population":"271","region":"76","departement":"09","arrondissement":"093","commune":"09111"},
{"name":"Montesquieu-Avantès","latitude":"43.02333","longitude":"1.19667","population":"244","region":"76","departement":"09","arrondissement":"093","commune":"09204"},
{"name":"Taurignan-Vieux","latitude":"43.02806","longitude":"1.11417","population":"216","region":"76","departement":"09","arrondissement":"093","commune":"09308"},
{"name":"Le Port","latitude":"42.86917","longitude":"1.37306","population":"207","region":"76","departement":"09","arrondissement":"093","commune":"09231"},
{"name":"Lacourt","latitude":"42.94583","longitude":"1.17472","population":"199","region":"76","departement":"09","arrondissement":"093","commune":"09149"},
{"name":"Boussenac","latitude":"42.90389","longitude":"1.36917","population":"190","region":"76","departement":"09","arrondissement":"093","commune":"09065"},
{"name":"Rivèrenert","latitude":"42.95694","longitude":"1.22861","population":"187","region":"76","departement":"09","arrondissement":"093","commune":"09247"},
{"name":"Taurignan-Castet","latitude":"43.04","longitude":"1.09083","population":"161","region":"76","departement":"09","arrondissement":"093","commune":"09307"},
{"name":"Esplas-de-Sérou","latitude":"42.975","longitude":"1.3769","population":"158","region":"76","departement":"09","arrondissement":"093","commune":"09118"},
{"name":"Durban-sur-Arize","latitude":"43.01944","longitude":"1.34417","population":"155","region":"76","departement":"09","arrondissement":"091","commune":"09108"},
{"name":"Aleu","latitude":"42.89278","longitude":"1.26611","population":"151","region":"76","departement":"09","arrondissement":"093","commune":"09005"},
{"name":"Erp","latitude":"42.94139","longitude":"1.20028","population":"139","region":"76","departement":"09","arrondissement":"093","commune":"09114"},
{"name":"Alos","latitude":"42.9084","longitude":"1.1456","population":"128","region":"76","departement":"09","arrondissement":"093","commune":"09008"},
{"name":"Montgauch","latitude":"43.00028","longitude":"1.07528","population":"117","region":"76","departement":"09","arrondissement":"093","commune":"09208"},
{"name":"Encourtiech","latitude":"42.9597","longitude":"1.1825","population":"103","region":"76","departement":"09","arrondissement":"093","commune":"09110"},
{"name":"Bethmale","latitude":"42.8886","longitude":"1.0583","population":"96","region":"76","departement":"09","arrondissement":"093","commune":"09055"},
{"name":"Clermont","latitude":"43.03944","longitude":"1.30139","population":"91","region":"76","departement":"09","arrondissement":"093","commune":"09097"},
{"name":"Sentenac-d'Oust","latitude":"42.87583","longitude":"1.17806","population":"90","region":"76","departement":"09","arrondissement":"093","commune":"09291"},
{"name":"Montseron","latitude":"43.01861","longitude":"1.32444","population":"83","region":"76","departement":"09","arrondissement":"091","commune":"09212"},
{"name":"Montégut-en-Couserans","latitude":"42.98111","longitude":"1.09444","population":"70","region":"76","departement":"09","arrondissement":"093","commune":"09201"},
{"name":"Allières","latitude":"43.03611","longitude":"1.36583","population":"62","region":"76","departement":"09","arrondissement":"091","commune":"09007"},
{"name":"Contrazy","latitude":"43.05972","longitude":"1.21389","population":"59","region":"76","departement":"09","arrondissement":"093","commune":"09098"},
{"name":"Barjac","latitude":"43.06556","longitude":"1.13417","population":"37","region":"76","departement":"09","arrondissement":"093","commune":"09037"},
{"name":"Larbont","latitude":"42.99167","longitude":"1.40139","population":"37","region":"76","departement":"09","arrondissement":"091","commune":"09154"},
{"name":"Sentenac-de-Sérou","latitude":"42.97139","longitude":"1.38889","population":"36","region":"76","departement":"09","arrondissement":"091","commune":"09292"}
]