[
{"name":"Loches","latitude":"47.12861","longitude":"0.99528","population":"6478","region":"24","departement":"37","arrondissement":"373","commune":"37132"},
{"name":"Saint-Branchs","latitude":"47.22694","longitude":"0.77222","population":"2421","region":"24","departement":"37","arrondissement":"372","commune":"37211"},
{"name":"Ligueil","latitude":"47.04278","longitude":"0.81861","population":"2212","region":"24","departement":"37","arrondissement":"373","commune":"37130"},
{"name":"Truyes","latitude":"47.27278","longitude":"0.85","population":"2079","region":"24","departement":"37","arrondissement":"372","commune":"37263"},
{"name":"Beaulieu-lès-Loches","latitude":"47.1285","longitude":"1.016","population":"1745","region":"24","departement":"37","arrondissement":"373","commune":"37020"},
{"name":"Cormery","latitude":"47.26722","longitude":"0.83667","population":"1655","region":"24","departement":"37","arrondissement":"372","commune":"37083"},
{"name":"Perrusson","latitude":"47.1","longitude":"1.01306","population":"1532","region":"24","departement":"37","arrondissement":"373","commune":"37183"},
{"name":"Manthelan","latitude":"47.13556","longitude":"0.79306","population":"1351","region":"24","departement":"37","arrondissement":"373","commune":"37143"},
{"name":"Chambourg-sur-Indre","latitude":"47.18139","longitude":"0.96722","population":"1287","region":"24","departement":"37","arrondissement":"373","commune":"37049"},
{"name":"Tauxigny","latitude":"47.21389","longitude":"0.83444","population":"1240","region":"24","departement":"37","arrondissement":"373","commune":"37254"},
{"name":"Reignac-sur-Indre","latitude":"47.232","longitude":"0.917","population":"1209","region":"24","departement":"37","arrondissement":"373","commune":"37192"},
{"name":"Courçay","latitude":"47.25056","longitude":"0.87583","population":"813","region":"24","departement":"37","arrondissement":"372","commune":"37085"},
{"name":"Saint-Jean-Saint-Germain","latitude":"47.08278","longitude":"1.035","population":"714","region":"24","departement":"37","arrondissement":"373","commune":"37222"},
{"name":"Ferrière-sur-Beaulieu","latitude":"47.13778","longitude":"1.0375","population":"704","region":"24","departement":"37","arrondissement":"373","commune":"37108"},
{"name":"Dolus-le-Sec","latitude":"47.16472","longitude":"0.89278","population":"688","region":"24","departement":"37","arrondissement":"373","commune":"37097"},
{"name":"La Chapelle-Blanche-Saint-Martin","latitude":"47.08611","longitude":"0.79222","population":"657","region":"24","departement":"37","arrondissement":"373","commune":"37057"},
{"name":"Louans","latitude":"47.18417","longitude":"0.74639","population":"606","region":"24","departement":"37","arrondissement":"373","commune":"37134"},
{"name":"Chédigny","latitude":"47.2104","longitude":"0.9998","population":"534","region":"24","departement":"37","arrondissement":"373","commune":"37066"},
{"name":"Verneuil-sur-Indre","latitude":"47.05611","longitude":"1.04194","population":"505","region":"24","departement":"37","arrondissement":"373","commune":"37269"},
{"name":"Saint-Senoch","latitude":"47.04694","longitude":"0.96917","population":"482","region":"24","departement":"37","arrondissement":"373","commune":"37238"},
{"name":"Mouzay","latitude":"47.08944","longitude":"0.8925","population":"482","region":"24","departement":"37","arrondissement":"373","commune":"37162"},
{"name":"Saint-Quentin-sur-Indrois","latitude":"47.2032","longitude":"1.0241","population":"470","region":"24","departement":"37","arrondissement":"373","commune":"37234"},
{"name":"Le Louroux","latitude":"47.16056","longitude":"0.78639","population":"466","region":"24","departement":"37","arrondissement":"373","commune":"37136"},
{"name":"Ciran","latitude":"47.05972","longitude":"0.8725","population":"437","region":"24","departement":"37","arrondissement":"373","commune":"37078"},
{"name":"Azay-sur-Indre","latitude":"47.20889","longitude":"0.94528","population":"381","region":"24","departement":"37","arrondissement":"373","commune":"37016"},
{"name":"Bossée","latitude":"47.1123","longitude":"0.7298","population":"328","region":"24","departement":"37","arrondissement":"373","commune":"37029"},
{"name":"Cigogné","latitude":"47.25972","longitude":"0.93056","population":"318","region":"24","departement":"37","arrondissement":"372","commune":"37075"},
{"name":"Bournan","latitude":"47.06222","longitude":"0.72889","population":"260","region":"24","departement":"37","arrondissement":"373","commune":"37032"},
{"name":"Varennes","latitude":"47.06944","longitude":"0.91583","population":"236","region":"24","departement":"37","arrondissement":"373","commune":"37265"},
{"name":"Vou","latitude":"47.08528","longitude":"0.85917","population":"215","region":"24","departement":"37","arrondissement":"373","commune":"37280"},
{"name":"Civray-sur-Esves","latitude":"47.0475","longitude":"0.7118","population":"212","region":"24","departement":"37","arrondissement":"373","commune":"37080"},
{"name":"Saint-Bauld","latitude":"47.18","longitude":"0.83722","population":"206","region":"24","departement":"37","arrondissement":"373","commune":"37209"},
{"name":"Sublaines","latitude":"47.26444","longitude":"0.99111","population":"176","region":"24","departement":"37","arrondissement":"372","commune":"37253"},
{"name":"Chanceaux-près-Loches","latitude":"47.14694","longitude":"0.93806","population":"145","region":"24","departement":"37","arrondissement":"373","commune":"37053"},
{"name":"Esves-le-Moutier","latitude":"47.04083","longitude":"0.9075","population":"139","region":"24","departement":"37","arrondissement":"373","commune":"37103"}
]