[
{"name":"Perpignan","latitude":"42.69764","longitude":"2.89541","population":"117905","region":"76","departement":"66","arrondissement":"662","commune":"66136"},
{"name":"Canet-en-Roussillon","latitude":"42.70556","longitude":"3.00722","population":"13052","region":"76","departement":"66","arrondissement":"662","commune":"66037"},
{"name":"Saint-Estève","latitude":"42.7131","longitude":"2.843","population":"10901","region":"76","departement":"66","arrondissement":"662","commune":"66172"},
{"name":"Saint-Cyprien","latitude":"42.61806","longitude":"3.00639","population":"10508","region":"76","departement":"66","arrondissement":"662","commune":"66171"},
{"name":"Cabestany","latitude":"42.68056","longitude":"2.94278","population":"8852","region":"76","departement":"66","arrondissement":"662","commune":"66028"},
{"name":"Saint-Laurent-de-la-Salanque","latitude":"42.77361","longitude":"2.99083","population":"8586","region":"76","departement":"66","arrondissement":"662","commune":"66180"},
{"name":"Rivesaltes","latitude":"42.76889","longitude":"2.87389","population":"8299","region":"76","departement":"66","arrondissement":"662","commune":"66164"},
{"name":"Elne","latitude":"42.6006","longitude":"2.9717","population":"7674","region":"76","departement":"66","arrondissement":"662","commune":"66065"},
{"name":"Pia","latitude":"42.74472","longitude":"2.92083","population":"7446","region":"76","departement":"66","arrondissement":"662","commune":"66141"},
{"name":"Bompas","latitude":"42.73111","longitude":"2.93333","population":"7223","region":"76","departement":"66","arrondissement":"662","commune":"66021"},
{"name":"Toulouges","latitude":"42.67056","longitude":"2.83194","population":"6115","region":"76","departement":"66","arrondissement":"662","commune":"66213"},
{"name":"Canohès","latitude":"42.65194","longitude":"2.83444","population":"4863","region":"76","departement":"66","arrondissement":"662","commune":"66038"},
{"name":"Sainte-Marie","latitude":"42.7275","longitude":"3.0176","population":"4641","region":"76","departement":"66","arrondissement":"662","commune":"66182"},
{"name":"Saleilles","latitude":"42.65417","longitude":"2.95167","population":"4455","region":"76","departement":"66","arrondissement":"662","commune":"66189"},
{"name":"Pollestres","latitude":"42.63778","longitude":"2.86694","population":"4260","region":"76","departement":"66","arrondissement":"662","commune":"66144"},
{"name":"Le Barcarès","latitude":"42.78833","longitude":"3.03556","population":"4018","region":"76","departement":"66","arrondissement":"662","commune":"66017"},
{"name":"Bages","latitude":"42.606","longitude":"2.8979","population":"3894","region":"76","departement":"66","arrondissement":"662","commune":"66011"},
{"name":"Villeneuve-de-la-Raho","latitude":"42.63667","longitude":"2.91722","population":"3759","region":"76","departement":"66","arrondissement":"662","commune":"66227"},
{"name":"Claira","latitude":"42.76028","longitude":"2.95556","population":"3519","region":"76","departement":"66","arrondissement":"662","commune":"66050"},
{"name":"Torreilles","latitude":"42.755","longitude":"2.99389","population":"3129","region":"76","departement":"66","arrondissement":"662","commune":"66212"},
{"name":"Espira-de-l'Agly","latitude":"42.77694","longitude":"2.83556","population":"3065","region":"76","departement":"66","arrondissement":"662","commune":"66069"},
{"name":"Baho","latitude":"42.70028","longitude":"2.8225","population":"3054","region":"76","departement":"66","arrondissement":"662","commune":"66012"},
{"name":"Alénya","latitude":"42.63972","longitude":"2.98167","population":"3020","region":"76","departement":"66","arrondissement":"662","commune":"66002"},
{"name":"Villelongue-de-la-Salanque","latitude":"42.72778","longitude":"2.98444","population":"3013","region":"76","departement":"66","arrondissement":"662","commune":"66224"},
{"name":"Ponteilla","latitude":"42.62639","longitude":"2.81444","population":"2782","region":"76","departement":"66","arrondissement":"662","commune":"66145"},
{"name":"Palau-del-Vidre","latitude":"42.57278","longitude":"2.96139","population":"2736","region":"76","departement":"66","arrondissement":"661","commune":"66133"},
{"name":"Saint-Nazaire","latitude":"42.6672","longitude":"2.9924","population":"2413","region":"76","departement":"66","arrondissement":"662","commune":"66186"},
{"name":"Saint-Hippolyte","latitude":"42.78333","longitude":"2.96667","population":"2401","region":"76","departement":"66","arrondissement":"662","commune":"66176"},
{"name":"Latour-Bas-Elne","latitude":"42.606","longitude":"3.0032","population":"2170","region":"76","departement":"66","arrondissement":"662","commune":"66094"},
{"name":"Corneilla-del-Vercol","latitude":"42.62417","longitude":"2.95139","population":"2032","region":"76","departement":"66","arrondissement":"662","commune":"66059"},
{"name":"Montescot","latitude":"42.60806","longitude":"2.93389","population":"1662","region":"76","departement":"66","arrondissement":"662","commune":"66114"},
{"name":"Théza","latitude":"42.63806","longitude":"2.95278","population":"1365","region":"76","departement":"66","arrondissement":"662","commune":"66208"},
{"name":"Peyrestortes","latitude":"42.75417","longitude":"2.85167","population":"1339","region":"76","departement":"66","arrondissement":"662","commune":"66138"},
{"name":"Ortaffa","latitude":"42.58","longitude":"2.925","population":"1316","region":"76","departement":"66","arrondissement":"662","commune":"66129"},
{"name":"Banyuls-dels-Aspres","latitude":"42.56583","longitude":"2.86722","population":"1175","region":"76","departement":"66","arrondissement":"661","commune":"66015"},
{"name":"Villemolaque","latitude":"42.58806","longitude":"2.83972","population":"1147","region":"76","departement":"66","arrondissement":"662","commune":"66226"},
{"name":"Brouilla","latitude":"42.56667","longitude":"2.90361","population":"1037","region":"76","departement":"66","arrondissement":"662","commune":"66026"},
{"name":"Saint-Jean-Lasseille","latitude":"42.58111","longitude":"2.86639","population":"787","region":"76","departement":"66","arrondissement":"662","commune":"66177"},
{"name":"Tresserre","latitude":"42.56278","longitude":"2.83","population":"774","region":"76","departement":"66","arrondissement":"662","commune":"66214"}
]