[
{"name":"Fourmies","latitude":"50.0175","longitude":"4.0535","population":"13010","region":"32","departement":"59","arrondissement":"591","commune":"59249"},
{"name":"Hirson","latitude":"49.92167","longitude":"4.08389","population":"9463","region":"32","departement":"02","arrondissement":"025","commune":"02381"},
{"name":"Saint-Michel","latitude":"49.91806","longitude":"4.13278","population":"3522","region":"32","departement":"02","arrondissement":"025","commune":"02684"},
{"name":"Anor","latitude":"49.9896","longitude":"4.0994","population":"3242","region":"32","departement":"59","arrondissement":"591","commune":"59012"},
{"name":"Wignehies","latitude":"50.01694","longitude":"4.00833","population":"3138","region":"32","departement":"59","arrondissement":"591","commune":"59659"},
{"name":"Trélon","latitude":"50.05833","longitude":"4.10278","population":"3063","region":"32","departement":"59","arrondissement":"591","commune":"59601"},
{"name":"La Capelle","latitude":"49.977","longitude":"3.9167","population":"1868","region":"32","departement":"02","arrondissement":"025","commune":"02141"},
{"name":"Glageon","latitude":"50.05611","longitude":"4.07472","population":"1812","region":"32","departement":"59","arrondissement":"591","commune":"59261"},
{"name":"Origny-en-Thiérache","latitude":"49.895","longitude":"4.01833","population":"1535","region":"32","departement":"02","arrondissement":"025","commune":"02574"},
{"name":"Étrœungt","latitude":"50.0575","longitude":"3.9275","population":"1382","region":"32","departement":"59","arrondissement":"591","commune":"59218"},
{"name":"Ohain","latitude":"50.04056","longitude":"4.11861","population":"1289","region":"32","departement":"59","arrondissement":"591","commune":"59445"},
{"name":"La Flamengrie","latitude":"50.00389","longitude":"3.92028","population":"1083","region":"32","departement":"02","arrondissement":"025","commune":"02312"},
{"name":"Mondrepuis","latitude":"49.96333","longitude":"4.05528","population":"1018","region":"32","departement":"02","arrondissement":"025","commune":"02495"},
{"name":"Fontaine-lès-Vervins","latitude":"49.85333","longitude":"3.90167","population":"969","region":"32","departement":"02","arrondissement":"025","commune":"02321"},
{"name":"Étréaupont","latitude":"49.90333","longitude":"3.91583","population":"874","region":"32","departement":"02","arrondissement":"025","commune":"02295"},
{"name":"Buire","latitude":"49.90278","longitude":"4.05639","population":"869","region":"32","departement":"02","arrondissement":"025","commune":"02134"},
{"name":"Neuve-Maison","latitude":"49.93028","longitude":"4.0325","population":"629","region":"32","departement":"02","arrondissement":"025","commune":"02544"},
{"name":"Clairfontaine","latitude":"49.98","longitude":"3.98528","population":"565","region":"32","departement":"02","arrondissement":"025","commune":"02197"},
{"name":"Féron","latitude":"50.0463","longitude":"4.0256","population":"532","region":"32","departement":"59","arrondissement":"591","commune":"59229"},
{"name":"Floyon","latitude":"50.04056","longitude":"3.88722","population":"507","region":"32","departement":"59","arrondissement":"591","commune":"59241"},
{"name":"Landouzy-la-Ville","latitude":"49.86111","longitude":"4.04861","population":"506","region":"32","departement":"02","arrondissement":"025","commune":"02405"},
{"name":"La Bouteille","latitude":"49.85944","longitude":"3.97194","population":"506","region":"32","departement":"02","arrondissement":"025","commune":"02109"},
{"name":"Wimy","latitude":"49.93389","longitude":"3.99778","population":"483","region":"32","departement":"02","arrondissement":"025","commune":"02833"},
{"name":"Martigny","latitude":"49.85917","longitude":"4.13694","population":"452","region":"32","departement":"02","arrondissement":"025","commune":"02470"},
{"name":"Rocquigny","latitude":"50.02361","longitude":"3.98139","population":"396","region":"32","departement":"02","arrondissement":"025","commune":"02650"},
{"name":"Watigny","latitude":"49.90194","longitude":"4.19861","population":"367","region":"32","departement":"02","arrondissement":"025","commune":"02831"},
{"name":"Effry","latitude":"49.925","longitude":"3.98444","population":"353","region":"32","departement":"02","arrondissement":"025","commune":"02275"},
{"name":"Ohis","latitude":"49.92972","longitude":"4.00944","population":"306","region":"32","departement":"02","arrondissement":"025","commune":"02567"},
{"name":"Luzoir","latitude":"49.92528","longitude":"3.96194","population":"288","region":"32","departement":"02","arrondissement":"025","commune":"02445"},
{"name":"Wallers-en-Fagne","latitude":"50.06361","longitude":"4.17556","population":"282","region":"32","departement":"59","arrondissement":"591","commune":"59633"},
{"name":"Larouillies","latitude":"50.03389","longitude":"3.925","population":"274","region":"32","departement":"59","arrondissement":"591","commune":"59333"},
{"name":"Sorbais","latitude":"49.90833","longitude":"3.89472","population":"272","region":"32","departement":"02","arrondissement":"025","commune":"02728"},
{"name":"Lerzy","latitude":"49.9455","longitude":"3.8888","population":"217","region":"32","departement":"02","arrondissement":"025","commune":"02418"},
{"name":"Froidestrées","latitude":"49.94111","longitude":"3.90583","population":"208","region":"32","departement":"02","arrondissement":"025","commune":"02337"},
{"name":"Bucilly","latitude":"49.87694","longitude":"4.09306","population":"198","region":"32","departement":"02","arrondissement":"025","commune":"02130"},
{"name":"Leuze","latitude":"49.85139","longitude":"4.16167","population":"159","region":"32","departement":"02","arrondissement":"025","commune":"02425"},
{"name":"Baives","latitude":"50.06306","longitude":"4.20306","population":"156","region":"32","departement":"59","arrondissement":"591","commune":"59045"},
{"name":"Landouzy-la-Cour","latitude":"49.8475","longitude":"3.98361","population":"155","region":"32","departement":"02","arrondissement":"025","commune":"02404"},
{"name":"La Hérie","latitude":"49.88389","longitude":"4.04806","population":"154","region":"32","departement":"02","arrondissement":"025","commune":"02378"},
{"name":"Gergny","latitude":"49.91444","longitude":"3.93417","population":"154","region":"32","departement":"02","arrondissement":"025","commune":"02342"},
{"name":"Sommeron","latitude":"49.95139","longitude":"3.93944","population":"135","region":"32","departement":"02","arrondissement":"025","commune":"02725"},
{"name":"Papleux","latitude":"50.02083","longitude":"3.885","population":"109","region":"32","departement":"02","arrondissement":"025","commune":"02584"},
{"name":"Beaumé","latitude":"49.83806","longitude":"4.15222","population":"97","region":"32","departement":"02","arrondissement":"025","commune":"02055"},
{"name":"Éparcy","latitude":"49.87333","longitude":"4.06056","population":"45","region":"32","departement":"02","arrondissement":"025","commune":"02278"}
]