[
{"name":"Craon","latitude":"47.84806","longitude":"-0.94972","population":"4590","region":"52","departement":"53","arrondissement":"531","commune":"53084"},
{"name":"Cossé-le-Vivien","latitude":"47.94528","longitude":"-0.91167","population":"2940","region":"52","departement":"53","arrondissement":"531","commune":"53077"},
{"name":"Quelaines-Saint-Gault","latitude":"47.925","longitude":"-0.802","population":"1940","region":"52","departement":"53","arrondissement":"531","commune":"53186"},
{"name":"Saint-Fort","latitude":"47.7975","longitude":"-0.72139","population":"1560","region":"52","departement":"53","arrondissement":"531","commune":"53215"},
{"name":"Chemazé","latitude":"47.78722","longitude":"-0.77472","population":"1362","region":"52","departement":"53","arrondissement":"531","commune":"53066"},
{"name":"Ballots","latitude":"47.895","longitude":"-1.04694","population":"1244","region":"52","departement":"53","arrondissement":"531","commune":"53018"},
{"name":"Nuillé-sur-Vicoin","latitude":"47.985","longitude":"-0.78361","population":"1200","region":"52","departement":"53","arrondissement":"532","commune":"53168"},
{"name":"Méral","latitude":"47.96056","longitude":"-0.98056","population":"1100","region":"52","departement":"53","arrondissement":"531","commune":"53151"},
{"name":"La Selle-Craonnaise","latitude":"47.84278","longitude":"-1.0425","population":"931","region":"52","departement":"53","arrondissement":"531","commune":"53258"},
{"name":"Loigné-sur-Mayenne","latitude":"47.8725","longitude":"-0.74889","population":"881","region":"52","departement":"53","arrondissement":"531","commune":"53136"},
{"name":"Laigné","latitude":"47.84194","longitude":"-0.81861","population":"833","region":"52","departement":"53","arrondissement":"531","commune":"53124"},
{"name":"Livré-la-Touche","latitude":"47.88111","longitude":"-0.98111","population":"769","region":"52","departement":"53","arrondissement":"531","commune":"53135"},
{"name":"Astillé","latitude":"47.96306","longitude":"-0.85167","population":"759","region":"52","departement":"53","arrondissement":"532","commune":"53011"},
{"name":"Pommerieux","latitude":"47.8233","longitude":"-0.8974","population":"682","region":"52","departement":"53","arrondissement":"531","commune":"53180"},
{"name":"Châtelais","latitude":"47.7575","longitude":"-0.92722","population":"637","region":"52","departement":"49","arrondissement":"494","commune":"49081"},
{"name":"Bouchamps-lès-Craon","latitude":"47.81472","longitude":"-0.99222","population":"566","region":"52","departement":"53","arrondissement":"531","commune":"53035"},
{"name":"Marigné-Peuton","latitude":"47.86944","longitude":"-0.81306","population":"561","region":"52","departement":"53","arrondissement":"531","commune":"53145"},
{"name":"Ampoigné","latitude":"47.81056","longitude":"-0.82556","population":"554","region":"52","departement":"53","arrondissement":"531","commune":"53004"},
{"name":"Athée","latitude":"47.88694","longitude":"-0.95028","population":"507","region":"52","departement":"53","arrondissement":"531","commune":"53012"},
{"name":"Saint-Martin-du-Limet","latitude":"47.81528","longitude":"-1.02083","population":"488","region":"52","departement":"53","arrondissement":"531","commune":"53240"},
{"name":"Houssay","latitude":"47.91417","longitude":"-0.73583","population":"414","region":"52","departement":"53","arrondissement":"531","commune":"53117"},
{"name":"Saint-Quentin-les-Anges","latitude":"47.77306","longitude":"-0.88611","population":"401","region":"52","departement":"53","arrondissement":"531","commune":"53251"},
{"name":"Saint-Poix","latitude":"47.96528","longitude":"-1.04333","population":"398","region":"52","departement":"53","arrondissement":"531","commune":"53250"},
{"name":"Origné","latitude":"47.95278","longitude":"-0.72972","population":"388","region":"52","departement":"53","arrondissement":"531","commune":"53172"},
{"name":"Simplé","latitude":"47.8875","longitude":"-0.85139","population":"363","region":"52","departement":"53","arrondissement":"531","commune":"53260"},
{"name":"Cosmes","latitude":"47.92","longitude":"-0.88111","population":"329","region":"52","departement":"53","arrondissement":"531","commune":"53075"},
{"name":"La Chapelle-Craonnaise","latitude":"47.89889","longitude":"-0.91556","population":"318","region":"52","departement":"53","arrondissement":"531","commune":"53058"},
{"name":"Niafles","latitude":"47.84639","longitude":"-1.00194","population":"308","region":"52","departement":"53","arrondissement":"531","commune":"53165"},
{"name":"Peuton","latitude":"47.885","longitude":"-0.82222","population":"225","region":"52","departement":"53","arrondissement":"531","commune":"53178"},
{"name":"Saint-Sulpice","latitude":"47.90083","longitude":"-0.71528","population":"224","region":"52","departement":"53","arrondissement":"531","commune":"53254"},
{"name":"Mée","latitude":"47.79722","longitude":"-0.86056","population":"201","region":"52","departement":"53","arrondissement":"531","commune":"53148"},
{"name":"Chérancé","latitude":"47.7954","longitude":"-0.9352","population":"169","region":"52","departement":"53","arrondissement":"531","commune":"53068"},
{"name":"Denazé","latitude":"47.885","longitude":"-0.88694","population":"160","region":"52","departement":"53","arrondissement":"531","commune":"53090"},
{"name":"La Boissière","latitude":"47.7819","longitude":"-0.982","population":"125","region":"52","departement":"53","arrondissement":"531","commune":"53033"}
]