[
{"name":"Dreux","latitude":"48.73639","longitude":"1.36556","population":"30690","region":"24","departement":"28","arrondissement":"283","commune":"28134"},
{"name":"Vernouillet","latitude":"48.72083","longitude":"1.36056","population":"11607","region":"24","departement":"28","arrondissement":"283","commune":"28404"},
{"name":"Saint-Lubin-des-Joncherets","latitude":"48.76667","longitude":"1.19306","population":"4121","region":"24","departement":"28","arrondissement":"283","commune":"28348"},
{"name":"Saint-Rémy-sur-Avre","latitude":"48.76139","longitude":"1.24222","population":"3654","region":"24","departement":"28","arrondissement":"283","commune":"28359"},
{"name":"Saint-André-de-l'Eure","latitude":"48.90667","longitude":"1.27639","population":"3397","region":"28","departement":"27","arrondissement":"273","commune":"27507"},
{"name":"La Couture-Boussey","latitude":"48.89694","longitude":"1.40472","population":"2232","region":"28","departement":"27","arrondissement":"273","commune":"27183"},
{"name":"Nonancourt","latitude":"48.77639","longitude":"1.19306","population":"2217","region":"28","departement":"27","arrondissement":"273","commune":"27438"},
{"name":"Mesnils-sur-Iton","latitude":"48.86972","longitude":"1.07472","population":"1994","region":"28","departement":"27","arrondissement":"273","commune":"27198"},
{"name":"Sorel-Moussel","latitude":"48.84111","longitude":"1.38194","population":"1784","region":"24","departement":"28","arrondissement":"283","commune":"28377"},
{"name":"Luray","latitude":"48.72111","longitude":"1.39694","population":"1536","region":"24","departement":"28","arrondissement":"283","commune":"28223"},
{"name":"Marcilly-sur-Eure","latitude":"48.8268","longitude":"1.3472","population":"1522","region":"28","departement":"27","arrondissement":"273","commune":"27391"},
{"name":"Croth","latitude":"48.8448","longitude":"1.3778","population":"1264","region":"28","departement":"27","arrondissement":"273","commune":"27193"},
{"name":"Saint-Germain-sur-Avre","latitude":"48.765","longitude":"1.26194","population":"1230","region":"28","departement":"27","arrondissement":"273","commune":"27548"},
{"name":"La Madeleine-de-Nonancourt","latitude":"48.7728","longitude":"1.2032","population":"1204","region":"28","departement":"27","arrondissement":"273","commune":"27378"},
{"name":"Tillières-sur-Avre","latitude":"48.75806","longitude":"1.05639","population":"1171","region":"28","departement":"27","arrondissement":"273","commune":"27643"},
{"name":"Sylvains-Lès-Moulins","latitude":"48.9195","longitude":"1.0907","population":"1165","region":"28","departement":"27","arrondissement":"273","commune":"27693"},
{"name":"Vert-en-Drouais","latitude":"48.76056","longitude":"1.29472","population":"1097","region":"24","departement":"28","arrondissement":"283","commune":"28405"},
{"name":"Marcilly-la-Campagne","latitude":"48.83389","longitude":"1.20083","population":"1002","region":"28","departement":"27","arrondissement":"273","commune":"27390"},
{"name":"Illiers-l'Évêque","latitude":"48.82083","longitude":"1.26667","population":"987","region":"28","departement":"27","arrondissement":"273","commune":"27350"},
{"name":"Bois-le-Roi","latitude":"48.86306","longitude":"1.34444","population":"984","region":"28","departement":"27","arrondissement":"273","commune":"27073"},
{"name":"Mesnil-sur-l'Estrée","latitude":"48.77194","longitude":"1.30139","population":"974","region":"28","departement":"27","arrondissement":"273","commune":"27406"},
{"name":"Buis-sur-Damville","latitude":"48.8313","longitude":"1.1222","population":"962","region":"28","departement":"27","arrondissement":"273","commune":"27416"},
{"name":"Saint-Georges-Motel","latitude":"48.79278","longitude":"1.36667","population":"962","region":"28","departement":"27","arrondissement":"273","commune":"27543"},
{"name":"Garnay","latitude":"48.705","longitude":"1.3375","population":"915","region":"24","departement":"28","arrondissement":"283","commune":"28171"},
{"name":"Muzy","latitude":"48.77528","longitude":"1.34556","population":"799","region":"28","departement":"27","arrondissement":"273","commune":"27423"},
{"name":"Laons","latitude":"48.70389","longitude":"1.17639","population":"726","region":"24","departement":"28","arrondissement":"283","commune":"28206"},
{"name":"Mouettes","latitude":"48.89611","longitude":"1.36111","population":"709","region":"28","departement":"27","arrondissement":"273","commune":"27419"},
{"name":"Dampierre-sur-Avre","latitude":"48.7625","longitude":"1.14944","population":"696","region":"24","departement":"28","arrondissement":"283","commune":"28124"},
{"name":"Mousseaux-Neuville","latitude":"48.90806","longitude":"1.34722","population":"671","region":"28","departement":"27","arrondissement":"273","commune":"27421"},
{"name":"L'Habit","latitude":"48.87389","longitude":"1.3625","population":"549","region":"28","departement":"27","arrondissement":"273","commune":"27309"},
{"name":"Courdemanche","latitude":"48.8025","longitude":"1.2644","population":"549","region":"28","departement":"27","arrondissement":"273","commune":"27181"},
{"name":"Chavigny-Bailleul","latitude":"48.87639","longitude":"1.2025","population":"521","region":"28","departement":"27","arrondissement":"273","commune":"27154"},
{"name":"Montreuil","latitude":"48.77667","longitude":"1.36944","population":"514","region":"24","departement":"28","arrondissement":"283","commune":"28267"},
{"name":"Coudres","latitude":"48.86222","longitude":"1.24417","population":"509","region":"28","departement":"27","arrondissement":"273","commune":"27177"},
{"name":"Acon","latitude":"48.77278","longitude":"1.09083","population":"474","region":"28","departement":"27","arrondissement":"273","commune":"27002"},
{"name":"Droisy","latitude":"48.80611","longitude":"1.14222","population":"404","region":"28","departement":"27","arrondissement":"273","commune":"27206"},
{"name":"Grandvilliers","latitude":"48.81444","longitude":"1.06083","population":"361","region":"28","departement":"27","arrondissement":"273","commune":"27297"},
{"name":"Breux-sur-Avre","latitude":"48.76139","longitude":"1.08333","population":"357","region":"28","departement":"27","arrondissement":"273","commune":"27115"},
{"name":"Jumelles","latitude":"48.91528","longitude":"1.20833","population":"310","region":"28","departement":"27","arrondissement":"273","commune":"27360"},
{"name":"Garancières-en-Drouais","latitude":"48.70139","longitude":"1.28528","population":"294","region":"24","departement":"28","arrondissement":"283","commune":"28170"},
{"name":"Lignerolles","latitude":"48.84694","longitude":"1.27556","population":"285","region":"28","departement":"27","arrondissement":"273","commune":"27368"},
{"name":"Escorpain","latitude":"48.72139","longitude":"1.20833","population":"263","region":"24","departement":"28","arrondissement":"283","commune":"28143"},
{"name":"Prudemanche","latitude":"48.71611","longitude":"1.13639","population":"254","region":"24","departement":"28","arrondissement":"283","commune":"28308"},
{"name":"Les Authieux","latitude":"48.8997","longitude":"1.2392","population":"243","region":"28","departement":"27","arrondissement":"273","commune":"27027"},
{"name":"Boissy-en-Drouais","latitude":"48.72833","longitude":"1.26111","population":"241","region":"24","departement":"28","arrondissement":"283","commune":"28045"},
{"name":"Champigny-la-Futelaye","latitude":"48.86389","longitude":"1.29778","population":"240","region":"28","departement":"27","arrondissement":"273","commune":"27144"},
{"name":"Châtaincourt","latitude":"48.69472","longitude":"1.2275","population":"240","region":"24","departement":"28","arrondissement":"283","commune":"28087"},
{"name":"Saint-Laurent-des-Bois","latitude":"48.84528","longitude":"1.31778","population":"228","region":"28","departement":"27","arrondissement":"273","commune":"27555"},
{"name":"Louye","latitude":"48.79917","longitude":"1.32","population":"225","region":"28","departement":"27","arrondissement":"273","commune":"27376"},
{"name":"Louvilliers-en-Drouais","latitude":"48.73167","longitude":"1.28806","population":"206","region":"24","departement":"28","arrondissement":"283","commune":"28216"},
{"name":"Moisville","latitude":"48.8394","longitude":"1.1654","population":"184","region":"28","departement":"27","arrondissement":"273","commune":"27411"},
{"name":"Allainville","latitude":"48.72278","longitude":"1.30083","population":"146","region":"24","departement":"28","arrondissement":"283","commune":"28003"},
{"name":"Saint-Lubin-de-Cravant","latitude":"48.71139","longitude":"1.08778","population":"64","region":"24","departement":"28","arrondissement":"283","commune":"28346"},
{"name":"Revercourt","latitude":"48.72139","longitude":"1.08444","population":"34","region":"24","departement":"28","arrondissement":"283","commune":"28315"}
]