[
{"name":"Faulquemont","latitude":"49.04111","longitude":"6.59917","population":"5511","region":"44","departement":"57","arrondissement":"571","commune":"57209"},
{"name":"Créhange","latitude":"49.0635","longitude":"6.5825","population":"3994","region":"44","departement":"57","arrondissement":"571","commune":"57159"},
{"name":"Morhange","latitude":"48.92361","longitude":"6.63583","population":"3785","region":"44","departement":"57","arrondissement":"573","commune":"57483"},
{"name":"Longeville-lès-Saint-Avold","latitude":"49.11611","longitude":"6.63917","population":"3782","region":"44","departement":"57","arrondissement":"571","commune":"57413"},
{"name":"Courcelles-Chaussy","latitude":"49.10917","longitude":"6.405","population":"3008","region":"44","departement":"57","arrondissement":"574","commune":"57155"},
{"name":"Rémilly","latitude":"49.01361","longitude":"6.39333","population":"2110","region":"44","departement":"57","arrondissement":"574","commune":"57572"},
{"name":"Teting-sur-Nied","latitude":"49.05722","longitude":"6.66361","population":"1348","region":"44","departement":"57","arrondissement":"571","commune":"57668"},
{"name":"Bambiderstroff","latitude":"49.10278","longitude":"6.59333","population":"1024","region":"44","departement":"57","arrondissement":"571","commune":"57047"},
{"name":"Guessling-Hémering","latitude":"49.02528","longitude":"6.65889","population":"913","region":"44","departement":"57","arrondissement":"573","commune":"57275"},
{"name":"Pange","latitude":"49.08472","longitude":"6.35694","population":"912","region":"44","departement":"57","arrondissement":"574","commune":"57533"},
{"name":"Flétrange","latitude":"49.06222","longitude":"6.55944","population":"890","region":"44","departement":"57","arrondissement":"571","commune":"57217"},
{"name":"Pontpierre","latitude":"49.04167","longitude":"6.64222","population":"777","region":"44","departement":"57","arrondissement":"571","commune":"57549"},
{"name":"Silly-sur-Nied","latitude":"49.12056","longitude":"6.35944","population":"686","region":"44","departement":"57","arrondissement":"574","commune":"57654"},
{"name":"Racrange","latitude":"48.92278","longitude":"6.67333","population":"639","region":"44","departement":"57","arrondissement":"573","commune":"57560"},
{"name":"Zimming","latitude":"49.12528","longitude":"6.58778","population":"639","region":"44","departement":"57","arrondissement":"571","commune":"57762"},
{"name":"Boucheporn","latitude":"49.14083","longitude":"6.60889","population":"551","region":"44","departement":"57","arrondissement":"571","commune":"57095"},
{"name":"Béchy","latitude":"48.98639","longitude":"6.38028","population":"538","region":"44","departement":"57","arrondissement":"574","commune":"57057"},
{"name":"Varize-Vaudoncourt","latitude":"49.13472","longitude":"6.45806","population":"509","region":"44","departement":"57","arrondissement":"571","commune":"57695"},
{"name":"Tritteling-Redlach","latitude":"49.07722","longitude":"6.61111","population":"499","region":"44","departement":"57","arrondissement":"571","commune":"57679"},
{"name":"Bazoncourt","latitude":"49.05111","longitude":"6.36722","population":"492","region":"44","departement":"57","arrondissement":"574","commune":"57055"},
{"name":"Luppy","latitude":"48.98111","longitude":"6.34444","population":"487","region":"44","departement":"57","arrondissement":"574","commune":"57425"},
{"name":"Herny","latitude":"48.99917","longitude":"6.48167","population":"467","region":"44","departement":"57","arrondissement":"571","commune":"57319"},
{"name":"Helstroff","latitude":"49.15278","longitude":"6.47472","population":"466","region":"44","departement":"57","arrondissement":"571","commune":"57312"},
{"name":"Haute-Vigneulles","latitude":"49.10139","longitude":"6.55722","population":"436","region":"44","departement":"57","arrondissement":"571","commune":"57714"},
{"name":"Les Étangs","latitude":"49.1425","longitude":"6.37972","population":"422","region":"44","departement":"57","arrondissement":"574","commune":"57200"},
{"name":"Baronville","latitude":"48.93389","longitude":"6.60861","population":"404","region":"44","departement":"57","arrondissement":"573","commune":"57051"},
{"name":"Vittoncourt","latitude":"49.02056","longitude":"6.42972","population":"387","region":"44","departement":"57","arrondissement":"571","commune":"57726"},
{"name":"Laudrefang","latitude":"49.08306","longitude":"6.64028","population":"373","region":"44","departement":"57","arrondissement":"571","commune":"57386"},
{"name":"Elvange","latitude":"49.06","longitude":"6.54889","population":"373","region":"44","departement":"57","arrondissement":"571","commune":"57190"},
{"name":"Bionville-sur-Nied","latitude":"49.10472","longitude":"6.48056","population":"371","region":"44","departement":"57","arrondissement":"571","commune":"57085"},
{"name":"Servigny-lès-Raville","latitude":"49.07833","longitude":"6.45167","population":"363","region":"44","departement":"57","arrondissement":"574","commune":"57648"},
{"name":"Vatimont","latitude":"48.98","longitude":"6.46639","population":"342","region":"44","departement":"57","arrondissement":"571","commune":"57698"},
{"name":"Maizeroy","latitude":"49.08472","longitude":"6.39083","population":"324","region":"44","departement":"57","arrondissement":"574","commune":"57431"},
{"name":"Sanry-sur-Nied","latitude":"49.05278","longitude":"6.34389","population":"324","region":"44","departement":"57","arrondissement":"574","commune":"57627"},
{"name":"Marange-Zondrange","latitude":"49.11167","longitude":"6.5375","population":"303","region":"44","departement":"57","arrondissement":"571","commune":"57444"},
{"name":"Lemud","latitude":"49.03833","longitude":"6.36611","population":"294","region":"44","departement":"57","arrondissement":"574","commune":"57392"},
{"name":"Guinglange","latitude":"49.07333","longitude":"6.52611","population":"293","region":"44","departement":"57","arrondissement":"571","commune":"57276"},
{"name":"Landroff","latitude":"48.96722","longitude":"6.61139","population":"283","region":"44","departement":"57","arrondissement":"573","commune":"57379"},
{"name":"Glatigny","latitude":"49.14611","longitude":"6.33417","population":"280","region":"44","departement":"57","arrondissement":"574","commune":"57249"},
{"name":"Ancerville","latitude":"49.03028","longitude":"6.38694","population":"273","region":"44","departement":"57","arrondissement":"574","commune":"57020"},
{"name":"Mainvillers","latitude":"49.02","longitude":"6.54361","population":"270","region":"44","departement":"57","arrondissement":"571","commune":"57430"},
{"name":"Voimhaut","latitude":"49.02167","longitude":"6.41722","population":"260","region":"44","departement":"57","arrondissement":"571","commune":"57728"},
{"name":"Aube","latitude":"49.02694","longitude":"6.33861","population":"258","region":"44","departement":"57","arrondissement":"574","commune":"57037"},
{"name":"Many","latitude":"49.0025","longitude":"6.52167","population":"257","region":"44","departement":"57","arrondissement":"571","commune":"57442"},
{"name":"Vahl-lès-Faulquemont","latitude":"49.02639","longitude":"6.625","population":"252","region":"44","departement":"57","arrondissement":"571","commune":"57686"},
{"name":"Raville","latitude":"49.09306","longitude":"6.48556","population":"248","region":"44","departement":"57","arrondissement":"574","commune":"57563"},
{"name":"Han-sur-Nied","latitude":"48.99028","longitude":"6.4375","population":"240","region":"44","departement":"57","arrondissement":"571","commune":"57293"},
{"name":"Adelange","latitude":"49.00528","longitude":"6.61194","population":"236","region":"44","departement":"57","arrondissement":"571","commune":"57008"},
{"name":"Villers-Stoncourt","latitude":"49.05667","longitude":"6.41694","population":"233","region":"44","departement":"57","arrondissement":"574","commune":"57718"},
{"name":"Arriance","latitude":"49.01778","longitude":"6.49639","population":"232","region":"44","departement":"57","arrondissement":"571","commune":"57029"},
{"name":"Eincheville","latitude":"48.98278","longitude":"6.60472","population":"218","region":"44","departement":"57","arrondissement":"573","commune":"57189"},
{"name":"Fouligny","latitude":"49.09333","longitude":"6.50472","population":"206","region":"44","departement":"57","arrondissement":"571","commune":"57230"},
{"name":"Lucy","latitude":"48.94167","longitude":"6.47","population":"205","region":"44","departement":"57","arrondissement":"572","commune":"57424"},
{"name":"Harprich","latitude":"48.96167","longitude":"6.65556","population":"205","region":"44","departement":"57","arrondissement":"573","commune":"57297"},
{"name":"Lesse","latitude":"48.96361","longitude":"6.50472","population":"198","region":"44","departement":"57","arrondissement":"572","commune":"57395"},
{"name":"Viller","latitude":"48.985","longitude":"6.64639","population":"191","region":"44","departement":"57","arrondissement":"573","commune":"57717"},
{"name":"Marthille","latitude":"48.92444","longitude":"6.56","population":"187","region":"44","departement":"57","arrondissement":"572","commune":"57451"},
{"name":"Maizery","latitude":"49.10611","longitude":"6.33611","population":"186","region":"44","departement":"57","arrondissement":"574","commune":"57432"},
{"name":"Baudrecourt","latitude":"48.96333","longitude":"6.45167","population":"180","region":"44","departement":"57","arrondissement":"572","commune":"57054"},
{"name":"Saint-Epvre","latitude":"48.97389","longitude":"6.43722","population":"162","region":"44","departement":"57","arrondissement":"572","commune":"57609"},
{"name":"Thimonville","latitude":"48.95444","longitude":"6.39639","population":"160","region":"44","departement":"57","arrondissement":"574","commune":"57671"},
{"name":"Obervisse","latitude":"49.15167","longitude":"6.58528","population":"154","region":"44","departement":"57","arrondissement":"571","commune":"57519"},
{"name":"Boustroff","latitude":"49.00028","longitude":"6.62167","population":"152","region":"44","departement":"57","arrondissement":"573","commune":"57105"},
{"name":"Moncheux","latitude":"48.93583","longitude":"6.33667","population":"149","region":"44","departement":"57","arrondissement":"574","commune":"57472"},
{"name":"Thicourt","latitude":"48.98889","longitude":"6.55611","population":"148","region":"44","departement":"57","arrondissement":"571","commune":"57670"},
{"name":"Hémilly","latitude":"49.06139","longitude":"6.50139","population":"145","region":"44","departement":"57","arrondissement":"571","commune":"57313"},
{"name":"Narbéfontaine","latitude":"49.14194","longitude":"6.54667","population":"136","region":"44","departement":"57","arrondissement":"571","commune":"57495"},
{"name":"Morville-sur-Nied","latitude":"48.9475","longitude":"6.43444","population":"129","region":"44","departement":"57","arrondissement":"572","commune":"57486"},
{"name":"Arraincourt","latitude":"48.97306","longitude":"6.53278","population":"125","region":"44","departement":"57","arrondissement":"571","commune":"57027"},
{"name":"Flocourt","latitude":"48.97306","longitude":"6.41111","population":"125","region":"44","departement":"57","arrondissement":"574","commune":"57220"},
{"name":"Chanville","latitude":"49.04278","longitude":"6.43611","population":"122","region":"44","departement":"57","arrondissement":"574","commune":"57127"},
{"name":"Adaincourt","latitude":"49.00528","longitude":"6.43583","population":"117","region":"44","departement":"57","arrondissement":"571","commune":"57007"},
{"name":"Bacourt","latitude":"48.92694","longitude":"6.40667","population":"116","region":"44","departement":"57","arrondissement":"572","commune":"57045"},
{"name":"Tragny","latitude":"48.95917","longitude":"6.37833","population":"116","region":"44","departement":"57","arrondissement":"574","commune":"57676"},
{"name":"Hallering","latitude":"49.11944","longitude":"6.55194","population":"116","region":"44","departement":"57","arrondissement":"571","commune":"57284"},
{"name":"Juville","latitude":"48.93028","longitude":"6.34667","population":"109","region":"44","departement":"57","arrondissement":"572","commune":"57354"},
{"name":"Brulange","latitude":"48.97028","longitude":"6.54972","population":"104","region":"44","departement":"57","arrondissement":"573","commune":"57115"},
{"name":"Suisse","latitude":"48.96583","longitude":"6.57944","population":"103","region":"44","departement":"57","arrondissement":"573","commune":"57662"},
{"name":"Destry","latitude":"48.94389","longitude":"6.585","population":"92","region":"44","departement":"57","arrondissement":"573","commune":"57174"},
{"name":"Bannay","latitude":"49.12722","longitude":"6.46778","population":"83","region":"44","departement":"57","arrondissement":"571","commune":"57048"},
{"name":"Brouck","latitude":"49.12972","longitude":"6.50583","population":"77","region":"44","departement":"57","arrondissement":"571","commune":"57112"},
{"name":"Holacourt","latitude":"48.97222","longitude":"6.51333","population":"66","region":"44","departement":"57","arrondissement":"571","commune":"57328"},
{"name":"Chenois","latitude":"48.95917","longitude":"6.4975","population":"63","region":"44","departement":"57","arrondissement":"572","commune":"57138"},
{"name":"Thonville","latitude":"48.98333","longitude":"6.56028","population":"42","region":"44","departement":"57","arrondissement":"571","commune":"57673"}
]