[
{"name":"Saint-Yrieix-la-Perche","latitude":"45.51444","longitude":"1.20333","population":"6932","region":"75","departement":"87","arrondissement":"872","commune":"87187"},
{"name":"Lubersac","latitude":"45.44472","longitude":"1.40444","population":"2281","region":"75","departement":"19","arrondissement":"191","commune":"19121"},
{"name":"Coussac-Bonneval","latitude":"45.5112","longitude":"1.3247","population":"1346","region":"75","departement":"87","arrondissement":"872","commune":"87049"},
{"name":"Jumilhac-le-Grand","latitude":"45.4941","longitude":"1.0646","population":"1227","region":"75","departement":"24","arrondissement":"242","commune":"24218"},
{"name":"Arnac-Pompadour","latitude":"45.4005","longitude":"1.37157","population":"1226","region":"75","departement":"19","arrondissement":"191","commune":"19011"},
{"name":"Ladignac-le-Long","latitude":"45.5825","longitude":"1.11389","population":"1124","region":"75","departement":"87","arrondissement":"872","commune":"87082"},
{"name":"Payzac","latitude":"45.4014","longitude":"1.2185","population":"1070","region":"75","departement":"24","arrondissement":"242","commune":"24320"},
{"name":"Lanouaille","latitude":"45.39194","longitude":"1.13806","population":"989","region":"75","departement":"24","arrondissement":"242","commune":"24227"},
{"name":"Saint-Sornin-Lavolps","latitude":"45.37806","longitude":"1.38278","population":"939","region":"75","departement":"19","arrondissement":"191","commune":"19243"},
{"name":"Glandon","latitude":"45.47833","longitude":"1.22694","population":"814","region":"75","departement":"87","arrondissement":"872","commune":"87071"},
{"name":"Savignac-Lédrier","latitude":"45.36389","longitude":"1.22056","population":"741","region":"75","departement":"24","arrondissement":"242","commune":"24526"},
{"name":"Beyssac","latitude":"45.37139","longitude":"1.40389","population":"700","region":"75","departement":"19","arrondissement":"191","commune":"19024"},
{"name":"Angoisse","latitude":"45.4275","longitude":"1.1384","population":"610","region":"75","departement":"24","arrondissement":"242","commune":"24008"},
{"name":"Saint-Médard-d'Excideuil","latitude":"45.34167","longitude":"1.07056","population":"581","region":"75","departement":"24","arrondissement":"243","commune":"24463"},
{"name":"Sarlande","latitude":"45.45111","longitude":"1.1175","population":"420","region":"75","departement":"24","arrondissement":"242","commune":"24519"},
{"name":"Concèze","latitude":"45.35472","longitude":"1.345","population":"416","region":"75","departement":"19","arrondissement":"191","commune":"19059"},
{"name":"Dussac","latitude":"45.39556","longitude":"1.08167","population":"383","region":"75","departement":"24","arrondissement":"242","commune":"24158"},
{"name":"Beyssenac","latitude":"45.40417","longitude":"1.28611","population":"365","region":"75","departement":"19","arrondissement":"191","commune":"19025"},
{"name":"Le Chalard","latitude":"45.549","longitude":"1.1312","population":"302","region":"75","departement":"87","arrondissement":"872","commune":"87031"},
{"name":"Saint-Cyr-les-Champagnes","latitude":"45.37889","longitude":"1.28833","population":"277","region":"75","departement":"24","arrondissement":"242","commune":"24397"},
{"name":"Saint-Julien-le-Vendômois","latitude":"45.46167","longitude":"1.32833","population":"267","region":"75","departement":"19","arrondissement":"191","commune":"19216"},
{"name":"Saint-Mesmin","latitude":"45.35222","longitude":"1.20528","population":"264","region":"75","departement":"24","arrondissement":"243","commune":"24464"},
{"name":"Ségur-le-Château","latitude":"45.42944","longitude":"1.305","population":"235","region":"75","departement":"19","arrondissement":"191","commune":"19254"},
{"name":"Lascaux","latitude":"45.33917","longitude":"1.36472","population":"170","region":"75","departement":"19","arrondissement":"191","commune":"19109"},
{"name":"Preyssac-d'Excideuil","latitude":"45.3375","longitude":"1.10278","population":"152","region":"75","departement":"24","arrondissement":"243","commune":"24339"},
{"name":"Saint-Éloy-les-Tuileries","latitude":"45.44694","longitude":"1.2925","population":"123","region":"75","departement":"19","arrondissement":"191","commune":"19198"}
]