[
{"name":"Longuenesse","latitude":"50.73556","longitude":"2.23722","population":"11015","region":"32","departement":"62","arrondissement":"625","commune":"62525"},
{"name":"Arques","latitude":"50.7357","longitude":"2.303","population":"9945","region":"32","departement":"62","arrondissement":"625","commune":"62040"},
{"name":"Aire-sur-la-Lys","latitude":"50.63861","longitude":"2.39667","population":"9785","region":"32","departement":"62","arrondissement":"625","commune":"62014"},
{"name":"Isbergues","latitude":"50.62333","longitude":"2.45667","population":"9320","region":"32","departement":"62","arrondissement":"622","commune":"62473"},
{"name":"Blendecques","latitude":"50.71694","longitude":"2.27639","population":"5171","region":"32","departement":"62","arrondissement":"625","commune":"62139"},
{"name":"Lumbres","latitude":"50.70528","longitude":"2.12056","population":"3741","region":"32","departement":"62","arrondissement":"625","commune":"62534"},
{"name":"Wizernes","latitude":"50.71111","longitude":"2.22917","population":"3343","region":"32","departement":"62","arrondissement":"625","commune":"62902"},
{"name":"Fruges","latitude":"50.51472","longitude":"2.13389","population":"2578","region":"32","departement":"62","arrondissement":"624","commune":"62364"},
{"name":"Racquinghem","latitude":"50.69306","longitude":"2.35778","population":"2320","region":"32","departement":"62","arrondissement":"625","commune":"62684"},
{"name":"Renescure","latitude":"50.73056","longitude":"2.37111","population":"2058","region":"32","departement":"59","arrondissement":"594","commune":"59497"},
{"name":"Blaringhem","latitude":"50.69194","longitude":"2.40361","population":"2013","region":"32","departement":"59","arrondissement":"594","commune":"59084"},
{"name":"Ecques","latitude":"50.67","longitude":"2.28611","population":"1979","region":"32","departement":"62","arrondissement":"625","commune":"62288"},
{"name":"Mametz","latitude":"50.63444","longitude":"2.32528","population":"1939","region":"32","departement":"62","arrondissement":"625","commune":"62543"},
{"name":"Roquetoire","latitude":"50.67056","longitude":"2.34222","population":"1832","region":"32","departement":"62","arrondissement":"625","commune":"62721"},
{"name":"Helfaut","latitude":"50.69778","longitude":"2.24306","population":"1735","region":"32","departement":"62","arrondissement":"625","commune":"62423"},
{"name":"Esquerdes","latitude":"50.70472","longitude":"2.18722","population":"1581","region":"32","departement":"62","arrondissement":"625","commune":"62309"},
{"name":"Norrent-Fontes","latitude":"50.5881","longitude":"2.4074","population":"1432","region":"32","departement":"62","arrondissement":"622","commune":"62620"},
{"name":"Wavrans-sur-l'Aa","latitude":"50.68306","longitude":"2.13667","population":"1329","region":"32","departement":"62","arrondissement":"625","commune":"62882"},
{"name":"Hallines","latitude":"50.70889","longitude":"2.21","population":"1316","region":"32","departement":"62","arrondissement":"625","commune":"62403"},
{"name":"Heuringhem","latitude":"50.695","longitude":"2.2825","population":"1299","region":"32","departement":"62","arrondissement":"625","commune":"62452"},
{"name":"Wardrecques","latitude":"50.7105","longitude":"2.3444","population":"1163","region":"32","departement":"62","arrondissement":"625","commune":"62875"},
{"name":"Delettes","latitude":"50.6175","longitude":"2.21306","population":"1126","region":"32","departement":"62","arrondissement":"625","commune":"62265"},
{"name":"Campagne-lès-Wardrecques","latitude":"50.71944","longitude":"2.33333","population":"1106","region":"32","departement":"62","arrondissement":"625","commune":"62205"},
{"name":"Thérouanne","latitude":"50.63667","longitude":"2.25889","population":"1070","region":"32","departement":"62","arrondissement":"625","commune":"62811"},
{"name":"Lambres","latitude":"50.6169","longitude":"2.3975","population":"1068","region":"32","departement":"62","arrondissement":"622","commune":"62486"},
{"name":"Enquin-les-Mines","latitude":"50.5875","longitude":"2.28556","population":"1051","region":"32","departement":"62","arrondissement":"625","commune":"62295"},
{"name":"Ham-en-Artois","latitude":"50.58889","longitude":"2.45806","population":"1002","region":"32","departement":"62","arrondissement":"622","commune":"62407"},
{"name":"Pihem","latitude":"50.68333","longitude":"2.21306","population":"976","region":"32","departement":"62","arrondissement":"625","commune":"62656"},
{"name":"Ferfay","latitude":"50.51833","longitude":"2.42444","population":"953","region":"32","departement":"62","arrondissement":"622","commune":"62328"},
{"name":"Estrée-Blanche","latitude":"50.5935","longitude":"2.3219","population":"932","region":"32","departement":"62","arrondissement":"622","commune":"62313"},
{"name":"Wittes","latitude":"50.66944","longitude":"2.39167","population":"865","region":"32","departement":"62","arrondissement":"625","commune":"62901"},
{"name":"Elnes","latitude":"50.69028","longitude":"2.12611","population":"852","region":"32","departement":"62","arrondissement":"625","commune":"62292"},
{"name":"Blessy","latitude":"50.615","longitude":"2.33194","population":"837","region":"32","departement":"62","arrondissement":"622","commune":"62141"},
{"name":"Saint-Hilaire-Cottes","latitude":"50.57139","longitude":"2.41417","population":"827","region":"32","departement":"62","arrondissement":"622","commune":"62750"},
{"name":"Dohem","latitude":"50.63806","longitude":"2.18583","population":"765","region":"32","departement":"62","arrondissement":"625","commune":"62271"},
{"name":"Boëseghem","latitude":"50.66167","longitude":"2.4375","population":"723","region":"32","departement":"59","arrondissement":"594","commune":"59087"},
{"name":"Lynde","latitude":"50.71278","longitude":"2.41917","population":"674","region":"32","departement":"59","arrondissement":"594","commune":"59366"},
{"name":"Cléty","latitude":"50.65194","longitude":"2.18167","population":"667","region":"32","departement":"62","arrondissement":"625","commune":"62229"},
{"name":"Audincthun","latitude":"50.5854","longitude":"2.1383","population":"666","region":"32","departement":"62","arrondissement":"625","commune":"62053"},
{"name":"Quiestède","latitude":"50.67917","longitude":"2.3175","population":"664","region":"32","departement":"62","arrondissement":"625","commune":"62681"},
{"name":"Setques","latitude":"50.71194","longitude":"2.15861","population":"640","region":"32","departement":"62","arrondissement":"625","commune":"62794"},
{"name":"Ebblinghem","latitude":"50.73222","longitude":"2.40972","population":"634","region":"32","departement":"59","arrondissement":"594","commune":"59184"},
{"name":"Ames","latitude":"50.54167","longitude":"2.41556","population":"605","region":"32","departement":"62","arrondissement":"622","commune":"62028"},
{"name":"Bomy","latitude":"50.57389","longitude":"2.235","population":"596","region":"32","departement":"62","arrondissement":"625","commune":"62153"},
{"name":"Ligny-lès-Aire","latitude":"50.55639","longitude":"2.34583","population":"596","region":"32","departement":"62","arrondissement":"622","commune":"62512"},
{"name":"Merck-Saint-Liévin","latitude":"50.6268","longitude":"2.1149","population":"582","region":"32","departement":"62","arrondissement":"625","commune":"62569"},
{"name":"Coyecques","latitude":"50.60333","longitude":"2.1825","population":"578","region":"32","departement":"62","arrondissement":"625","commune":"62254"},
{"name":"Witternesse","latitude":"50.61194","longitude":"2.36028","population":"576","region":"32","departement":"62","arrondissement":"622","commune":"62900"},
{"name":"Quelmes","latitude":"50.73333","longitude":"2.13722","population":"567","region":"32","departement":"62","arrondissement":"625","commune":"62674"},
{"name":"Bourecq","latitude":"50.57056","longitude":"2.43528","population":"557","region":"32","departement":"62","arrondissement":"622","commune":"62162"},
{"name":"Avroult","latitude":"50.63333","longitude":"2.14722","population":"539","region":"32","departement":"62","arrondissement":"625","commune":"62067"},
{"name":"Ouve-Wirquin","latitude":"50.65056","longitude":"2.14472","population":"537","region":"32","departement":"62","arrondissement":"625","commune":"62644"},
{"name":"Febvin-Palfart","latitude":"50.53833","longitude":"2.31528","population":"522","region":"32","departement":"62","arrondissement":"625","commune":"62327"},
{"name":"Fléchin","latitude":"50.55889","longitude":"2.29278","population":"521","region":"32","departement":"62","arrondissement":"625","commune":"62336"},
{"name":"Amettes","latitude":"50.53083","longitude":"2.3925","population":"500","region":"32","departement":"62","arrondissement":"622","commune":"62029"},
{"name":"Herbelles","latitude":"50.65528","longitude":"2.2225","population":"496","region":"32","departement":"62","arrondissement":"625","commune":"62431"},
{"name":"Ecquedecques","latitude":"50.56111","longitude":"2.44806","population":"480","region":"32","departement":"62","arrondissement":"622","commune":"62286"},
{"name":"Auchy-au-Bois","latitude":"50.55444","longitude":"2.37111","population":"460","region":"32","departement":"62","arrondissement":"622","commune":"62049"},
{"name":"Quernes","latitude":"50.605","longitude":"2.36639","population":"448","region":"32","departement":"62","arrondissement":"622","commune":"62676"},
{"name":"Rely","latitude":"50.57222","longitude":"2.3625","population":"442","region":"32","departement":"62","arrondissement":"622","commune":"62701"},
{"name":"Mazinghem","latitude":"50.60306","longitude":"2.40472","population":"433","region":"32","departement":"62","arrondissement":"622","commune":"62564"},
{"name":"Enguinegatte","latitude":"50.6079","longitude":"2.2715","population":"431","region":"32","departement":"62","arrondissement":"625","commune":"62294"},
{"name":"Saint-Augustin","latitude":"50.64528","longitude":"2.30639","population":"430","region":"32","departement":"62","arrondissement":"625","commune":"62691"},
{"name":"Lespesses","latitude":"50.56278","longitude":"2.42417","population":"421","region":"32","departement":"62","arrondissement":"622","commune":"62500"},
{"name":"Sercus","latitude":"50.70722","longitude":"2.45611","population":"404","region":"32","departement":"59","arrondissement":"594","commune":"59568"},
{"name":"Dennebrœucq","latitude":"50.5737","longitude":"2.1536","population":"376","region":"32","departement":"62","arrondissement":"625","commune":"62267"},
{"name":"Lières","latitude":"50.54908","longitude":"2.40945","population":"372","region":"32","departement":"62","arrondissement":"622","commune":"62508"},
{"name":"Inghem","latitude":"50.66722","longitude":"2.24389","population":"358","region":"32","departement":"62","arrondissement":"625","commune":"62471"},
{"name":"Remilly-Wirquin","latitude":"50.66861","longitude":"2.16694","population":"343","region":"32","departement":"62","arrondissement":"625","commune":"62702"},
{"name":"Laires","latitude":"50.54056","longitude":"2.25556","population":"331","region":"32","departement":"62","arrondissement":"625","commune":"62485"},
{"name":"Erny-Saint-Julien","latitude":"50.58583","longitude":"2.25444","population":"314","region":"32","departement":"62","arrondissement":"625","commune":"62304"},
{"name":"Radinghem","latitude":"50.5467","longitude":"2.1194","population":"293","region":"32","departement":"62","arrondissement":"624","commune":"62685"},
{"name":"Liettres","latitude":"50.59556","longitude":"2.34222","population":"291","region":"32","departement":"62","arrondissement":"622","commune":"62509"},
{"name":"Wisques","latitude":"50.72361","longitude":"2.19222","population":"247","region":"32","departement":"62","arrondissement":"625","commune":"62898"},
{"name":"Nédonchel","latitude":"50.52417","longitude":"2.35833","population":"241","region":"32","departement":"62","arrondissement":"621","commune":"62601"},
{"name":"Leulinghem","latitude":"50.7348","longitude":"2.1644","population":"224","region":"32","departement":"62","arrondissement":"625","commune":"62504"},
{"name":"Westrehem","latitude":"50.545","longitude":"2.34528","population":"223","region":"32","departement":"62","arrondissement":"622","commune":"62885"},
{"name":"Beaumetz-lès-Aire","latitude":"50.54139","longitude":"2.22694","population":"218","region":"32","departement":"62","arrondissement":"625","commune":"62095"},
{"name":"Linghem","latitude":"50.59417","longitude":"2.37083","population":"215","region":"32","departement":"62","arrondissement":"622","commune":"62517"},
{"name":"Reclinghem","latitude":"50.5728","longitude":"2.177","population":"187","region":"32","departement":"62","arrondissement":"625","commune":"62696"},
{"name":"Senlis","latitude":"50.53333","longitude":"2.15","population":"183","region":"32","departement":"62","arrondissement":"624","commune":"62790"},
{"name":"Matringhem","latitude":"50.545","longitude":"2.165","population":"181","region":"32","departement":"62","arrondissement":"624","commune":"62562"},
{"name":"Nédon","latitude":"50.52528","longitude":"2.37","population":"161","region":"32","departement":"62","arrondissement":"621","commune":"62600"},
{"name":"Vincly","latitude":"50.55861","longitude":"2.17083","population":"159","region":"32","departement":"62","arrondissement":"624","commune":"62862"},
{"name":"Lugy","latitude":"50.52389","longitude":"2.17472","population":"145","region":"32","departement":"62","arrondissement":"624","commune":"62533"},
{"name":"Hézecques","latitude":"50.5314","longitude":"2.1806","population":"117","region":"32","departement":"62","arrondissement":"624","commune":"62453"},
{"name":"Fontaine-lès-Hermans","latitude":"50.52639","longitude":"2.34917","population":"104","region":"32","departement":"62","arrondissement":"621","commune":"62344"},
{"name":"Mencas","latitude":"50.55972","longitude":"2.13861","population":"76","region":"32","departement":"62","arrondissement":"624","commune":"62565"},
{"name":"Rombly","latitude":"50.59889","longitude":"2.38917","population":"35","region":"32","departement":"62","arrondissement":"622","commune":"62720"}
]