[
{"name":"Béthune","latitude":"50.5296","longitude":"2.6405","population":"25766","region":"32","departement":"62","arrondissement":"622","commune":"62119"},
{"name":"Hazebrouck","latitude":"50.72444","longitude":"2.53833","population":"21721","region":"32","departement":"59","arrondissement":"594","commune":"59295"},
{"name":"Lillers","latitude":"50.56361","longitude":"2.48194","population":"10011","region":"32","departement":"62","arrondissement":"622","commune":"62516"},
{"name":"Beuvry","latitude":"50.5197","longitude":"2.6801","population":"8856","region":"32","departement":"62","arrondissement":"622","commune":"62126"},
{"name":"Merville","latitude":"50.6439","longitude":"2.6414","population":"8743","region":"32","departement":"59","arrondissement":"594","commune":"59400"},
{"name":"La Bassée","latitude":"50.53361","longitude":"2.80722","population":"6166","region":"32","departement":"59","arrondissement":"595","commune":"59051"},
{"name":"Estaires","latitude":"50.6439","longitude":"2.7233","population":"5983","region":"32","departement":"59","arrondissement":"594","commune":"59212"},
{"name":"La Gorgue","latitude":"50.63833","longitude":"2.71417","population":"5906","region":"32","departement":"59","arrondissement":"594","commune":"59268"},
{"name":"Annezin","latitude":"50.53361","longitude":"2.61833","population":"5607","region":"32","departement":"62","arrondissement":"622","commune":"62035"},
{"name":"Laventie","latitude":"50.6277","longitude":"2.7719","population":"4763","region":"32","departement":"62","arrondissement":"622","commune":"62491"},
{"name":"Lestrem","latitude":"50.62222","longitude":"2.685","population":"4197","region":"32","departement":"62","arrondissement":"622","commune":"62502"},
{"name":"Sailly-sur-la-Lys","latitude":"50.6574","longitude":"2.771","population":"4093","region":"32","departement":"62","arrondissement":"622","commune":"62736"},
{"name":"Violaines","latitude":"50.54083","longitude":"2.78889","population":"3671","region":"32","departement":"62","arrondissement":"622","commune":"62863"},
{"name":"Steenwerck","latitude":"50.70028","longitude":"2.7775","population":"3460","region":"32","departement":"59","arrondissement":"594","commune":"59581"},
{"name":"Lapugnoy","latitude":"50.51639","longitude":"2.54028","population":"3294","region":"32","departement":"62","arrondissement":"622","commune":"62489"},
{"name":"Saint-Venant","latitude":"50.62222","longitude":"2.54444","population":"3206","region":"32","departement":"62","arrondissement":"622","commune":"62770"},
{"name":"Allouagne","latitude":"50.53056","longitude":"2.50806","population":"3095","region":"32","departement":"62","arrondissement":"622","commune":"62023"},
{"name":"Chocques","latitude":"50.54194","longitude":"2.57306","population":"2987","region":"32","departement":"62","arrondissement":"622","commune":"62224"},
{"name":"Burbure","latitude":"50.53861","longitude":"2.46694","population":"2957","region":"32","departement":"62","arrondissement":"622","commune":"62188"},
{"name":"Morbecque","latitude":"50.69361","longitude":"2.5175","population":"2678","region":"32","departement":"59","arrondissement":"594","commune":"59416"},
{"name":"La Couture","latitude":"50.5818","longitude":"2.7125","population":"2621","region":"32","departement":"62","arrondissement":"622","commune":"62252"},
{"name":"Vieux-Berquin","latitude":"50.69472","longitude":"2.64444","population":"2422","region":"32","departement":"59","arrondissement":"594","commune":"59615"},
{"name":"Richebourg","latitude":"50.5791","longitude":"2.7404","population":"2407","region":"32","departement":"62","arrondissement":"622","commune":"62706"},
{"name":"Vendin-lès-Béthune","latitude":"50.54222","longitude":"2.60639","population":"2386","region":"32","departement":"62","arrondissement":"622","commune":"62841"},
{"name":"Gonnehem","latitude":"50.56167","longitude":"2.57389","population":"2364","region":"32","departement":"62","arrondissement":"622","commune":"62376"},
{"name":"Locon","latitude":"50.57028","longitude":"2.66667","population":"2352","region":"32","departement":"62","arrondissement":"622","commune":"62520"},
{"name":"Hinges","latitude":"50.56528","longitude":"2.62222","population":"2211","region":"32","departement":"62","arrondissement":"622","commune":"62454"},
{"name":"Cuinchy","latitude":"50.51944","longitude":"2.74861","population":"1765","region":"32","departement":"62","arrondissement":"622","commune":"62262"},
{"name":"Steenbecque","latitude":"50.67444","longitude":"2.485","population":"1735","region":"32","departement":"59","arrondissement":"594","commune":"59578"},
{"name":"Labeuvrière","latitude":"50.52","longitude":"2.56306","population":"1683","region":"32","departement":"62","arrondissement":"622","commune":"62479"},
{"name":"Essars","latitude":"50.54694","longitude":"2.66444","population":"1638","region":"32","departement":"62","arrondissement":"622","commune":"62310"},
{"name":"Lorgies","latitude":"50.56806","longitude":"2.79056","population":"1613","region":"32","departement":"62","arrondissement":"622","commune":"62529"},
{"name":"Calonne-sur-la-Lys","latitude":"50.62278","longitude":"2.61667","population":"1603","region":"32","departement":"62","arrondissement":"622","commune":"62195"},
{"name":"Haverskerque","latitude":"50.64139","longitude":"2.54083","population":"1478","region":"32","departement":"59","arrondissement":"594","commune":"59293"},
{"name":"Guarbecque","latitude":"50.61083","longitude":"2.48944","population":"1402","region":"32","departement":"62","arrondissement":"622","commune":"62391"},
{"name":"Le Doulieu","latitude":"50.68222","longitude":"2.71917","population":"1399","region":"32","departement":"59","arrondissement":"594","commune":"59180"},
{"name":"Mont-Bernanchon","latitude":"50.5836","longitude":"2.5901","population":"1377","region":"32","departement":"62","arrondissement":"622","commune":"62584"},
{"name":"Neuve-Chapelle","latitude":"50.58389","longitude":"2.78028","population":"1368","region":"32","departement":"62","arrondissement":"622","commune":"62606"},
{"name":"Festubert","latitude":"50.54333","longitude":"2.73667","population":"1283","region":"32","departement":"62","arrondissement":"622","commune":"62330"},
{"name":"Busnes","latitude":"50.58778","longitude":"2.51833","population":"1255","region":"32","departement":"62","arrondissement":"622","commune":"62190"},
{"name":"Robecq","latitude":"50.59583","longitude":"2.56333","population":"1246","region":"32","departement":"62","arrondissement":"622","commune":"62713"},
{"name":"Neuf-Berquin","latitude":"50.661","longitude":"2.672","population":"1229","region":"32","departement":"59","arrondissement":"594","commune":"59423"},
{"name":"Fouquereuil","latitude":"50.51889","longitude":"2.60111","population":"1211","region":"32","departement":"62","arrondissement":"622","commune":"62349"},
{"name":"Lozinghem","latitude":"50.51667","longitude":"2.5","population":"1206","region":"32","departement":"62","arrondissement":"622","commune":"62532"},
{"name":"Fouquières-lès-Béthune","latitude":"50.515","longitude":"2.61083","population":"1105","region":"32","departement":"62","arrondissement":"622","commune":"62350"},
{"name":"Merris","latitude":"50.71528","longitude":"2.66139","population":"1065","region":"32","departement":"59","arrondissement":"594","commune":"59399"},
{"name":"Givenchy-lès-la-Bassée","latitude":"50.5287","longitude":"2.7584","population":"902","region":"32","departement":"62","arrondissement":"622","commune":"62373"},
{"name":"Wallon-Cappel","latitude":"50.7275","longitude":"2.47306","population":"898","region":"32","departement":"59","arrondissement":"594","commune":"59634"},
{"name":"Thiennes","latitude":"50.65167","longitude":"2.46694","population":"795","region":"32","departement":"59","arrondissement":"594","commune":"59590"},
{"name":"Vieille-Chapelle","latitude":"50.59167","longitude":"2.70556","population":"751","region":"32","departement":"62","arrondissement":"622","commune":"62851"},
{"name":"Strazeele","latitude":"50.7267","longitude":"2.6315","population":"678","region":"32","departement":"59","arrondissement":"594","commune":"59582"},
{"name":"Borre","latitude":"50.73139","longitude":"2.58417","population":"574","region":"32","departement":"59","arrondissement":"594","commune":"59091"},
{"name":"Saint-Floris","latitude":"50.6268","longitude":"2.5703","population":"501","region":"32","departement":"62","arrondissement":"622","commune":"62747"},
{"name":"Pradelles","latitude":"50.7325","longitude":"2.60444","population":"360","region":"32","departement":"59","arrondissement":"594","commune":"59469"},
{"name":"Oblinghem","latitude":"50.54917","longitude":"2.59861","population":"214","region":"32","departement":"62","arrondissement":"622","commune":"62632"}
]