[
{"name":"Le Cheylard","latitude":"44.90528","longitude":"4.42222","population":"3289","region":"84","departement":"07","arrondissement":"073","commune":"07064"},
{"name":"Le Chambon-sur-Lignon","latitude":"45.0612","longitude":"4.3028","population":"2690","region":"84","departement":"43","arrondissement":"433","commune":"43051"},
{"name":"Saint-Agrève","latitude":"45.01","longitude":"4.39611","population":"2522","region":"84","departement":"07","arrondissement":"073","commune":"07204"},
{"name":"Saint-Martin-de-Valamas","latitude":"44.93722","longitude":"4.36861","population":"1269","region":"84","departement":"07","arrondissement":"073","commune":"07269"},
{"name":"Désaignes","latitude":"44.99472","longitude":"4.51694","population":"1182","region":"84","departement":"07","arrondissement":"073","commune":"07079"},
{"name":"Mazet-Saint-Voy","latitude":"45.04694","longitude":"4.24417","population":"1124","region":"84","departement":"43","arrondissement":"433","commune":"43130"},
{"name":"Mariac","latitude":"44.8812","longitude":"4.3649","population":"676","region":"84","departement":"07","arrondissement":"073","commune":"07150"},
{"name":"Accons","latitude":"44.8866","longitude":"4.3874","population":"429","region":"84","departement":"07","arrondissement":"073","commune":"07001"},
{"name":"Arcens","latitude":"44.9001","longitude":"4.3289","population":"416","region":"84","departement":"07","arrondissement":"073","commune":"07012"},
{"name":"Fay-sur-Lignon","latitude":"44.98639","longitude":"4.22639","population":"413","region":"84","departement":"43","arrondissement":"432","commune":"43092"},
{"name":"Gluiras","latitude":"44.84694","longitude":"4.52278","population":"378","region":"84","departement":"07","arrondissement":"072","commune":"07096"},
{"name":"Saint-Julien-Labrousse","latitude":"44.9181","longitude":"4.5089","population":"346","region":"84","departement":"07","arrondissement":"073","commune":"07256"},
{"name":"Rochepaule","latitude":"45.07667","longitude":"4.45583","population":"290","region":"84","departement":"07","arrondissement":"073","commune":"07192"},
{"name":"Pailharès","latitude":"45.07833","longitude":"4.56556","population":"289","region":"84","departement":"07","arrondissement":"073","commune":"07170"},
{"name":"Devesset","latitude":"45.06722","longitude":"4.38833","population":"287","region":"84","departement":"07","arrondissement":"073","commune":"07080"},
{"name":"Dornas","latitude":"44.85278","longitude":"4.35333","population":"283","region":"84","departement":"07","arrondissement":"073","commune":"07082"},
{"name":"Mars","latitude":"45.0216","longitude":"4.3217","population":"279","region":"84","departement":"07","arrondissement":"073","commune":"07151"},
{"name":"Nozières","latitude":"45.02861","longitude":"4.54361","population":"263","region":"84","departement":"07","arrondissement":"073","commune":"07166"},
{"name":"Chanéac","latitude":"44.9334","longitude":"4.3199","population":"262","region":"84","departement":"07","arrondissement":"073","commune":"07054"},
{"name":"Saint-Jean-Roure","latitude":"44.94194","longitude":"4.42917","population":"259","region":"84","departement":"07","arrondissement":"073","commune":"07248"},
{"name":"Saint-Prix","latitude":"44.94278","longitude":"4.50083","population":"254","region":"84","departement":"07","arrondissement":"073","commune":"07290"},
{"name":"Saint-Jean-Chambre","latitude":"44.9037","longitude":"4.5656","population":"254","region":"84","departement":"07","arrondissement":"073","commune":"07244"},
{"name":"Saint-Martial","latitude":"44.8675","longitude":"4.27472","population":"248","region":"84","departement":"07","arrondissement":"073","commune":"07267"},
{"name":"Saint-Michel-d'Aurance","latitude":"44.90194","longitude":"4.46083","population":"247","region":"84","departement":"07","arrondissement":"073","commune":"07276"},
{"name":"Beauvène","latitude":"44.8767","longitude":"4.5107","population":"233","region":"84","departement":"07","arrondissement":"072","commune":"07030"},
{"name":"Les Vastres","latitude":"44.9892","longitude":"4.2614","population":"221","region":"84","departement":"43","arrondissement":"432","commune":"43253"},
{"name":"Saint-Julien-Boutières","latitude":"44.97417","longitude":"4.35194","population":"213","region":"84","departement":"07","arrondissement":"073","commune":"07252"},
{"name":"Saint-Barthélemy-le-Meil","latitude":"44.8848","longitude":"4.499","population":"211","region":"84","departement":"07","arrondissement":"073","commune":"07215"},
{"name":"Nonières","latitude":"44.93333","longitude":"4.48694","population":"210","region":"84","departement":"07","arrondissement":"073","commune":"07165"},
{"name":"Lachapelle-sous-Chanéac","latitude":"44.9478","longitude":"4.3316","population":"195","region":"84","departement":"07","arrondissement":"073","commune":"07123"},
{"name":"Labatie-d'Andaure","latitude":"45.02472","longitude":"4.49306","population":"194","region":"84","departement":"07","arrondissement":"073","commune":"07114"},
{"name":"Saint-Cierge-sous-le-Cheylard","latitude":"44.9226","longitude":"4.4477","population":"191","region":"84","departement":"07","arrondissement":"073","commune":"07222"},
{"name":"Borée","latitude":"44.89833","longitude":"4.24028","population":"168","region":"84","departement":"07","arrondissement":"073","commune":"07037"},
{"name":"Jaunac","latitude":"44.9199","longitude":"4.4","population":"144","region":"84","departement":"07","arrondissement":"073","commune":"07108"},
{"name":"Intres","latitude":"44.98278","longitude":"4.3625","population":"116","region":"84","departement":"07","arrondissement":"073","commune":"07103"},
{"name":"Saint-Christol","latitude":"44.8677","longitude":"4.4414","population":"112","region":"84","departement":"07","arrondissement":"073","commune":"07220"},
{"name":"Saint-Clément","latitude":"44.95278","longitude":"4.265","population":"107","region":"84","departement":"07","arrondissement":"073","commune":"07226"},
{"name":"Saint-Genest-Lachamp","latitude":"44.84694","longitude":"4.42361","population":"99","region":"84","departement":"07","arrondissement":"073","commune":"07239"},
{"name":"Saint-Jeure-d'Andaure","latitude":"45.04639","longitude":"4.45806","population":"92","region":"84","departement":"07","arrondissement":"073","commune":"07249"},
{"name":"La Rochette","latitude":"44.9163","longitude":"4.2416","population":"59","region":"84","departement":"07","arrondissement":"073","commune":"07195"},
{"name":"Saint-Andéol-de-Fourchades","latitude":"44.8488","longitude":"4.2992","population":"53","region":"84","departement":"07","arrondissement":"073","commune":"07209"},
{"name":"Lafarre","latitude":"45.0792","longitude":"4.5098","population":"40","region":"84","departement":"07","arrondissement":"073","commune":"07124"}
]