[
{"name":"Sillé-le-Guillaume","latitude":"48.1833","longitude":"-0.1288","population":"2361","region":"52","departement":"72","arrondissement":"722","commune":"72334"},
{"name":"Loué","latitude":"47.99556","longitude":"-0.15333","population":"2129","region":"52","departement":"72","arrondissement":"721","commune":"72168"},
{"name":"Conlie","latitude":"48.12333","longitude":"-0.0175","population":"1844","region":"52","departement":"72","arrondissement":"722","commune":"72089"},
{"name":"Tennie","latitude":"48.10806","longitude":"-0.07583","population":"1023","region":"52","departement":"72","arrondissement":"722","commune":"72351"},
{"name":"Saint-Denis-d'Orques","latitude":"48.02833","longitude":"-0.27306","population":"901","region":"52","departement":"72","arrondissement":"721","commune":"72278"},
{"name":"Voutré","latitude":"48.1365","longitude":"-0.2899","population":"874","region":"52","departement":"53","arrondissement":"532","commune":"53276"},
{"name":"Rouessé-Vassé","latitude":"48.15917","longitude":"-0.19861","population":"797","region":"52","departement":"72","arrondissement":"722","commune":"72255"},
{"name":"Rouez","latitude":"48.13972","longitude":"-0.11417","population":"785","region":"52","departement":"72","arrondissement":"722","commune":"72256"},
{"name":"Saint-Rémy-de-Sillé","latitude":"48.18611","longitude":"-0.09278","population":"760","region":"52","departement":"72","arrondissement":"722","commune":"72315"},
{"name":"Torcé-Viviers-en-Charnie","latitude":"48.0987","longitude":"-0.2611","population":"732","region":"52","departement":"53","arrondissement":"532","commune":"53265"},
{"name":"Brains-sur-Gée","latitude":"48.01611","longitude":"-0.02611","population":"687","region":"52","departement":"72","arrondissement":"721","commune":"72045"},
{"name":"Joué-en-Charnie","latitude":"48.01778","longitude":"-0.19083","population":"620","region":"52","departement":"72","arrondissement":"721","commune":"72149"},
{"name":"Neuvillalais","latitude":"48.15667","longitude":"-0.00083","population":"581","region":"52","departement":"72","arrondissement":"722","commune":"72216"},
{"name":"Saint-Symphorien","latitude":"48.0726","longitude":"-0.1144","population":"563","region":"52","departement":"72","arrondissement":"722","commune":"72321"},
{"name":"Parennes","latitude":"48.11944","longitude":"-0.18528","population":"551","region":"52","departement":"72","arrondissement":"722","commune":"72229"},
{"name":"Crissé","latitude":"48.16861","longitude":"-0.06083","population":"548","region":"52","departement":"72","arrondissement":"722","commune":"72109"},
{"name":"Cures","latitude":"48.10028","longitude":"-0.005","population":"536","region":"52","departement":"72","arrondissement":"722","commune":"72111"},
{"name":"Amné","latitude":"48.0402","longitude":"-0.0586","population":"490","region":"52","departement":"72","arrondissement":"721","commune":"72004"},
{"name":"Saint-Pierre-sur-Orthe","latitude":"48.21083","longitude":"-0.2075","population":"485","region":"52","departement":"53","arrondissement":"533","commune":"53249"},
{"name":"Bernay-en-Champagne","latitude":"48.07417","longitude":"-0.05972","population":"437","region":"52","departement":"72","arrondissement":"722","commune":"72033"},
{"name":"Saint-Georges-sur-Erve","latitude":"48.16833","longitude":"-0.29806","population":"419","region":"52","departement":"53","arrondissement":"532","commune":"53221"},
{"name":"Assé-le-Bérenger","latitude":"48.15556","longitude":"-0.32056","population":"414","region":"52","departement":"53","arrondissement":"532","commune":"53010"},
{"name":"Saint-Martin-de-Connée","latitude":"48.21361","longitude":"-0.21917","population":"408","region":"52","departement":"53","arrondissement":"533","commune":"53239"},
{"name":"Le Grez","latitude":"48.1896","longitude":"-0.1522","population":"391","region":"52","departement":"72","arrondissement":"722","commune":"72145"},
{"name":"Neuvy-en-Champagne","latitude":"48.08056","longitude":"-0.03889","population":"377","region":"52","departement":"72","arrondissement":"722","commune":"72219"},
{"name":"Longnes","latitude":"48.02028","longitude":"-0.07972","population":"365","region":"52","departement":"72","arrondissement":"721","commune":"72166"},
{"name":"Pezé-le-Robert","latitude":"48.19361","longitude":"-0.05861","population":"364","region":"52","departement":"72","arrondissement":"722","commune":"72234"},
{"name":"Ruillé-en-Champagne","latitude":"48.06","longitude":"-0.08361","population":"331","region":"52","departement":"72","arrondissement":"722","commune":"72261"},
{"name":"Neuvillette-en-Charnie","latitude":"48.09306","longitude":"-0.21222","population":"299","region":"52","departement":"72","arrondissement":"722","commune":"72218"},
{"name":"Épineu-le-Chevreuil","latitude":"48.03806","longitude":"-0.11583","population":"285","region":"52","departement":"72","arrondissement":"721","commune":"72126"},
{"name":"Chassillé","latitude":"48.02056","longitude":"-0.11611","population":"249","region":"52","departement":"72","arrondissement":"721","commune":"72070"},
{"name":"Auvers-sous-Montfaucon","latitude":"48.006","longitude":"-0.0694","population":"235","region":"52","departement":"72","arrondissement":"721","commune":"72017"},
{"name":"Vimarcé","latitude":"48.19556","longitude":"-0.21444","population":"224","region":"52","departement":"53","arrondissement":"532","commune":"53274"},
{"name":"Chemiré-en-Charnie","latitude":"48.05389","longitude":"-0.20278","population":"206","region":"52","departement":"72","arrondissement":"721","commune":"72074"},
{"name":"Blandouet","latitude":"48.05111","longitude":"-0.32861","population":"198","region":"52","departement":"53","arrondissement":"532","commune":"53032"},
{"name":"Tassillé","latitude":"47.99278","longitude":"-0.09333","population":"140","region":"52","departement":"72","arrondissement":"721","commune":"72348"}
]