[
{"name":"Moissac","latitude":"44.10472","longitude":"1.08528","population":"12244","region":"76","departement":"82","arrondissement":"821","commune":"82112"},
{"name":"Lafrançaise","latitude":"44.12778","longitude":"1.24056","population":"2828","region":"76","departement":"82","arrondissement":"822","commune":"82087"},
{"name":"Castelnau-Montratier","latitude":"44.2692","longitude":"1.3535","population":"1837","region":"76","departement":"46","arrondissement":"461","commune":"46063"},
{"name":"L'Honor-de-Cos","latitude":"44.1225","longitude":"1.3499","population":"1580","region":"76","departement":"82","arrondissement":"822","commune":"82076"},
{"name":"Lauzerte","latitude":"44.25583","longitude":"1.1375","population":"1518","region":"76","departement":"82","arrondissement":"821","commune":"82094"},
{"name":"Montcuq-en-Quercy-Blanc","latitude":"44.33861","longitude":"1.20972","population":"1294","region":"76","departement":"46","arrondissement":"461","commune":"46201"},
{"name":"Cazes-Mondenard","latitude":"44.22694","longitude":"1.20222","population":"1200","region":"76","departement":"82","arrondissement":"821","commune":"82042"},
{"name":"Molières","latitude":"44.1936","longitude":"1.3634","population":"1131","region":"76","departement":"82","arrondissement":"822","commune":"82113"},
{"name":"Meauzac","latitude":"44.08861","longitude":"1.23944","population":"1085","region":"76","departement":"82","arrondissement":"821","commune":"82108"},
{"name":"Durfort-Lacapelette","latitude":"44.1864","longitude":"1.1555","population":"781","region":"76","departement":"82","arrondissement":"821","commune":"82051"},
{"name":"Montesquieu","latitude":"44.1864","longitude":"1.0799","population":"775","region":"76","departement":"82","arrondissement":"821","commune":"82127"},
{"name":"Vazerac","latitude":"44.19083","longitude":"1.28472","population":"755","region":"76","departement":"82","arrondissement":"822","commune":"82189"},
{"name":"Puycornet","latitude":"44.1549","longitude":"1.3193","population":"654","region":"76","departement":"82","arrondissement":"822","commune":"82144"},
{"name":"Les Barthes","latitude":"44.09667","longitude":"1.17","population":"473","region":"76","departement":"82","arrondissement":"821","commune":"82012"},
{"name":"Lizac","latitude":"44.10528","longitude":"1.18667","population":"468","region":"76","departement":"82","arrondissement":"821","commune":"82099"},
{"name":"Pern","latitude":"44.3286","longitude":"1.4048","population":"453","region":"76","departement":"46","arrondissement":"461","commune":"46217"},
{"name":"Saint-Paul-Flaugnac","latitude":"44.27833","longitude":"1.39361","population":"428","region":"76","departement":"46","arrondissement":"461","commune":"46103"},
{"name":"Piquecos","latitude":"44.09917","longitude":"1.32083","population":"384","region":"76","departement":"82","arrondissement":"822","commune":"82140"},
{"name":"Labarthe","latitude":"44.208","longitude":"1.3184","population":"364","region":"76","departement":"82","arrondissement":"822","commune":"82077"},
{"name":"Miramont-de-Quercy","latitude":"44.23028","longitude":"1.06583","population":"349","region":"76","departement":"82","arrondissement":"821","commune":"82111"},
{"name":"Saint-Cyprien","latitude":"44.30778","longitude":"1.26389","population":"309","region":"76","departement":"46","arrondissement":"461","commune":"46262"},
{"name":"Montastruc","latitude":"44.1009","longitude":"1.295","population":"268","region":"76","departement":"82","arrondissement":"822","commune":"82120"},
{"name":"Tréjouls","latitude":"44.2675","longitude":"1.23583","population":"266","region":"76","departement":"82","arrondissement":"821","commune":"82183"},
{"name":"Saint-Amans-de-Pellagal","latitude":"44.22778","longitude":"1.10889","population":"243","region":"76","departement":"82","arrondissement":"821","commune":"82154"},
{"name":"Bouloc","latitude":"44.29944","longitude":"1.12611","population":"229","region":"76","departement":"82","arrondissement":"821","commune":"82021"},
{"name":"Belvèze","latitude":"44.33","longitude":"1.09167","population":"208","region":"76","departement":"82","arrondissement":"821","commune":"82016"},
{"name":"Saint-Laurent-Lolmie","latitude":"44.2917","longitude":"1.2293","population":"199","region":"76","departement":"46","arrondissement":"461","commune":"46274"},
{"name":"Lascabanes","latitude":"44.3394","longitude":"1.3076","population":"183","region":"76","departement":"46","arrondissement":"461","commune":"46158"},
{"name":"Montagudet","latitude":"44.24389","longitude":"1.09139","population":"181","region":"76","departement":"82","arrondissement":"821","commune":"82116"},
{"name":"Sauveterre","latitude":"44.26583","longitude":"1.27167","population":"167","region":"76","departement":"82","arrondissement":"821","commune":"82177"},
{"name":"Montbarla","latitude":"44.22056","longitude":"1.09306","population":"165","region":"76","departement":"82","arrondissement":"821","commune":"82122"},
{"name":"Sainte-Alauzie","latitude":"44.31333","longitude":"1.315","population":"143","region":"76","departement":"46","arrondissement":"461","commune":"46248"},
{"name":"Montlauzun","latitude":"44.29306","longitude":"1.19583","population":"128","region":"76","departement":"46","arrondissement":"461","commune":"46206"},
{"name":"Sainte-Juliette","latitude":"44.28639","longitude":"1.16944","population":"121","region":"76","departement":"82","arrondissement":"821","commune":"82164"}
]