[
{"name":"La Roche-sur-Yon","latitude":"46.66972","longitude":"-1.42778","population":"52234","region":"52","departement":"85","arrondissement":"852","commune":"85191"},
{"name":"Aizenay","latitude":"46.74","longitude":"-1.60833","population":"7930","region":"52","departement":"85","arrondissement":"852","commune":"85003"},
{"name":"Le Poiré-sur-Vie","latitude":"46.76861","longitude":"-1.50833","population":"7638","region":"52","departement":"85","arrondissement":"852","commune":"85178"},
{"name":"Mouilleron-le-Captif","latitude":"46.71722","longitude":"-1.45556","population":"4511","region":"52","departement":"85","arrondissement":"852","commune":"85155"},
{"name":"Venansault","latitude":"46.68611","longitude":"-1.5125","population":"4331","region":"52","departement":"85","arrondissement":"852","commune":"85300"},
{"name":"Bellevigny","latitude":"46.78333","longitude":"-1.43111","population":"3755","region":"52","departement":"85","arrondissement":"852","commune":"85019"},
{"name":"Aubigny-Les Clouzeaux","latitude":"46.59667","longitude":"-1.45389","population":"2905","region":"52","departement":"85","arrondissement":"852","commune":"85008"},
{"name":"La Mothe-Achard","latitude":"46.61861","longitude":"-1.65917","population":"2524","region":"52","departement":"85","arrondissement":"853","commune":"85152"},
{"name":"Nieul-le-Dolent","latitude":"46.575","longitude":"-1.50889","population":"2222","region":"52","departement":"85","arrondissement":"853","commune":"85161"},
{"name":"Landeronde","latitude":"46.65806","longitude":"-1.57139","population":"2136","region":"52","departement":"85","arrondissement":"853","commune":"85118"},
{"name":"Sainte-Flaive-des-Loups","latitude":"46.61194","longitude":"-1.58","population":"2052","region":"52","departement":"85","arrondissement":"853","commune":"85211"},
{"name":"Beaulieu-sous-la-Roche","latitude":"46.6767","longitude":"-1.6093","population":"2020","region":"52","departement":"85","arrondissement":"853","commune":"85016"},
{"name":"Saint-Mathurin","latitude":"46.5651","longitude":"-1.7137","population":"1849","region":"52","departement":"85","arrondissement":"853","commune":"85250"},
{"name":"La Chapelle-Achard","latitude":"46.58944","longitude":"-1.64722","population":"1708","region":"52","departement":"85","arrondissement":"853","commune":"85052"},
{"name":"La Génétouze","latitude":"46.72694","longitude":"-1.51306","population":"1702","region":"52","departement":"85","arrondissement":"852","commune":"85098"},
{"name":"Apremont","latitude":"46.75","longitude":"-1.74083","population":"1546","region":"52","departement":"85","arrondissement":"853","commune":"85006"},
{"name":"Saint-Georges-de-Pointindoux","latitude":"46.64472","longitude":"-1.62306","population":"1508","region":"52","departement":"85","arrondissement":"853","commune":"85218"},
{"name":"Vairé","latitude":"46.60167","longitude":"-1.75611","population":"1474","region":"52","departement":"85","arrondissement":"853","commune":"85298"},
{"name":"Maché","latitude":"46.75556","longitude":"-1.68639","population":"1337","region":"52","departement":"85","arrondissement":"853","commune":"85130"},
{"name":"Saint-Julien-des-Landes","latitude":"46.64083","longitude":"-1.71333","population":"1331","region":"52","departement":"85","arrondissement":"853","commune":"85236"},
{"name":"La Boissière-des-Landes","latitude":"46.56472","longitude":"-1.46222","population":"1283","region":"52","departement":"85","arrondissement":"853","commune":"85026"},
{"name":"La Chapelle-Palluau","latitude":"46.78333","longitude":"-1.62278","population":"911","region":"52","departement":"85","arrondissement":"853","commune":"85055"},
{"name":"Le Girouard","latitude":"46.56778","longitude":"-1.59944","population":"852","region":"52","departement":"85","arrondissement":"853","commune":"85099"},
{"name":"Martinet","latitude":"46.67667","longitude":"-1.67944","population":"844","region":"52","departement":"85","arrondissement":"853","commune":"85138"},
{"name":"La Chapelle-Hermier","latitude":"46.68361","longitude":"-1.72028","population":"796","region":"52","departement":"85","arrondissement":"853","commune":"85054"},
{"name":"Saint-Paul-Mont-Penit","latitude":"46.79778","longitude":"-1.66","population":"664","region":"52","departement":"85","arrondissement":"853","commune":"85260"}
]