[
{"name":"Carentan les Marais","latitude":"49.30333","longitude":"-1.24833","population":"6056","region":"28","departement":"50","arrondissement":"504","commune":"50099"},
{"name":"Isigny-sur-Mer","latitude":"49.31778","longitude":"-1.10222","population":"2782","region":"28","departement":"14","arrondissement":"141","commune":"14342"},
{"name":"Pont-Hébert","latitude":"49.16667","longitude":"-1.13333","population":"1787","region":"28","departement":"50","arrondissement":"504","commune":"50409"},
{"name":"Saint-Hilaire-Petitville","latitude":"49.30389","longitude":"-1.22778","population":"1396","region":"28","departement":"50","arrondissement":"504","commune":"50485"},
{"name":"La Meauffe","latitude":"49.17639","longitude":"-1.11111","population":"1087","region":"28","departement":"50","arrondissement":"504","commune":"50297"},
{"name":"Terre-et-Marais","latitude":"49.23833","longitude":"-1.31417","population":"793","region":"28","departement":"50","arrondissement":"504","commune":"50564"},
{"name":"Graignes-Mesnil-Angot","latitude":"49.2381","longitude":"-1.2007","population":"789","region":"28","departement":"50","arrondissement":"504","commune":"50216"},
{"name":"Sainte-Marie-du-Mont","latitude":"49.37833","longitude":"-1.22611","population":"761","region":"28","departement":"50","arrondissement":"502","commune":"50509"},
{"name":"Saint-Fromond","latitude":"49.22056","longitude":"-1.09139","population":"750","region":"28","departement":"50","arrondissement":"504","commune":"50468"},
{"name":"Marchésieux","latitude":"49.1875","longitude":"-1.29111","population":"713","region":"28","departement":"50","arrondissement":"503","commune":"50289"},
{"name":"Auvers","latitude":"49.29611","longitude":"-1.32417","population":"662","region":"28","departement":"50","arrondissement":"504","commune":"50023"},
{"name":"Remilly-sur-Lozon","latitude":"49.18083","longitude":"-1.25694","population":"661","region":"28","departement":"50","arrondissement":"504","commune":"50431"},
{"name":"Méautis","latitude":"49.27806","longitude":"-1.29944","population":"653","region":"28","departement":"50","arrondissement":"504","commune":"50298"},
{"name":"Saint-Jean-de-Daye","latitude":"49.22778","longitude":"-1.13778","population":"604","region":"28","departement":"50","arrondissement":"504","commune":"50488"},
{"name":"Osmanville","latitude":"49.32889","longitude":"-1.08139","population":"597","region":"28","departement":"14","arrondissement":"141","commune":"14480"},
{"name":"Montmartin-en-Graignes","latitude":"49.27528","longitude":"-1.14667","population":"557","region":"28","departement":"50","arrondissement":"504","commune":"50348"},
{"name":"Le Dézert","latitude":"49.20417","longitude":"-1.16444","population":"553","region":"28","departement":"50","arrondissement":"504","commune":"50161"},
{"name":"Villiers-Fossard","latitude":"49.15667","longitude":"-1.06","population":"537","region":"28","departement":"50","arrondissement":"504","commune":"50641"},
{"name":"Saint-Martin-d'Aubigny","latitude":"49.165","longitude":"-1.35","population":"534","region":"28","departement":"50","arrondissement":"503","commune":"50510"},
{"name":"Airel","latitude":"49.21361","longitude":"-1.07639","population":"528","region":"28","departement":"50","arrondissement":"504","commune":"50004"},
{"name":"Tribehou","latitude":"49.21389","longitude":"-1.24389","population":"497","region":"28","departement":"50","arrondissement":"504","commune":"50606"},
{"name":"Neuilly-la-Forêt","latitude":"49.27083","longitude":"-1.09889","population":"466","region":"28","departement":"14","arrondissement":"141","commune":"14462"},
{"name":"Baupte","latitude":"49.30806","longitude":"-1.36139","population":"454","region":"28","departement":"50","arrondissement":"503","commune":"50036"},
{"name":"Le Hommet-d'Arthenay","latitude":"49.19","longitude":"-1.18778","population":"430","region":"28","departement":"50","arrondissement":"504","commune":"50248"},
{"name":"Les Veys","latitude":"49.3155","longitude":"-1.1521","population":"413","region":"28","departement":"50","arrondissement":"504","commune":"50631"},
{"name":"Saint-Pellerin","latitude":"49.29778","longitude":"-1.17833","population":"375","region":"28","departement":"50","arrondissement":"504","commune":"50534"},
{"name":"Brévands","latitude":"49.33167","longitude":"-1.18333","population":"362","region":"28","departement":"50","arrondissement":"504","commune":"50080"},
{"name":"Saint-Sébastien-de-Raids","latitude":"49.19056","longitude":"-1.37139","population":"359","region":"28","departement":"50","arrondissement":"503","commune":"50552"},
{"name":"Saint-André-de-Bohon","latitude":"49.23444","longitude":"-1.25222","population":"314","region":"28","departement":"50","arrondissement":"504","commune":"50445"},
{"name":"Carquebut","latitude":"49.3725","longitude":"-1.33","population":"301","region":"28","departement":"50","arrondissement":"502","commune":"50103"},
{"name":"Blosville","latitude":"49.37333","longitude":"-1.29083","population":"267","region":"28","departement":"50","arrondissement":"502","commune":"50059"},
{"name":"Le Mesnil-Vigot","latitude":"49.15556","longitude":"-1.28194","population":"259","region":"28","departement":"50","arrondissement":"504","commune":"50325"},
{"name":"Liesville-sur-Douve","latitude":"49.35361","longitude":"-1.32111","population":"233","region":"28","departement":"50","arrondissement":"502","commune":"50269"},
{"name":"Les Oubeaux","latitude":"49.28639","longitude":"-1.06722","population":"223","region":"28","departement":"14","arrondissement":"141","commune":"14481"},
{"name":"Appeville","latitude":"49.32167","longitude":"-1.34306","population":"209","region":"28","departement":"50","arrondissement":"503","commune":"50016"},
{"name":"Les Champs-de-Losque","latitude":"49.18278","longitude":"-1.23139","population":"205","region":"28","departement":"50","arrondissement":"504","commune":"50119"},
{"name":"Cavigny","latitude":"49.19333","longitude":"-1.10972","population":"199","region":"28","departement":"50","arrondissement":"504","commune":"50106"},
{"name":"Raids","latitude":"49.21694","longitude":"-1.34417","population":"197","region":"28","departement":"50","arrondissement":"504","commune":"50422"},
{"name":"Saint-Germain-sur-Sèves","latitude":"49.22167","longitude":"-1.37083","population":"196","region":"28","departement":"50","arrondissement":"503","commune":"50482"},
{"name":"Auxais","latitude":"49.21306","longitude":"-1.29861","population":"181","region":"28","departement":"50","arrondissement":"504","commune":"50024"},
{"name":"Gonfreville","latitude":"49.23861","longitude":"-1.395","population":"161","region":"28","departement":"50","arrondissement":"503","commune":"50208"},
{"name":"Beuzeville-la-Bastille","latitude":"49.35694","longitude":"-1.37083","population":"148","region":"28","departement":"50","arrondissement":"502","commune":"50052"},
{"name":"Brucheville","latitude":"49.37333","longitude":"-1.20528","population":"145","region":"28","departement":"50","arrondissement":"502","commune":"50089"},
{"name":"Amigny","latitude":"49.15556","longitude":"-1.17944","population":"140","region":"28","departement":"50","arrondissement":"504","commune":"50006"},
{"name":"Géfosse-Fontenay","latitude":"49.365","longitude":"-1.09361","population":"133","region":"28","departement":"14","arrondissement":"141","commune":"14298"},
{"name":"Catz","latitude":"49.31083","longitude":"-1.18","population":"121","region":"28","departement":"50","arrondissement":"504","commune":"50107"},
{"name":"Cardonville","latitude":"49.345","longitude":"-1.06472","population":"105","region":"28","departement":"14","arrondissement":"141","commune":"14136"},
{"name":"Le Mesnil-Véneron","latitude":"49.22639","longitude":"-1.16444","population":"104","region":"28","departement":"50","arrondissement":"504","commune":"50324"},
{"name":"Nay","latitude":"49.23972","longitude":"-1.37361","population":"80","region":"28","departement":"50","arrondissement":"503","commune":"50368"},
{"name":"Hiesville","latitude":"49.37167","longitude":"-1.26333","population":"75","region":"28","departement":"50","arrondissement":"502","commune":"50246"},
{"name":"Vierville","latitude":"49.36028","longitude":"-1.24667","population":"40","region":"28","departement":"50","arrondissement":"502","commune":"50636"}
]