[
{"name":"Nozay","latitude":"47.56444","longitude":"-1.62528","population":"3784","region":"52","departement":"44","arrondissement":"441","commune":"44113"},
{"name":"Derval","latitude":"47.6675","longitude":"-1.67139","population":"3194","region":"52","departement":"44","arrondissement":"441","commune":"44051"},
{"name":"Grand-Fougeray","latitude":"47.72306","longitude":"-1.73306","population":"2321","region":"53","departement":"35","arrondissement":"352","commune":"35124"},
{"name":"Vay","latitude":"47.55472","longitude":"-1.70111","population":"1921","region":"52","departement":"44","arrondissement":"441","commune":"44214"},
{"name":"Abbaretz","latitude":"47.5525","longitude":"-1.53167","population":"1872","region":"52","departement":"44","arrondissement":"441","commune":"44001"},
{"name":"Issé","latitude":"47.62389","longitude":"-1.45111","population":"1827","region":"52","departement":"44","arrondissement":"441","commune":"44075"},
{"name":"Sion-les-Mines","latitude":"47.735","longitude":"-1.59194","population":"1627","region":"52","departement":"44","arrondissement":"441","commune":"44197"},
{"name":"Saint-Aubin-des-Châteaux","latitude":"47.72","longitude":"-1.48639","population":"1577","region":"52","departement":"44","arrondissement":"441","commune":"44153"},
{"name":"La Grigonnais","latitude":"47.52667","longitude":"-1.6675","population":"1507","region":"52","departement":"44","arrondissement":"441","commune":"44224"},
{"name":"Le Gâvre","latitude":"47.52056","longitude":"-1.74861","population":"1471","region":"52","departement":"44","arrondissement":"441","commune":"44062"},
{"name":"Saint-Vincent-des-Landes","latitude":"47.65556","longitude":"-1.49667","population":"1436","region":"52","departement":"44","arrondissement":"441","commune":"44193"},
{"name":"Marsac-sur-Don","latitude":"47.59556","longitude":"-1.68028","population":"1416","region":"52","departement":"44","arrondissement":"441","commune":"44091"},
{"name":"Conquereuil","latitude":"47.62444","longitude":"-1.75139","population":"1036","region":"52","departement":"44","arrondissement":"441","commune":"44044"},
{"name":"Jans","latitude":"47.62111","longitude":"-1.61389","population":"1035","region":"52","departement":"44","arrondissement":"441","commune":"44076"},
{"name":"Lusanger","latitude":"47.68083","longitude":"-1.58833","population":"1016","region":"52","departement":"44","arrondissement":"441","commune":"44086"},
{"name":"Puceul","latitude":"47.52194","longitude":"-1.61694","population":"942","region":"52","departement":"44","arrondissement":"441","commune":"44138"},
{"name":"Pierric","latitude":"47.68667","longitude":"-1.73667","population":"918","region":"52","departement":"44","arrondissement":"441","commune":"44123"},
{"name":"Louisfert","latitude":"47.675","longitude":"-1.43306","population":"890","region":"52","departement":"44","arrondissement":"441","commune":"44085"},
{"name":"Treffieux","latitude":"47.61972","longitude":"-1.5375","population":"746","region":"52","departement":"44","arrondissement":"441","commune":"44208"},
{"name":"Mouais","latitude":"47.69556","longitude":"-1.64444","population":"369","region":"52","departement":"44","arrondissement":"441","commune":"44105"}
]