[
{"name":"Semur-en-Auxois","latitude":"47.4912","longitude":"4.3334","population":"4260","region":"27","departement":"21","arrondissement":"213","commune":"21603"},
{"name":"Saulieu","latitude":"47.2797","longitude":"4.229","population":"2574","region":"27","departement":"21","arrondissement":"213","commune":"21584"},
{"name":"Vitteaux","latitude":"47.39778","longitude":"4.54167","population":"1106","region":"27","departement":"21","arrondissement":"213","commune":"21710"},
{"name":"Précy-sous-Thil","latitude":"47.38694","longitude":"4.31222","population":"762","region":"27","departement":"21","arrondissement":"213","commune":"21505"},
{"name":"Pouillenay","latitude":"47.50722","longitude":"4.46833","population":"555","region":"27","departement":"21","arrondissement":"213","commune":"21500"},
{"name":"Flavigny-sur-Ozerain","latitude":"47.5119","longitude":"4.5314","population":"314","region":"27","departement":"21","arrondissement":"213","commune":"21271"},
{"name":"Marigny-le-Cahouët","latitude":"47.46389","longitude":"4.46028","population":"262","region":"27","departement":"21","arrondissement":"213","commune":"21386"},
{"name":"Mont-Saint-Jean","latitude":"47.2925","longitude":"4.40194","population":"245","region":"27","departement":"21","arrondissement":"211","commune":"21441"},
{"name":"Courcelles-lès-Semur","latitude":"47.45583","longitude":"4.30028","population":"236","region":"27","departement":"21","arrondissement":"213","commune":"21205"},
{"name":"Vic-de-Chassenay","latitude":"47.47306","longitude":"4.26583","population":"232","region":"27","departement":"21","arrondissement":"213","commune":"21676"},
{"name":"Dompierre-en-Morvan","latitude":"47.39444","longitude":"4.23361","population":"225","region":"27","departement":"21","arrondissement":"213","commune":"21232"},
{"name":"Aisy-sous-Thil","latitude":"47.39333","longitude":"4.2875","population":"219","region":"27","departement":"21","arrondissement":"213","commune":"21007"},
{"name":"Bellenot-sous-Pouilly","latitude":"47.28306","longitude":"4.54639","population":"217","region":"27","departement":"21","arrondissement":"211","commune":"21062"},
{"name":"Vic-sous-Thil","latitude":"47.37","longitude":"4.30944","population":"203","region":"27","departement":"21","arrondissement":"213","commune":"21678"},
{"name":"Massingy-lès-Semur","latitude":"47.51083","longitude":"4.40139","population":"201","region":"27","departement":"21","arrondissement":"213","commune":"21394"},
{"name":"Pont-et-Massène","latitude":"47.47028","longitude":"4.3575","population":"200","region":"27","departement":"21","arrondissement":"213","commune":"21497"},
{"name":"Saint-Euphrône","latitude":"47.47778","longitude":"4.38028","population":"198","region":"27","departement":"21","arrondissement":"213","commune":"21547"},
{"name":"Thorey-sous-Charny","latitude":"47.32389","longitude":"4.44667","population":"189","region":"27","departement":"21","arrondissement":"213","commune":"21633"},
{"name":"Nan-sous-Thil","latitude":"47.37417","longitude":"4.35917","population":"185","region":"27","departement":"21","arrondissement":"213","commune":"21449"},
{"name":"Braux","latitude":"47.40944","longitude":"4.42444","population":"181","region":"27","departement":"21","arrondissement":"213","commune":"21101"},
{"name":"Villargoix","latitude":"47.29306","longitude":"4.2925","population":"176","region":"27","departement":"21","arrondissement":"213","commune":"21687"},
{"name":"Clamerey","latitude":"47.38667","longitude":"4.42667","population":"172","region":"27","departement":"21","arrondissement":"213","commune":"21177"},
{"name":"La Motte-Ternant","latitude":"47.32417","longitude":"4.3325","population":"168","region":"27","departement":"21","arrondissement":"213","commune":"21445"},
{"name":"Flée","latitude":"47.43528","longitude":"4.32889","population":"163","region":"27","departement":"21","arrondissement":"213","commune":"21272"},
{"name":"Villars-et-Villenotte","latitude":"47.51194","longitude":"4.3775","population":"160","region":"27","departement":"21","arrondissement":"213","commune":"21689"},
{"name":"Montlay-en-Auxois","latitude":"47.35","longitude":"4.28056","population":"155","region":"27","departement":"21","arrondissement":"213","commune":"21434"},
{"name":"Saint-Thibault","latitude":"47.37306","longitude":"4.4725","population":"153","region":"27","departement":"21","arrondissement":"213","commune":"21576"},
{"name":"Fontangy","latitude":"47.34611","longitude":"4.35611","population":"151","region":"27","departement":"21","arrondissement":"213","commune":"21280"},
{"name":"Torcy-et-Pouligny","latitude":"47.49333","longitude":"4.2225","population":"150","region":"27","departement":"21","arrondissement":"213","commune":"21640"},
{"name":"La Roche-Vanneau","latitude":"47.47333","longitude":"4.52639","population":"144","region":"27","departement":"21","arrondissement":"213","commune":"21528"},
{"name":"Montigny-sur-Armançon","latitude":"47.43333","longitude":"4.37417","population":"137","region":"27","departement":"21","arrondissement":"213","commune":"21431"},
{"name":"Soussey-sur-Brionne","latitude":"47.32556","longitude":"4.53111","population":"135","region":"27","departement":"21","arrondissement":"213","commune":"21613"},
{"name":"Lacour-d'Arcenay","latitude":"47.36278","longitude":"4.25222","population":"130","region":"27","departement":"21","arrondissement":"213","commune":"21335"},
{"name":"Thoste","latitude":"47.43639","longitude":"4.22583","population":"119","region":"27","departement":"21","arrondissement":"213","commune":"21635"},
{"name":"Beurizot","latitude":"47.35222","longitude":"4.49472","population":"115","region":"27","departement":"21","arrondissement":"213","commune":"21069"},
{"name":"Arnay-sous-Vitteaux","latitude":"47.44611","longitude":"4.4975","population":"112","region":"27","departement":"21","arrondissement":"213","commune":"21024"},
{"name":"Brianny","latitude":"47.41139","longitude":"4.37333","population":"111","region":"27","departement":"21","arrondissement":"213","commune":"21108"},
{"name":"Missery","latitude":"47.30778","longitude":"4.37361","population":"107","region":"27","departement":"21","arrondissement":"213","commune":"21417"},
{"name":"Gissey-le-Vieil","latitude":"47.32306","longitude":"4.48222","population":"105","region":"27","departement":"21","arrondissement":"213","commune":"21298"},
{"name":"Villeneuve-sous-Charigny","latitude":"47.43833","longitude":"4.39528","population":"96","region":"27","departement":"21","arrondissement":"213","commune":"21696"},
{"name":"Souhey","latitude":"47.485","longitude":"4.41861","population":"92","region":"27","departement":"21","arrondissement":"213","commune":"21612"},
{"name":"Marcilly-et-Dracy","latitude":"47.40194","longitude":"4.49972","population":"92","region":"27","departement":"21","arrondissement":"213","commune":"21381"},
{"name":"Noidan","latitude":"47.345","longitude":"4.40889","population":"89","region":"27","departement":"21","arrondissement":"213","commune":"21457"},
{"name":"Chassey","latitude":"47.47611","longitude":"4.44528","population":"88","region":"27","departement":"21","arrondissement":"213","commune":"21151"},
{"name":"Bierre-lès-Semur","latitude":"47.41944","longitude":"4.30056","population":"86","region":"27","departement":"21","arrondissement":"213","commune":"21073"},
{"name":"Magny-la-Ville","latitude":"47.48167","longitude":"4.42889","population":"85","region":"27","departement":"21","arrondissement":"213","commune":"21365"},
{"name":"Montigny-Saint-Barthélemy","latitude":"47.42417","longitude":"4.26972","population":"83","region":"27","departement":"21","arrondissement":"213","commune":"21430"},
{"name":"Dampierre-en-Montagne","latitude":"47.43306","longitude":"4.55861","population":"78","region":"27","departement":"21","arrondissement":"213","commune":"21224"},
{"name":"Blancey","latitude":"47.30389","longitude":"4.46556","population":"71","region":"27","departement":"21","arrondissement":"211","commune":"21082"},
{"name":"Posanges","latitude":"47.41861","longitude":"4.52583","population":"66","region":"27","departement":"21","arrondissement":"213","commune":"21498"},
{"name":"Sainte-Colombe-en-Auxois","latitude":"47.4273","longitude":"4.4585","population":"64","region":"27","departement":"21","arrondissement":"213","commune":"21544"},
{"name":"Éguilly","latitude":"47.30361","longitude":"4.50028","population":"62","region":"27","departement":"21","arrondissement":"211","commune":"21244"},
{"name":"Marcigny-sous-Thil","latitude":"47.39056","longitude":"4.38361","population":"60","region":"27","departement":"21","arrondissement":"213","commune":"21380"},
{"name":"Martrois","latitude":"47.3112","longitude":"4.5377","population":"59","region":"27","departement":"21","arrondissement":"211","commune":"21392"},
{"name":"Juillenay","latitude":"47.36","longitude":"4.27611","population":"53","region":"27","departement":"21","arrondissement":"213","commune":"21328"},
{"name":"Normier","latitude":"47.36722","longitude":"4.435","population":"50","region":"27","departement":"21","arrondissement":"213","commune":"21463"},
{"name":"Juilly","latitude":"47.49","longitude":"4.40028","population":"43","region":"27","departement":"21","arrondissement":"213","commune":"21329"},
{"name":"Charigny","latitude":"47.43083","longitude":"4.42472","population":"42","region":"27","departement":"21","arrondissement":"213","commune":"21145"},
{"name":"Velogny","latitude":"47.40389","longitude":"4.46194","population":"40","region":"27","departement":"21","arrondissement":"213","commune":"21662"},
{"name":"Roilly","latitude":"47.41889","longitude":"4.34","population":"35","region":"27","departement":"21","arrondissement":"213","commune":"21529"},
{"name":"Charny","latitude":"47.3364","longitude":"4.4297","population":"33","region":"27","departement":"21","arrondissement":"213","commune":"21147"},
{"name":"Boussey","latitude":"47.3725","longitude":"4.55361","population":"30","region":"27","departement":"21","arrondissement":"213","commune":"21097"},
{"name":"Villeferry","latitude":"47.45528","longitude":"4.515","population":"30","region":"27","departement":"21","arrondissement":"213","commune":"21694"},
{"name":"Brain","latitude":"47.46333","longitude":"4.50639","population":"30","region":"27","departement":"21","arrondissement":"213","commune":"21100"},
{"name":"Vesvres","latitude":"47.38278","longitude":"4.53194","population":"24","region":"27","departement":"21","arrondissement":"213","commune":"21672"}
]