[
{"name":"Saint-Jean-de-Maurienne","latitude":"45.27667","longitude":"6.345","population":"8507","region":"84","departement":"73","arrondissement":"733","commune":"73248"},
{"name":"Modane","latitude":"45.20139","longitude":"6.67333","population":"3639","region":"84","departement":"73","arrondissement":"733","commune":"73157"},
{"name":"Saint-Michel-de-Maurienne","latitude":"45.21833","longitude":"6.47361","population":"2778","region":"84","departement":"73","arrondissement":"733","commune":"73261"},
{"name":"Saint-Julien-Mont-Denis","latitude":"45.2565","longitude":"6.4052","population":"1618","region":"84","departement":"73","arrondissement":"733","commune":"73250"},
{"name":"Valloire","latitude":"45.16528","longitude":"6.42833","population":"1299","region":"84","departement":"73","arrondissement":"733","commune":"73306"},
{"name":"Villargondran","latitude":"45.26083","longitude":"6.37417","population":"990","region":"84","departement":"73","arrondissement":"733","commune":"73320"},
{"name":"Fourneaux","latitude":"45.19139","longitude":"6.65167","population":"800","region":"84","departement":"73","arrondissement":"733","commune":"73117"},
{"name":"Saint-Martin-de-la-Porte","latitude":"45.24","longitude":"6.44611","population":"703","region":"84","departement":"73","arrondissement":"733","commune":"73258"},
{"name":"Montricher-Albanne","latitude":"45.2466","longitude":"6.4025","population":"677","region":"84","departement":"73","arrondissement":"733","commune":"73173"},
{"name":"Hermillon","latitude":"45.29833","longitude":"6.36222","population":"532","region":"84","departement":"73","arrondissement":"733","commune":"73135"},
{"name":"Saint-André","latitude":"45.20111","longitude":"6.61917","population":"478","region":"84","departement":"73","arrondissement":"733","commune":"73223"},
{"name":"Valmeinier","latitude":"45.18389","longitude":"6.48167","population":"406","region":"84","departement":"73","arrondissement":"733","commune":"73307"},
{"name":"Albiez-Montrond","latitude":"45.21972","longitude":"6.34083","population":"383","region":"84","departement":"73","arrondissement":"733","commune":"73013"},
{"name":"Orelle","latitude":"45.20917","longitude":"6.53694","population":"379","region":"84","departement":"73","arrondissement":"733","commune":"73194"},
{"name":"Saint-Martin-d'Arc","latitude":"45.21278","longitude":"6.46806","population":"348","region":"84","departement":"73","arrondissement":"733","commune":"73256"},
{"name":"Pontamafrey-Montpascal","latitude":"45.3123","longitude":"6.3422","population":"339","region":"84","departement":"73","arrondissement":"733","commune":"73203"},
{"name":"Montvernier","latitude":"45.32139","longitude":"6.34333","population":"220","region":"84","departement":"73","arrondissement":"733","commune":"73177"},
{"name":"Le Châtel","latitude":"45.30694","longitude":"6.35889","population":"197","region":"84","departement":"73","arrondissement":"733","commune":"73080"},
{"name":"Freney","latitude":"45.19389","longitude":"6.62694","population":"123","region":"84","departement":"73","arrondissement":"733","commune":"73119"},
{"name":"Albiez-le-Jeune","latitude":"45.2448","longitude":"6.3521","population":"111","region":"84","departement":"73","arrondissement":"733","commune":"73012"}
]