[
{"name":"Aubigny-sur-Nère","latitude":"47.48861","longitude":"2.43917","population":"5879","region":"24","departement":"18","arrondissement":"183","commune":"18015"},
{"name":"Neuvy-sur-Barangeon","latitude":"47.31556","longitude":"2.25389","population":"1256","region":"24","departement":"18","arrondissement":"183","commune":"18165"},
{"name":"Souesmes","latitude":"47.45861","longitude":"2.17917","population":"1120","region":"24","departement":"41","arrondissement":"413","commune":"41249"},
{"name":"Nançay","latitude":"47.35","longitude":"2.19444","population":"884","region":"24","departement":"18","arrondissement":"183","commune":"18159"},
{"name":"Pierrefitte-sur-Sauldre","latitude":"47.5128","longitude":"2.1518","population":"848","region":"24","departement":"41","arrondissement":"413","commune":"41176"},
{"name":"La Chapelle-d'Angillon","latitude":"47.36333","longitude":"2.43306","population":"665","region":"24","departement":"18","arrondissement":"183","commune":"18047"},
{"name":"Méry-ès-Bois","latitude":"47.31417","longitude":"2.36306","population":"609","region":"24","departement":"18","arrondissement":"183","commune":"18149"},
{"name":"Ménétréol-sur-Sauldre","latitude":"47.44806","longitude":"2.30806","population":"253","region":"24","departement":"18","arrondissement":"183","commune":"18147"},
{"name":"Presly","latitude":"47.38806","longitude":"2.35806","population":"252","region":"24","departement":"18","arrondissement":"183","commune":"18185"},
{"name":"Orçay","latitude":"47.29056","longitude":"2.11083","population":"235","region":"24","departement":"41","arrondissement":"413","commune":"41168"},
{"name":"Ennordres","latitude":"47.43","longitude":"2.38333","population":"220","region":"24","departement":"18","arrondissement":"183","commune":"18088"},
{"name":"Sainte-Montaine","latitude":"47.49028","longitude":"2.32","population":"203","region":"24","departement":"18","arrondissement":"183","commune":"18227"}
]