[
{"name":"Villefranche-de-Rouergue","latitude":"44.3525","longitude":"2.03417","population":"12213","region":"76","departement":"12","arrondissement":"123","commune":"12300"},
{"name":"Capdenac-Gare","latitude":"44.57167","longitude":"2.08083","population":"4492","region":"76","departement":"12","arrondissement":"123","commune":"12052"},
{"name":"Villeneuve","latitude":"44.4375","longitude":"2.0321","population":"1950","region":"76","departement":"12","arrondissement":"123","commune":"12301"},
{"name":"Cajarc","latitude":"44.4855","longitude":"1.84266","population":"1109","region":"76","departement":"46","arrondissement":"462","commune":"46045"},
{"name":"Capdenac","latitude":"44.5806","longitude":"2.0699","population":"1101","region":"76","departement":"46","arrondissement":"462","commune":"46055"},
{"name":"Maleville","latitude":"44.39722","longitude":"2.10194","population":"935","region":"76","departement":"12","arrondissement":"123","commune":"12136"},
{"name":"Martiel","latitude":"44.37667","longitude":"1.92306","population":"910","region":"76","departement":"12","arrondissement":"123","commune":"12140"},
{"name":"Limogne-en-Quercy","latitude":"44.3979","longitude":"1.7711","population":"796","region":"76","departement":"46","arrondissement":"461","commune":"46173"},
{"name":"Béduer","latitude":"44.58083","longitude":"1.94972","population":"730","region":"76","departement":"46","arrondissement":"462","commune":"46021"},
{"name":"Causse-et-Diège","latitude":"44.514","longitude":"2.0492","population":"723","region":"76","departement":"12","arrondissement":"123","commune":"12257"},
{"name":"Sainte-Croix","latitude":"44.4267","longitude":"1.9682","population":"719","region":"76","departement":"12","arrondissement":"123","commune":"12217"},
{"name":"Toulonjac","latitude":"44.38167","longitude":"2.00056","population":"698","region":"76","departement":"12","arrondissement":"123","commune":"12281"},
{"name":"Faycelles","latitude":"44.56556","longitude":"1.98667","population":"626","region":"76","departement":"46","arrondissement":"462","commune":"46100"},
{"name":"Savignac","latitude":"44.35889","longitude":"1.96556","population":"610","region":"76","departement":"12","arrondissement":"123","commune":"12263"},
{"name":"Foissac","latitude":"44.51111","longitude":"2.00389","population":"439","region":"76","departement":"12","arrondissement":"123","commune":"12104"},
{"name":"Sonnac","latitude":"44.54833","longitude":"2.10861","population":"438","region":"76","departement":"12","arrondissement":"123","commune":"12272"},
{"name":"Salles-Courbatiès","latitude":"44.47139","longitude":"2.0775","population":"401","region":"76","departement":"12","arrondissement":"123","commune":"12252"},
{"name":"Salvagnac-Cajarc","latitude":"44.47501","longitude":"1.84741","population":"354","region":"76","departement":"12","arrondissement":"123","commune":"12256"},
{"name":"Naussac","latitude":"44.52056","longitude":"2.09417","population":"321","region":"76","departement":"12","arrondissement":"123","commune":"12170"},
{"name":"Saint-Rémy","latitude":"44.39861","longitude":"2.03889","population":"315","region":"76","departement":"12","arrondissement":"123","commune":"12242"},
{"name":"Laramière","latitude":"44.352","longitude":"1.8791","population":"310","region":"76","departement":"46","arrondissement":"461","commune":"46154"},
{"name":"La Capelle-Balaguier","latitude":"44.43722","longitude":"1.93694","population":"278","region":"76","departement":"12","arrondissement":"123","commune":"12053"},
{"name":"Gréalou","latitude":"44.53639","longitude":"1.8875","population":"246","region":"76","departement":"46","arrondissement":"462","commune":"46129"},
{"name":"Beauregard","latitude":"44.3457","longitude":"1.7936","population":"244","region":"76","departement":"46","arrondissement":"461","commune":"46020"},
{"name":"Montsalès","latitude":"44.49083","longitude":"1.96306","population":"243","region":"76","departement":"12","arrondissement":"123","commune":"12158"},
{"name":"Brengues","latitude":"44.5779","longitude":"1.8332","population":"220","region":"76","departement":"46","arrondissement":"462","commune":"46039"},
{"name":"Saint-Jean-de-Laur","latitude":"44.4195","longitude":"1.8368","population":"206","region":"76","departement":"46","arrondissement":"462","commune":"46270"},
{"name":"Marcilhac-sur-Célé","latitude":"44.55333","longitude":"1.77083","population":"201","region":"76","departement":"46","arrondissement":"462","commune":"46183"},
{"name":"Calvignac","latitude":"44.46417","longitude":"1.77889","population":"199","region":"76","departement":"46","arrondissement":"461","commune":"46049"},
{"name":"Promilhanes","latitude":"44.37583","longitude":"1.81556","population":"198","region":"76","departement":"46","arrondissement":"461","commune":"46227"},
{"name":"Ambeyrac","latitude":"44.50972","longitude":"1.94389","population":"182","region":"76","departement":"12","arrondissement":"123","commune":"12007"},
{"name":"Saint-Igest","latitude":"44.43889","longitude":"2.08583","population":"178","region":"76","departement":"12","arrondissement":"123","commune":"12227"},
{"name":"Saint-Chels","latitude":"44.5293","longitude":"1.8017","population":"158","region":"76","departement":"46","arrondissement":"462","commune":"46254"},
{"name":"Cadrieu","latitude":"44.49194","longitude":"1.87972","population":"150","region":"76","departement":"46","arrondissement":"462","commune":"46041"},
{"name":"Saint-Pierre-Toirac","latitude":"44.5275","longitude":"1.95389","population":"146","region":"76","departement":"46","arrondissement":"462","commune":"46289"},
{"name":"Ols-et-Rinhodes","latitude":"44.4663","longitude":"1.9619","population":"146","region":"76","departement":"12","arrondissement":"123","commune":"12175"},
{"name":"Larroque-Toirac","latitude":"44.52167","longitude":"1.94194","population":"143","region":"76","departement":"46","arrondissement":"462","commune":"46157"},
{"name":"Larnagol","latitude":"44.47611","longitude":"1.7775","population":"133","region":"76","departement":"46","arrondissement":"462","commune":"46155"},
{"name":"Saujac","latitude":"44.4969","longitude":"1.8926","population":"131","region":"76","departement":"12","arrondissement":"123","commune":"12261"},
{"name":"Saint-Sulpice","latitude":"44.5698","longitude":"1.7918","population":"131","region":"76","departement":"46","arrondissement":"462","commune":"46294"},
{"name":"Balaguier-d'Olt","latitude":"44.52361","longitude":"1.97222","population":"129","region":"76","departement":"12","arrondissement":"123","commune":"12018"},
{"name":"Montbrun","latitude":"44.50528","longitude":"1.90056","population":"114","region":"76","departement":"46","arrondissement":"462","commune":"46198"},
{"name":"Carayac","latitude":"44.5473","longitude":"1.9241","population":"77","region":"76","departement":"46","arrondissement":"462","commune":"46056"},
{"name":"Frontenac","latitude":"44.5392","longitude":"1.9718","population":"76","region":"76","departement":"46","arrondissement":"462","commune":"46116"},
{"name":"Puyjourdes","latitude":"44.4075","longitude":"1.86056","population":"66","region":"76","departement":"46","arrondissement":"462","commune":"46230"}
]