[
{"name":"Saint-Florentin","latitude":"48.00194","longitude":"3.725","population":"4848","region":"27","departement":"89","arrondissement":"891","commune":"89345"},
{"name":"Brienon-sur-Armançon","latitude":"47.99278","longitude":"3.61639","population":"3141","region":"27","departement":"89","arrondissement":"891","commune":"89055"},
{"name":"Aix-Villemaur-Pâlis","latitude":"48.22333","longitude":"3.73444","population":"2417","region":"44","departement":"10","arrondissement":"103","commune":"10003"},
{"name":"Neuvy-Sautour","latitude":"48.04194","longitude":"3.79389","population":"985","region":"27","departement":"89","arrondissement":"892","commune":"89276"},
{"name":"Venizy","latitude":"48.03556","longitude":"3.70889","population":"891","region":"27","departement":"89","arrondissement":"891","commune":"89436"},
{"name":"Champlost","latitude":"48.02694","longitude":"3.66778","population":"801","region":"27","departement":"89","arrondissement":"891","commune":"89076"},
{"name":"Turny","latitude":"48.035","longitude":"3.74639","population":"730","region":"27","departement":"89","arrondissement":"891","commune":"89425"},
{"name":"Saint-Mards-en-Othe","latitude":"48.17278","longitude":"3.79917","population":"652","region":"44","departement":"10","arrondissement":"103","commune":"10350"},
{"name":"Arces-Dilo","latitude":"48.0906","longitude":"3.5981","population":"594","region":"27","departement":"89","arrondissement":"893","commune":"89014"},
{"name":"Chailley","latitude":"48.08333","longitude":"3.7","population":"577","region":"27","departement":"89","arrondissement":"891","commune":"89069"},
{"name":"Germigny","latitude":"47.9952","longitude":"3.7817","population":"565","region":"27","departement":"89","arrondissement":"891","commune":"89186"},
{"name":"Vaudeurs","latitude":"48.13333","longitude":"3.55","population":"506","region":"27","departement":"89","arrondissement":"893","commune":"89432"},
{"name":"Maraye-en-Othe","latitude":"48.16389","longitude":"3.8525","population":"497","region":"44","departement":"10","arrondissement":"103","commune":"10222"},
{"name":"Bellechaume","latitude":"48.04278","longitude":"3.60806","population":"462","region":"27","departement":"89","arrondissement":"891","commune":"89035"},
{"name":"Chennegy","latitude":"48.22444","longitude":"3.85361","population":"461","region":"44","departement":"10","arrondissement":"103","commune":"10096"},
{"name":"Les Sièges","latitude":"48.18","longitude":"3.51861","population":"444","region":"27","departement":"89","arrondissement":"893","commune":"89395"},
{"name":"Sormery","latitude":"48.08778","longitude":"3.77139","population":"381","region":"27","departement":"89","arrondissement":"892","commune":"89398"},
{"name":"Rigny-le-Ferron","latitude":"48.20861","longitude":"3.63167","population":"378","region":"44","departement":"10","arrondissement":"103","commune":"10319"},
{"name":"Bœurs-en-Othe","latitude":"48.13833","longitude":"3.70556","population":"323","region":"27","departement":"89","arrondissement":"893","commune":"89048"},
{"name":"Beugnon","latitude":"48.0204","longitude":"3.806","population":"312","region":"27","departement":"89","arrondissement":"892","commune":"89041"},
{"name":"Bérulle","latitude":"48.1775","longitude":"3.66389","population":"264","region":"44","departement":"10","arrondissement":"103","commune":"10042"},
{"name":"Villemoiron-en-Othe","latitude":"48.20028","longitude":"3.77861","population":"225","region":"44","departement":"10","arrondissement":"103","commune":"10417"},
{"name":"Paroy-en-Othe","latitude":"48.03528","longitude":"3.56972","population":"207","region":"27","departement":"89","arrondissement":"891","commune":"89288"},
{"name":"Vosnon","latitude":"48.10889","longitude":"3.8425","population":"199","region":"44","departement":"10","arrondissement":"103","commune":"10441"},
{"name":"Soumaintrain","latitude":"48.01556","longitude":"3.83306","population":"197","region":"27","departement":"89","arrondissement":"892","commune":"89402"},
{"name":"Racines","latitude":"48.04972","longitude":"3.84361","population":"183","region":"44","departement":"10","arrondissement":"103","commune":"10312"},
{"name":"Villeneuve-au-Chemin","latitude":"48.08944","longitude":"3.85028","population":"181","region":"44","departement":"10","arrondissement":"103","commune":"10422"},
{"name":"Coulours","latitude":"48.16417","longitude":"3.58694","population":"150","region":"27","departement":"89","arrondissement":"893","commune":"89120"},
{"name":"Lasson","latitude":"48.05889","longitude":"3.81667","population":"129","region":"27","departement":"89","arrondissement":"892","commune":"89219"},
{"name":"Fournaudin","latitude":"48.15333","longitude":"3.64028","population":"113","region":"27","departement":"89","arrondissement":"893","commune":"89181"},
{"name":"Les Croûtes","latitude":"47.99722","longitude":"3.86417","population":"102","region":"44","departement":"10","arrondissement":"103","commune":"10118"},
{"name":"Coursan-en-Othe","latitude":"48.07167","longitude":"3.83889","population":"99","region":"44","departement":"10","arrondissement":"103","commune":"10107"},
{"name":"Courtaoult","latitude":"48.02472","longitude":"3.86306","population":"76","region":"44","departement":"10","arrondissement":"103","commune":"10108"},
{"name":"Mercy","latitude":"48.03056","longitude":"3.63028","population":"74","region":"27","departement":"89","arrondissement":"891","commune":"89249"},
{"name":"Cérilly","latitude":"48.18222","longitude":"3.6225","population":"44","region":"27","departement":"89","arrondissement":"893","commune":"89065"},
{"name":"Nogent-en-Othe","latitude":"48.145","longitude":"3.80611","population":"37","region":"44","departement":"10","arrondissement":"103","commune":"10266"}
]