[
{"name":"Toul","latitude":"48.675","longitude":"5.89167","population":"15939","region":"44","departement":"54","arrondissement":"544","commune":"54528"},
{"name":"Écrouves","latitude":"48.68","longitude":"5.84056","population":"4209","region":"44","departement":"54","arrondissement":"544","commune":"54174"},
{"name":"Foug","latitude":"48.68417","longitude":"5.78639","population":"2790","region":"44","departement":"54","arrondissement":"544","commune":"54205"},
{"name":"Vaucouleurs","latitude":"48.60167","longitude":"5.665","population":"2060","region":"44","departement":"55","arrondissement":"552","commune":"55533"},
{"name":"Dommartin-lès-Toul","latitude":"48.67","longitude":"5.90778","population":"2028","region":"44","departement":"54","arrondissement":"544","commune":"54167"},
{"name":"Colombey-les-Belles","latitude":"48.5275","longitude":"5.89722","population":"1345","region":"44","departement":"54","arrondissement":"544","commune":"54135"},
{"name":"Domgermain","latitude":"48.6425","longitude":"5.82583","population":"1294","region":"44","departement":"54","arrondissement":"544","commune":"54162"},
{"name":"Blénod-lès-Toul","latitude":"48.6","longitude":"5.83333","population":"1046","region":"44","departement":"54","arrondissement":"544","commune":"54080"},
{"name":"Pagny-sur-Meuse","latitude":"48.6875","longitude":"5.7175","population":"985","region":"44","departement":"55","arrondissement":"552","commune":"55398"},
{"name":"Bicqueley","latitude":"48.62639","longitude":"5.91194","population":"927","region":"44","departement":"54","arrondissement":"544","commune":"54073"},
{"name":"Choloy-Ménillot","latitude":"48.6621","longitude":"5.8193","population":"712","region":"44","departement":"54","arrondissement":"544","commune":"54128"},
{"name":"Chaudeney-sur-Moselle","latitude":"48.65167","longitude":"5.905","population":"688","region":"44","departement":"54","arrondissement":"544","commune":"54122"},
{"name":"Favières","latitude":"48.46278","longitude":"5.95444","population":"602","region":"44","departement":"54","arrondissement":"544","commune":"54189"},
{"name":"Vannes-le-Châtel","latitude":"48.54583","longitude":"5.77944","population":"570","region":"44","departement":"54","arrondissement":"544","commune":"54548"},
{"name":"Pierre-la-Treiche","latitude":"48.64278","longitude":"5.93","population":"546","region":"44","departement":"54","arrondissement":"544","commune":"54426"},
{"name":"Allamps","latitude":"48.54722","longitude":"5.80944","population":"521","region":"44","departement":"54","arrondissement":"544","commune":"54010"},
{"name":"Bulligny","latitude":"48.57694","longitude":"5.85028","population":"512","region":"44","departement":"54","arrondissement":"544","commune":"54105"},
{"name":"Thuilley-aux-Groseilles","latitude":"48.57417","longitude":"5.97278","population":"486","region":"44","departement":"54","arrondissement":"544","commune":"54523"},
{"name":"Allain","latitude":"48.55","longitude":"5.91083","population":"479","region":"44","departement":"54","arrondissement":"544","commune":"54008"},
{"name":"Ochey","latitude":"48.58222","longitude":"5.9425","population":"463","region":"44","departement":"54","arrondissement":"544","commune":"54405"},
{"name":"Mont-le-Vignoble","latitude":"48.61306","longitude":"5.84056","population":"391","region":"44","departement":"54","arrondissement":"544","commune":"54380"},
{"name":"Rigny-la-Salle","latitude":"48.62083","longitude":"5.70056","population":"377","region":"44","departement":"55","arrondissement":"552","commune":"55433"},
{"name":"Uruffe","latitude":"48.56917","longitude":"5.74389","population":"369","region":"44","departement":"54","arrondissement":"544","commune":"54538"},
{"name":"Saulxures-lès-Vannes","latitude":"48.52639","longitude":"5.80722","population":"360","region":"44","departement":"54","arrondissement":"544","commune":"54496"},
{"name":"Barisey-au-Plain","latitude":"48.525","longitude":"5.84389","population":"355","region":"44","departement":"54","arrondissement":"544","commune":"54046"},
{"name":"Lay-Saint-Remy","latitude":"48.68028","longitude":"5.7625","population":"345","region":"44","departement":"54","arrondissement":"544","commune":"54306"},
{"name":"Crépey","latitude":"48.52806","longitude":"5.97167","population":"344","region":"44","departement":"54","arrondissement":"544","commune":"54143"},
{"name":"Chalaines","latitude":"48.60306","longitude":"5.68056","population":"321","region":"44","departement":"55","arrondissement":"552","commune":"55097"},
{"name":"Charmes-la-Côte","latitude":"48.62556","longitude":"5.8275","population":"312","region":"44","departement":"54","arrondissement":"544","commune":"54120"},
{"name":"Maxey-sur-Vaise","latitude":"48.53833","longitude":"5.66639","population":"302","region":"44","departement":"55","arrondissement":"552","commune":"55328"},
{"name":"Moutrot","latitude":"48.60306","longitude":"5.89306","population":"300","region":"44","departement":"54","arrondissement":"544","commune":"54392"},
{"name":"Saint-Germain-sur-Meuse","latitude":"48.64972","longitude":"5.68972","population":"263","region":"44","departement":"55","arrondissement":"552","commune":"55456"},
{"name":"Sauvigny","latitude":"48.49833","longitude":"5.71639","population":"260","region":"44","departement":"55","arrondissement":"552","commune":"55474"},
{"name":"Crézilles","latitude":"48.58472","longitude":"5.87972","population":"256","region":"44","departement":"54","arrondissement":"544","commune":"54146"},
{"name":"Pagny-la-Blanche-Côte","latitude":"48.54083","longitude":"5.72111","population":"248","region":"44","departement":"55","arrondissement":"552","commune":"55397"},
{"name":"Harmonville","latitude":"48.47778","longitude":"5.85944","population":"225","region":"44","departement":"88","arrondissement":"882","commune":"88232"},
{"name":"Gye","latitude":"48.62","longitude":"5.87556","population":"198","region":"44","departement":"54","arrondissement":"544","commune":"54242"},
{"name":"Barisey-la-Côte","latitude":"48.54333","longitude":"5.8425","population":"195","region":"44","departement":"54","arrondissement":"544","commune":"54047"},
{"name":"Selaincourt","latitude":"48.5","longitude":"5.96667","population":"193","region":"44","departement":"54","arrondissement":"544","commune":"54500"},
{"name":"Ourches-sur-Meuse","latitude":"48.66056","longitude":"5.70528","population":"193","region":"44","departement":"55","arrondissement":"552","commune":"55396"},
{"name":"Punerot","latitude":"48.48167","longitude":"5.80861","population":"187","region":"44","departement":"88","arrondissement":"882","commune":"88363"},
{"name":"Neuville-lès-Vaucouleurs","latitude":"48.5775","longitude":"5.67306","population":"185","region":"44","departement":"55","arrondissement":"552","commune":"55381"},
{"name":"Autreville","latitude":"48.48417","longitude":"5.84889","population":"164","region":"44","departement":"88","arrondissement":"882","commune":"88020"},
{"name":"Gibeaumeix","latitude":"48.58194","longitude":"5.7325","population":"152","region":"44","departement":"54","arrondissement":"544","commune":"54226"},
{"name":"Bagneux","latitude":"48.55833","longitude":"5.8825","population":"150","region":"44","departement":"54","arrondissement":"544","commune":"54041"},
{"name":"Taillancourt","latitude":"48.53111","longitude":"5.69417","population":"145","region":"44","departement":"55","arrondissement":"552","commune":"55503"},
{"name":"Burey-en-Vaux","latitude":"48.56333","longitude":"5.66944","population":"139","region":"44","departement":"55","arrondissement":"552","commune":"55088"},
{"name":"Ruppes","latitude":"48.47139","longitude":"5.76972","population":"123","region":"44","departement":"88","arrondissement":"882","commune":"88407"},
{"name":"Goussaincourt","latitude":"48.485","longitude":"5.68889","population":"116","region":"44","departement":"55","arrondissement":"552","commune":"55217"},
{"name":"Champougny","latitude":"48.54444","longitude":"5.69472","population":"105","region":"44","departement":"55","arrondissement":"552","commune":"55100"},
{"name":"Ugny-sur-Meuse","latitude":"48.63944","longitude":"5.70389","population":"101","region":"44","departement":"55","arrondissement":"552","commune":"55522"},
{"name":"Mont-l'Étroit","latitude":"48.49833","longitude":"5.78472","population":"98","region":"44","departement":"54","arrondissement":"544","commune":"54379"},
{"name":"Jubainville","latitude":"48.46028","longitude":"5.74306","population":"86","region":"44","departement":"88","arrondissement":"882","commune":"88255"},
{"name":"Saulxerotte","latitude":"48.46972","longitude":"5.94444","population":"84","region":"44","departement":"54","arrondissement":"544","commune":"54494"},
{"name":"Sepvigny","latitude":"48.55861","longitude":"5.68361","population":"81","region":"44","departement":"55","arrondissement":"552","commune":"55485"},
{"name":"Brixey-aux-Chanoines","latitude":"48.47361","longitude":"5.71417","population":"81","region":"44","departement":"55","arrondissement":"552","commune":"55080"},
{"name":"Burey-la-Côte","latitude":"48.50222","longitude":"5.69889","population":"77","region":"44","departement":"55","arrondissement":"552","commune":"55089"},
{"name":"Montigny-lès-Vaucouleurs","latitude":"48.5875","longitude":"5.63167","population":"75","region":"44","departement":"55","arrondissement":"552","commune":"55350"},
{"name":"Rigny-Saint-Martin","latitude":"48.61111","longitude":"5.71417","population":"56","region":"44","departement":"55","arrondissement":"552","commune":"55434"},
{"name":"Clérey-la-Côte","latitude":"48.48333","longitude":"5.75694","population":"35","region":"44","departement":"88","arrondissement":"882","commune":"88107"},
{"name":"Épiez-sur-Meuse","latitude":"48.545","longitude":"5.63972","population":"34","region":"44","departement":"55","arrondissement":"552","commune":"55173"},
{"name":"Montbras","latitude":"48.52432","longitude":"5.69401","population":"26","region":"44","departement":"55","arrondissement":"552","commune":"55344"}
]