[
{"name":"Baume-les-Dames","latitude":"47.35222","longitude":"6.36","population":"5267","region":"27","departement":"25","arrondissement":"251","commune":"25047"},
{"name":"L'Isle-sur-le-Doubs","latitude":"47.44778","longitude":"6.58611","population":"3181","region":"27","departement":"25","arrondissement":"252","commune":"25315"},
{"name":"Montenois","latitude":"47.49306","longitude":"6.66611","population":"1561","region":"27","departement":"25","arrondissement":"252","commune":"25394"},
{"name":"Rougemont","latitude":"47.48111","longitude":"6.355","population":"1229","region":"27","departement":"25","arrondissement":"251","commune":"25505"},
{"name":"Clerval","latitude":"47.39222","longitude":"6.4975","population":"1038","region":"27","departement":"25","arrondissement":"252","commune":"25156"},
{"name":"Sancey","latitude":"47.29389","longitude":"6.58222","population":"964","region":"27","departement":"25","arrondissement":"252","commune":"25529"},
{"name":"Saint-Maurice-Colombier","latitude":"47.4417","longitude":"6.6455","population":"896","region":"27","departement":"25","arrondissement":"252","commune":"25524"},
{"name":"Longevelle-sur-Doubs","latitude":"47.4525","longitude":"6.65139","population":"633","region":"27","departement":"25","arrondissement":"252","commune":"25345"},
{"name":"Anteuil","latitude":"47.3875","longitude":"6.56083","population":"597","region":"27","departement":"25","arrondissement":"252","commune":"25018"},
{"name":"Dambelin","latitude":"47.375","longitude":"6.67583","population":"485","region":"27","departement":"25","arrondissement":"252","commune":"25187"},
{"name":"Courchaton","latitude":"47.51639","longitude":"6.54028","population":"450","region":"27","departement":"70","arrondissement":"701","commune":"70180"},
{"name":"Appenans","latitude":"47.4426","longitude":"6.5654","population":"424","region":"27","departement":"25","arrondissement":"252","commune":"25019"},
{"name":"Rang","latitude":"47.42639","longitude":"6.56278","population":"411","region":"27","departement":"25","arrondissement":"252","commune":"25479"},
{"name":"Autechaux","latitude":"47.37778","longitude":"6.38528","population":"387","region":"27","departement":"25","arrondissement":"251","commune":"25032"},
{"name":"Onans","latitude":"47.50222","longitude":"6.60972","population":"372","region":"27","departement":"25","arrondissement":"252","commune":"25431"},
{"name":"Abbenans","latitude":"47.5","longitude":"6.45","population":"361","region":"27","departement":"25","arrondissement":"251","commune":"25003"},
{"name":"Mancenans","latitude":"47.45417","longitude":"6.54278","population":"340","region":"27","departement":"25","arrondissement":"252","commune":"25365"},
{"name":"Soye","latitude":"47.44472","longitude":"6.49833","population":"338","region":"27","departement":"25","arrondissement":"252","commune":"25553"},
{"name":"Médière","latitude":"47.45667","longitude":"6.59861","population":"323","region":"27","departement":"25","arrondissement":"252","commune":"25372"},
{"name":"Fallon","latitude":"47.50694","longitude":"6.48111","population":"319","region":"27","departement":"70","arrondissement":"701","commune":"70226"},
{"name":"Pompierre-sur-Doubs","latitude":"47.41861","longitude":"6.52417","population":"319","region":"27","departement":"25","arrondissement":"252","commune":"25461"},
{"name":"Beutal","latitude":"47.47139","longitude":"6.63833","population":"280","region":"27","departement":"25","arrondissement":"252","commune":"25059"},
{"name":"Goux-lès-Dambelin","latitude":"47.39667","longitude":"6.67139","population":"274","region":"27","departement":"25","arrondissement":"252","commune":"25281"},
{"name":"Cuse-et-Adrisans","latitude":"47.47944","longitude":"6.39083","population":"256","region":"27","departement":"25","arrondissement":"251","commune":"25184"},
{"name":"Fontaine-lès-Clerval","latitude":"47.4255","longitude":"6.4718","population":"247","region":"27","departement":"25","arrondissement":"252","commune":"25246"},
{"name":"Valonne","latitude":"47.34333","longitude":"6.65861","population":"227","region":"27","departement":"25","arrondissement":"252","commune":"25583"},
{"name":"Chassey-lès-Montbozon","latitude":"47.51056","longitude":"6.33361","population":"224","region":"27","departement":"70","arrondissement":"702","commune":"70137"},
{"name":"Villers-Saint-Martin","latitude":"47.34306","longitude":"6.40944","population":"213","region":"27","departement":"25","arrondissement":"251","commune":"25626"},
{"name":"Voillans","latitude":"47.38667","longitude":"6.41306","population":"209","region":"27","departement":"25","arrondissement":"251","commune":"25629"},
{"name":"Hyémondans","latitude":"47.3875","longitude":"6.64944","population":"199","region":"27","departement":"25","arrondissement":"252","commune":"25311"},
{"name":"Hyèvre-Paroisse","latitude":"47.37139","longitude":"6.43028","population":"196","region":"27","departement":"25","arrondissement":"251","commune":"25313"},
{"name":"Chaux-lès-Clerval","latitude":"47.38278","longitude":"6.50778","population":"194","region":"27","departement":"25","arrondissement":"252","commune":"25140"},
{"name":"Vellevans","latitude":"47.31056","longitude":"6.49861","population":"189","region":"27","departement":"25","arrondissement":"252","commune":"25597"},
{"name":"Servin","latitude":"47.3075","longitude":"6.46306","population":"189","region":"27","departement":"25","arrondissement":"251","commune":"25544"},
{"name":"Blussans","latitude":"47.4275","longitude":"6.60722","population":"187","region":"27","departement":"25","arrondissement":"252","commune":"25067"},
{"name":"Saint-Juan","latitude":"47.28889","longitude":"6.35639","population":"186","region":"27","departement":"25","arrondissement":"251","commune":"25520"},
{"name":"Étrappe","latitude":"47.47417","longitude":"6.57944","population":"185","region":"27","departement":"25","arrondissement":"252","commune":"25226"},
{"name":"Bournois","latitude":"47.49861","longitude":"6.49694","population":"179","region":"27","departement":"25","arrondissement":"252","commune":"25083"},
{"name":"Vyt-lès-Belvoir","latitude":"47.34833","longitude":"6.62167","population":"177","region":"27","departement":"25","arrondissement":"252","commune":"25635"},
{"name":"Pont-les-Moulins","latitude":"47.32361","longitude":"6.36361","population":"175","region":"27","departement":"25","arrondissement":"251","commune":"25465"},
{"name":"Crosey-le-Grand","latitude":"47.35556","longitude":"6.525","population":"174","region":"27","departement":"25","arrondissement":"252","commune":"25177"},
{"name":"Branne","latitude":"47.37667","longitude":"6.4725","population":"173","region":"27","departement":"25","arrondissement":"252","commune":"25087"},
{"name":"Mésandans","latitude":"47.43083","longitude":"6.36889","population":"172","region":"27","departement":"25","arrondissement":"251","commune":"25377"},
{"name":"Luxiol","latitude":"47.38111","longitude":"6.34917","population":"170","region":"27","departement":"25","arrondissement":"251","commune":"25354"},
{"name":"Gondenans-Montby","latitude":"47.43278","longitude":"6.4525","population":"168","region":"27","departement":"25","arrondissement":"251","commune":"25276"},
{"name":"La Prétière","latitude":"47.44472","longitude":"6.60944","population":"168","region":"27","departement":"25","arrondissement":"252","commune":"25470"},
{"name":"Lomont-sur-Crête","latitude":"47.33833","longitude":"6.43167","population":"160","region":"27","departement":"25","arrondissement":"251","commune":"25341"},
{"name":"Uzelle","latitude":"47.46611","longitude":"6.43611","population":"153","region":"27","departement":"25","arrondissement":"251","commune":"25574"},
{"name":"Geney","latitude":"47.48583","longitude":"6.56667","population":"147","region":"27","departement":"25","arrondissement":"252","commune":"25266"},
{"name":"Verne","latitude":"47.39806","longitude":"6.35389","population":"140","region":"27","departement":"25","arrondissement":"251","commune":"25604"},
{"name":"Cubrial","latitude":"47.49583","longitude":"6.40694","population":"137","region":"27","departement":"25","arrondissement":"251","commune":"25181"},
{"name":"Lanans","latitude":"47.29694","longitude":"6.44889","population":"132","region":"27","departement":"25","arrondissement":"251","commune":"25324"},
{"name":"Chazot","latitude":"47.32611","longitude":"6.54333","population":"131","region":"27","departement":"25","arrondissement":"252","commune":"25145"},
{"name":"Sourans","latitude":"47.40806","longitude":"6.63222","population":"129","region":"27","departement":"25","arrondissement":"252","commune":"25552"},
{"name":"Provenchère","latitude":"47.28917","longitude":"6.64361","population":"119","region":"27","departement":"25","arrondissement":"252","commune":"25471"},
{"name":"Viéthorey","latitude":"47.42556","longitude":"6.42944","population":"119","region":"27","departement":"25","arrondissement":"251","commune":"25613"},
{"name":"Rahon","latitude":"47.3225","longitude":"6.59111","population":"118","region":"27","departement":"25","arrondissement":"252","commune":"25476"},
{"name":"Guillon-les-Bains","latitude":"47.31889","longitude":"6.39361","population":"117","region":"27","departement":"25","arrondissement":"251","commune":"25299"},
{"name":"Vergranne","latitude":"47.40889","longitude":"6.39083","population":"116","region":"27","departement":"25","arrondissement":"251","commune":"25602"},
{"name":"Vellerot-lès-Belvoir","latitude":"47.35028","longitude":"6.60139","population":"115","region":"27","departement":"25","arrondissement":"252","commune":"25595"},
{"name":"Gouhelans","latitude":"47.45611","longitude":"6.35306","population":"115","region":"27","departement":"25","arrondissement":"251","commune":"25279"},
{"name":"Crosey-le-Petit","latitude":"47.35167","longitude":"6.48583","population":"115","region":"27","departement":"25","arrondissement":"252","commune":"25178"},
{"name":"Saint-Georges-Armont","latitude":"47.39889","longitude":"6.55694","population":"114","region":"27","departement":"25","arrondissement":"252","commune":"25516"},
{"name":"Faimbe","latitude":"47.4838","longitude":"6.61594","population":"113","region":"27","departement":"25","arrondissement":"252","commune":"25232"},
{"name":"Randevillers","latitude":"47.31056","longitude":"6.52139","population":"106","region":"27","departement":"25","arrondissement":"252","commune":"25478"},
{"name":"Fontenelle-Montby","latitude":"47.44944","longitude":"6.41417","population":"104","region":"27","departement":"25","arrondissement":"251","commune":"25247"},
{"name":"Romain","latitude":"47.4426","longitude":"6.3746","population":"103","region":"27","departement":"25","arrondissement":"251","commune":"25499"},
{"name":"Belvoir","latitude":"47.3175","longitude":"6.60333","population":"100","region":"27","departement":"25","arrondissement":"252","commune":"25053"},
{"name":"Rosières-sur-Barbèche","latitude":"47.31556","longitude":"6.65917","population":"99","region":"27","departement":"25","arrondissement":"252","commune":"25503"},
{"name":"Roche-lès-Clerval","latitude":"47.3675","longitude":"6.48139","population":"98","region":"27","departement":"25","arrondissement":"252","commune":"25496"},
{"name":"Accolans","latitude":"47.49444","longitude":"6.53194","population":"98","region":"27","departement":"25","arrondissement":"252","commune":"25005"},
{"name":"Adam-lès-Passavant","latitude":"47.29694","longitude":"6.36167","population":"96","region":"27","departement":"25","arrondissement":"251","commune":"25006"},
{"name":"L'Hôpital-Saint-Lieffroy","latitude":"47.39889","longitude":"6.4575","population":"89","region":"27","departement":"25","arrondissement":"252","commune":"25306"},
{"name":"Cusance","latitude":"47.32389","longitude":"6.43833","population":"88","region":"27","departement":"25","arrondissement":"251","commune":"25183"},
{"name":"Rillans","latitude":"47.41306","longitude":"6.36417","population":"87","region":"27","departement":"25","arrondissement":"251","commune":"25492"},
{"name":"La Grange","latitude":"47.28028","longitude":"6.66444","population":"86","region":"27","departement":"25","arrondissement":"252","commune":"25290"},
{"name":"Nans","latitude":"47.47667","longitude":"6.41167","population":"86","region":"27","departement":"25","arrondissement":"251","commune":"25419"},
{"name":"Trouvans","latitude":"47.42333","longitude":"6.34833","population":"86","region":"27","departement":"25","arrondissement":"251","commune":"25572"},
{"name":"Huanne-Montmartin","latitude":"47.43111","longitude":"6.34444","population":"83","region":"27","departement":"25","arrondissement":"251","commune":"25310"},
{"name":"Bretigney","latitude":"47.48556","longitude":"6.63694","population":"81","region":"27","departement":"25","arrondissement":"252","commune":"25093"},
{"name":"Vaudrivillers","latitude":"47.28139","longitude":"6.42583","population":"80","region":"27","departement":"25","arrondissement":"251","commune":"25590"},
{"name":"Grammont","latitude":"47.51472","longitude":"6.51639","population":"79","region":"27","departement":"70","arrondissement":"701","commune":"70273"},
{"name":"Cubry","latitude":"47.49333","longitude":"6.4225","population":"78","region":"27","departement":"25","arrondissement":"251","commune":"25182"},
{"name":"Santoche","latitude":"47.40389","longitude":"6.5075","population":"78","region":"27","departement":"25","arrondissement":"252","commune":"25531"},
{"name":"Gondenans-les-Moulins","latitude":"47.46944","longitude":"6.38167","population":"74","region":"27","departement":"25","arrondissement":"251","commune":"25277"},
{"name":"Blussangeaux","latitude":"47.42972","longitude":"6.61389","population":"74","region":"27","departement":"25","arrondissement":"252","commune":"25066"},
{"name":"Hyèvre-Magny","latitude":"47.36611","longitude":"6.4375","population":"71","region":"27","departement":"25","arrondissement":"251","commune":"25312"},
{"name":"Orve","latitude":"47.32583","longitude":"6.55389","population":"70","region":"27","departement":"25","arrondissement":"252","commune":"25436"},
{"name":"Vernois-lès-Belvoir","latitude":"47.3283","longitude":"6.641","population":"65","region":"27","departement":"25","arrondissement":"252","commune":"25607"},
{"name":"Lanthenans","latitude":"47.39472","longitude":"6.62722","population":"61","region":"27","departement":"25","arrondissement":"252","commune":"25327"},
{"name":"Tressandans","latitude":"47.49806","longitude":"6.33444","population":"35","region":"27","departement":"25","arrondissement":"251","commune":"25570"},
{"name":"Montivernage","latitude":"47.3175","longitude":"6.42722","population":"27","region":"27","departement":"25","arrondissement":"251","commune":"25401"},
{"name":"Bonnal","latitude":"47.50694","longitude":"6.35556","population":"21","region":"27","departement":"25","arrondissement":"251","commune":"25072"}
]