[
{"name":"Saint-Hilaire-de-Riez","latitude":"46.72111","longitude":"-1.94556","population":"10504","region":"52","departement":"85","arrondissement":"853","commune":"85226"},
{"name":"Saint-Jean-de-Monts","latitude":"46.79278","longitude":"-2.06028","population":"8037","region":"52","departement":"85","arrondissement":"853","commune":"85234"},
{"name":"Saint-Gilles-Croix-de-Vie","latitude":"46.6975","longitude":"-1.94444","population":"7230","region":"52","departement":"85","arrondissement":"853","commune":"85222"},
{"name":"Le Fenouiller","latitude":"46.71944","longitude":"-1.90056","population":"4284","region":"52","departement":"85","arrondissement":"853","commune":"85088"},
{"name":"Bretignolles-sur-Mer","latitude":"46.62778","longitude":"-1.855","population":"4127","region":"52","departement":"85","arrondissement":"853","commune":"85035"},
{"name":"Soullans","latitude":"46.79583","longitude":"-1.9","population":"4058","region":"52","departement":"85","arrondissement":"853","commune":"85284"},
{"name":"Coëx","latitude":"46.6974","longitude":"-1.7596","population":"2997","region":"52","departement":"85","arrondissement":"853","commune":"85070"},
{"name":"Commequiers","latitude":"46.76278","longitude":"-1.83722","population":"2910","region":"52","departement":"85","arrondissement":"853","commune":"85071"},
{"name":"L'Île-d'Olonne","latitude":"46.56167","longitude":"-1.78222","population":"2668","region":"52","departement":"85","arrondissement":"853","commune":"85112"},
{"name":"Brem-sur-Mer","latitude":"46.6047","longitude":"-1.8307","population":"2565","region":"52","departement":"85","arrondissement":"853","commune":"85243"},
{"name":"Givrand","latitude":"46.67139","longitude":"-1.88472","population":"1946","region":"52","departement":"85","arrondissement":"853","commune":"85100"},
{"name":"Notre-Dame-de-Riez","latitude":"46.74528","longitude":"-1.9075","population":"1925","region":"52","departement":"85","arrondissement":"853","commune":"85189"},
{"name":"L'Aiguillon-sur-Vie","latitude":"46.67","longitude":"-1.82889","population":"1631","region":"52","departement":"85","arrondissement":"853","commune":"85002"},
{"name":"Saint-Révérend","latitude":"46.69889","longitude":"-1.82917","population":"1323","region":"52","departement":"85","arrondissement":"853","commune":"85268"},
{"name":"Landevieille","latitude":"46.64083","longitude":"-1.80639","population":"1185","region":"52","departement":"85","arrondissement":"853","commune":"85120"},
{"name":"Saint-Maixent-sur-Vie","latitude":"46.74028","longitude":"-1.82111","population":"878","region":"52","departement":"85","arrondissement":"853","commune":"85239"},
{"name":"La Chaize-Giraud","latitude":"46.64806","longitude":"-1.81694","population":"878","region":"52","departement":"85","arrondissement":"853","commune":"85045"}
]