[
{"name":"Vertus","latitude":"48.90444","longitude":"4.00333","population":"2600","region":"44","departement":"51","arrondissement":"511","commune":"51612"},
{"name":"Fère-Champenoise","latitude":"48.75333","longitude":"3.99056","population":"2304","region":"44","departement":"51","arrondissement":"512","commune":"51248"},
{"name":"Connantre","latitude":"48.725","longitude":"3.92111","population":"1063","region":"44","departement":"51","arrondissement":"512","commune":"51165"},
{"name":"Bergères-lès-Vertus","latitude":"48.87944","longitude":"4.00389","population":"563","region":"44","departement":"51","arrondissement":"511","commune":"51049"},
{"name":"Val-des-Marais","latitude":"48.8448","longitude":"3.9644","population":"561","region":"44","departement":"51","arrondissement":"511","commune":"51158"},
{"name":"Sommesous","latitude":"48.73833","longitude":"4.19667","population":"455","region":"44","departement":"51","arrondissement":"514","commune":"51545"},
{"name":"Soudron","latitude":"48.8394","longitude":"4.2002","population":"308","region":"44","departement":"51","arrondissement":"511","commune":"51556"},
{"name":"Villeneuve-Renneville-Chevigny","latitude":"48.91889","longitude":"4.06167","population":"307","region":"44","departement":"51","arrondissement":"511","commune":"51627"},
{"name":"Broussy-le-Grand","latitude":"48.78694","longitude":"3.87889","population":"304","region":"44","departement":"51","arrondissement":"512","commune":"51090"},
{"name":"Vert-Toulon","latitude":"48.8439","longitude":"3.9122","population":"302","region":"44","departement":"51","arrondissement":"511","commune":"51611"},
{"name":"Chaintrix-Bierges","latitude":"48.90167","longitude":"4.10667","population":"275","region":"44","departement":"51","arrondissement":"511","commune":"51107"},
{"name":"Bannes","latitude":"48.8025","longitude":"3.91861","population":"270","region":"44","departement":"51","arrondissement":"512","commune":"51035"},
{"name":"Clamanges","latitude":"48.82778","longitude":"4.08333","population":"221","region":"44","departement":"51","arrondissement":"511","commune":"51154"},
{"name":"Villeseneux","latitude":"48.84139","longitude":"4.14611","population":"212","region":"44","departement":"51","arrondissement":"511","commune":"51638"},
{"name":"Voipreux","latitude":"48.90861","longitude":"4.04028","population":"212","region":"44","departement":"51","arrondissement":"511","commune":"51651"},
{"name":"Loisy-en-Brie","latitude":"48.88306","longitude":"3.90194","population":"192","region":"44","departement":"51","arrondissement":"511","commune":"51327"},
{"name":"Connantray-Vaurefroy","latitude":"48.74722","longitude":"4.06167","population":"190","region":"44","departement":"51","arrondissement":"512","commune":"51164"},
{"name":"Haussimont","latitude":"48.74861","longitude":"4.16639","population":"157","region":"44","departement":"51","arrondissement":"512","commune":"51285"},
{"name":"Vélye","latitude":"48.8875","longitude":"4.12611","population":"146","region":"44","departement":"51","arrondissement":"511","commune":"51603"},
{"name":"Corroy","latitude":"48.70278","longitude":"3.94111","population":"145","region":"44","departement":"51","arrondissement":"512","commune":"51176"},
{"name":"Germinon","latitude":"48.8775","longitude":"4.155","population":"128","region":"44","departement":"51","arrondissement":"511","commune":"51268"},
{"name":"Étréchy","latitude":"48.88583","longitude":"3.94306","population":"122","region":"44","departement":"51","arrondissement":"511","commune":"51239"},
{"name":"Soulières","latitude":"48.90556","longitude":"3.92778","population":"120","region":"44","departement":"51","arrondissement":"511","commune":"51558"},
{"name":"Lenharrée","latitude":"48.77583","longitude":"4.11472","population":"101","region":"44","departement":"51","arrondissement":"512","commune":"51319"},
{"name":"Beaunay","latitude":"48.88417","longitude":"3.8775","population":"99","region":"44","departement":"51","arrondissement":"512","commune":"51045"},
{"name":"Pierre-Morains","latitude":"48.83583","longitude":"4.02222","population":"94","region":"44","departement":"51","arrondissement":"511","commune":"51430"},
{"name":"Euvy","latitude":"48.72","longitude":"4.02944","population":"82","region":"44","departement":"51","arrondissement":"512","commune":"51241"},
{"name":"Trécon","latitude":"48.86972","longitude":"4.08222","population":"82","region":"44","departement":"51","arrondissement":"511","commune":"51578"},
{"name":"Givry-lès-Loisy","latitude":"48.8925","longitude":"3.9113","population":"81","region":"44","departement":"51","arrondissement":"511","commune":"51273"},
{"name":"Vassimont-et-Chapelaine","latitude":"48.76417","longitude":"4.14444","population":"69","region":"44","departement":"51","arrondissement":"512","commune":"51594"},
{"name":"Ognes","latitude":"48.69944","longitude":"3.90444","population":"68","region":"44","departement":"51","arrondissement":"512","commune":"51412"},
{"name":"Écury-le-Repos","latitude":"48.80722","longitude":"4.0325","population":"66","region":"44","departement":"51","arrondissement":"511","commune":"51226"},
{"name":"Montépreux","latitude":"48.71278","longitude":"4.13806","population":"40","region":"44","departement":"51","arrondissement":"512","commune":"51377"}
]