[
{"name":"Bressuire","latitude":"46.84","longitude":"-0.48861","population":"18634","region":"75","departement":"79","arrondissement":"791","commune":"79049"},
{"name":"Nueil-les-Aubiers","latitude":"46.93722","longitude":"-0.59","population":"5455","region":"75","departement":"79","arrondissement":"791","commune":"79195"},
{"name":"Cerizay","latitude":"46.82139","longitude":"-0.66472","population":"4624","region":"75","departement":"79","arrondissement":"791","commune":"79062"},
{"name":"Yzernay","latitude":"47.02167","longitude":"-0.70278","population":"1760","region":"52","departement":"49","arrondissement":"492","commune":"49381"},
{"name":"Argentonnay","latitude":"46.98472","longitude":"-0.44972","population":"1588","region":"75","departement":"79","arrondissement":"791","commune":"79013"},
{"name":"Combrand","latitude":"46.86417","longitude":"-0.68944","population":"1130","region":"75","departement":"79","arrondissement":"791","commune":"79096"},
{"name":"Le Pin","latitude":"46.8612","longitude":"-0.6535","population":"1059","region":"75","departement":"79","arrondissement":"791","commune":"79210"},
{"name":"Faye-l'Abbesse","latitude":"46.83028","longitude":"-0.35389","population":"1040","region":"75","departement":"79","arrondissement":"791","commune":"79116"},
{"name":"Cirières","latitude":"46.83694","longitude":"-0.62111","population":"950","region":"75","departement":"79","arrondissement":"791","commune":"79091"},
{"name":"Somloire","latitude":"47.03361","longitude":"-0.60639","population":"927","region":"52","departement":"49","arrondissement":"493","commune":"49336"},
{"name":"Les Cerqueux","latitude":"47.00028","longitude":"-0.64056","population":"800","region":"52","departement":"49","arrondissement":"492","commune":"49058"},
{"name":"Bretignolles","latitude":"46.86306","longitude":"-0.60639","population":"632","region":"75","departement":"79","arrondissement":"791","commune":"79050"},
{"name":"Saint-Aubin-du-Plain","latitude":"46.92389","longitude":"-0.47611","population":"539","region":"75","departement":"79","arrondissement":"791","commune":"79238"},
{"name":"Saint Maurice Étusson","latitude":"47.03361","longitude":"-0.50889","population":"538","region":"75","departement":"79","arrondissement":"791","commune":"79280"},
{"name":"Voulmentin","latitude":"46.94472","longitude":"-0.51556","population":"529","region":"75","departement":"79","arrondissement":"791","commune":"79242"}
]