[
{"name":"Mantes-la-Jolie","latitude":"48.99056","longitude":"1.71667","population":"43128","region":"11","departement":"78","arrondissement":"781","commune":"78361"},
{"name":"Vernon","latitude":"49.09167","longitude":"1.485","population":"25323","region":"28","departement":"27","arrondissement":"273","commune":"27681"},
{"name":"Mantes-la-Ville","latitude":"48.97417","longitude":"1.71083","population":"18871","region":"11","departement":"78","arrondissement":"781","commune":"78362"},
{"name":"Limay","latitude":"48.99333","longitude":"1.73583","population":"16192","region":"11","departement":"78","arrondissement":"781","commune":"78335"},
{"name":"Magnanville","latitude":"48.96722","longitude":"1.68194","population":"5626","region":"11","departement":"78","arrondissement":"781","commune":"78354"},
{"name":"Rosny-sur-Seine","latitude":"48.99972","longitude":"1.63167","population":"5454","region":"11","departement":"78","arrondissement":"781","commune":"78531"},
{"name":"Saint-Marcel","latitude":"49.09611","longitude":"1.44556","population":"4935","region":"28","departement":"27","arrondissement":"273","commune":"27562"},
{"name":"Bonnières-sur-Seine","latitude":"49.03528","longitude":"1.57972","population":"4239","region":"11","departement":"78","arrondissement":"781","commune":"78089"},
{"name":"Freneuse","latitude":"49.04722","longitude":"1.60083","population":"3924","region":"11","departement":"78","arrondissement":"781","commune":"78255"},
{"name":"Gasny","latitude":"49.09222","longitude":"1.60417","population":"2940","region":"28","departement":"27","arrondissement":"271","commune":"27279"},
{"name":"Buchelay","latitude":"48.97972","longitude":"1.67278","population":"2286","region":"11","departement":"78","arrondissement":"781","commune":"78118"},
{"name":"Guerville","latitude":"48.9438","longitude":"1.736","population":"2050","region":"11","departement":"78","arrondissement":"781","commune":"78291"},
{"name":"Bréval","latitude":"48.94417","longitude":"1.53361","population":"1966","region":"11","departement":"78","arrondissement":"781","commune":"78107"},
{"name":"Limetz-Villez","latitude":"49.0608","longitude":"1.5497","population":"1942","region":"11","departement":"78","arrondissement":"781","commune":"78337"},
{"name":"Follainville-Dennemont","latitude":"49.02056","longitude":"1.71389","population":"1840","region":"11","departement":"78","arrondissement":"781","commune":"78239"},
{"name":"Bennecourt","latitude":"49.04028","longitude":"1.56222","population":"1798","region":"11","departement":"78","arrondissement":"781","commune":"78057"},
{"name":"Bueil","latitude":"48.93","longitude":"1.44139","population":"1480","region":"28","departement":"27","arrondissement":"273","commune":"27119"},
{"name":"Saint-Just","latitude":"49.10889","longitude":"1.44111","population":"1340","region":"28","departement":"27","arrondissement":"273","commune":"27554"},
{"name":"Breuilpont","latitude":"48.96333","longitude":"1.42639","population":"1181","region":"28","departement":"27","arrondissement":"273","commune":"27114"},
{"name":"Guernes","latitude":"49.01111","longitude":"1.63583","population":"1012","region":"11","departement":"78","arrondissement":"781","commune":"78290"},
{"name":"Fontenay-Saint-Père","latitude":"49.02694","longitude":"1.75167","population":"998","region":"11","departement":"78","arrondissement":"781","commune":"78246"},
{"name":"Saint-Pierre-d'Autils","latitude":"49.11778","longitude":"1.4375","population":"989","region":"28","departement":"27","arrondissement":"273","commune":"27588"},
{"name":"Bray-et-Lû","latitude":"49.13944","longitude":"1.66111","population":"971","region":"11","departement":"95","arrondissement":"953","commune":"95101"},
{"name":"Blaru","latitude":"49.04889","longitude":"1.47833","population":"930","region":"11","departement":"78","arrondissement":"781","commune":"78068"},
{"name":"Moisson","latitude":"49.07389","longitude":"1.66694","population":"922","region":"11","departement":"78","arrondissement":"781","commune":"78410"},
{"name":"Saint-Martin-la-Garenne","latitude":"49.04028","longitude":"1.68889","population":"908","region":"11","departement":"78","arrondissement":"781","commune":"78567"},
{"name":"Villiers-en-Désœuvre","latitude":"48.9475","longitude":"1.48778","population":"899","region":"28","departement":"27","arrondissement":"273","commune":"27696"},
{"name":"Neauphlette","latitude":"48.93111","longitude":"1.52583","population":"899","region":"11","departement":"78","arrondissement":"781","commune":"78444"},
{"name":"Vétheuil","latitude":"49.06389","longitude":"1.70306","population":"886","region":"11","departement":"95","arrondissement":"953","commune":"95651"},
{"name":"Vert","latitude":"48.94139","longitude":"1.69083","population":"779","region":"11","departement":"78","arrondissement":"781","commune":"78647"},
{"name":"Bois-Jérôme-Saint-Ouen","latitude":"49.1058","longitude":"1.5344","population":"740","region":"28","departement":"27","arrondissement":"271","commune":"27072"},
{"name":"Pressagny-l'Orgueilleux","latitude":"49.1319","longitude":"1.4462","population":"712","region":"28","departement":"27","arrondissement":"271","commune":"27477"},
{"name":"Breuil-Bois-Robert","latitude":"48.94583","longitude":"1.71694","population":"711","region":"11","departement":"78","arrondissement":"781","commune":"78104"},
{"name":"Notre-Dame-de-l'Isle","latitude":"49.14556","longitude":"1.43167","population":"679","region":"28","departement":"27","arrondissement":"271","commune":"27440"},
{"name":"Gommecourt","latitude":"49.07639","longitude":"1.59278","population":"652","region":"11","departement":"78","arrondissement":"781","commune":"78276"},
{"name":"Sainte-Geneviève-lès-Gasny","latitude":"49.08333","longitude":"1.58472","population":"639","region":"28","departement":"27","arrondissement":"271","commune":"27540"},
{"name":"Chaussy","latitude":"49.12167","longitude":"1.69167","population":"639","region":"11","departement":"95","arrondissement":"953","commune":"95150"},
{"name":"Lommoye","latitude":"48.99389","longitude":"1.51389","population":"631","region":"11","departement":"78","arrondissement":"781","commune":"78344"},
{"name":"Boissy-Mauvoisin","latitude":"48.96278","longitude":"1.5775","population":"621","region":"11","departement":"78","arrondissement":"781","commune":"78082"},
{"name":"Mousseaux-sur-Seine","latitude":"49.04278","longitude":"1.64639","population":"617","region":"11","departement":"78","arrondissement":"781","commune":"78437"},
{"name":"Perdreauville","latitude":"48.96444","longitude":"1.62861","population":"600","region":"11","departement":"78","arrondissement":"781","commune":"78484"},
{"name":"Soindres","latitude":"48.95722","longitude":"1.67528","population":"596","region":"11","departement":"78","arrondissement":"781","commune":"78597"},
{"name":"Auffreville-Brasseuil","latitude":"48.95389","longitude":"1.71056","population":"589","region":"11","departement":"78","arrondissement":"781","commune":"78031"},
{"name":"La Villeneuve-en-Chevrie","latitude":"49.015","longitude":"1.52667","population":"563","region":"11","departement":"78","arrondissement":"781","commune":"78668"},
{"name":"Tilly","latitude":"49.145","longitude":"1.52778","population":"559","region":"28","departement":"27","arrondissement":"271","commune":"27644"},
{"name":"Genainville","latitude":"49.12556","longitude":"1.75222","population":"549","region":"11","departement":"95","arrondissement":"953","commune":"95270"},
{"name":"Jouy-Mauvoisin","latitude":"48.97528","longitude":"1.64806","population":"543","region":"11","departement":"78","arrondissement":"781","commune":"78324"},
{"name":"Villette","latitude":"48.92722","longitude":"1.69194","population":"514","region":"11","departement":"78","arrondissement":"781","commune":"78677"},
{"name":"Giverny","latitude":"49.07611","longitude":"1.52917","population":"500","region":"28","departement":"27","arrondissement":"271","commune":"27285"},
{"name":"Villers-en-Arthies","latitude":"49.0896","longitude":"1.727","population":"463","region":"11","departement":"95","arrondissement":"953","commune":"95676"},
{"name":"Douains","latitude":"49.04028","longitude":"1.42889","population":"460","region":"28","departement":"27","arrondissement":"273","commune":"27203"},
{"name":"Heubécourt-Haricourt","latitude":"49.1364","longitude":"1.5623","population":"459","region":"28","departement":"27","arrondissement":"271","commune":"27331"},
{"name":"Saint-Illiers-le-Bois","latitude":"48.95806","longitude":"1.50722","population":"450","region":"11","departement":"78","arrondissement":"781","commune":"78559"},
{"name":"La Roche-Guyon","latitude":"49.08167","longitude":"1.62944","population":"447","region":"11","departement":"95","arrondissement":"953","commune":"95523"},
{"name":"Jeufosse","latitude":"49.03472","longitude":"1.54583","population":"430","region":"11","departement":"78","arrondissement":"781","commune":"78320"},
{"name":"Fontenay-Mauvoisin","latitude":"48.96417","longitude":"1.65139","population":"424","region":"11","departement":"78","arrondissement":"781","commune":"78245"},
{"name":"Chaufour-lès-Bonnières","latitude":"49.01667","longitude":"1.48333","population":"411","region":"11","departement":"78","arrondissement":"781","commune":"78147"},
{"name":"Rolleboise","latitude":"49.01889","longitude":"1.6075","population":"411","region":"11","departement":"78","arrondissement":"781","commune":"78528"},
{"name":"Vienne-en-Arthies","latitude":"49.06639","longitude":"1.71806","population":"409","region":"11","departement":"95","arrondissement":"953","commune":"95656"},
{"name":"Cravent","latitude":"48.99111","longitude":"1.48806","population":"403","region":"11","departement":"78","arrondissement":"781","commune":"78188"},
{"name":"Ambleville","latitude":"49.14861","longitude":"1.69583","population":"397","region":"11","departement":"95","arrondissement":"953","commune":"95011"},
{"name":"Méricourt","latitude":"49.03639","longitude":"1.62694","population":"393","region":"11","departement":"78","arrondissement":"781","commune":"78391"},
{"name":"Hécourt","latitude":"48.97833","longitude":"1.42139","population":"352","region":"28","departement":"27","arrondissement":"273","commune":"27326"},
{"name":"Aigleville","latitude":"49.0075","longitude":"1.42028","population":"342","region":"28","departement":"27","arrondissement":"273","commune":"27004"},
{"name":"Villegats","latitude":"48.99972","longitude":"1.46222","population":"337","region":"28","departement":"27","arrondissement":"273","commune":"27689"},
{"name":"Haute-Isle","latitude":"49.08361","longitude":"1.65806","population":"326","region":"11","departement":"95","arrondissement":"953","commune":"95301"},
{"name":"Merey","latitude":"48.96583","longitude":"1.40722","population":"318","region":"28","departement":"27","arrondissement":"273","commune":"27400"},
{"name":"Boinville-en-Mantois","latitude":"48.93056","longitude":"1.75694","population":"304","region":"11","departement":"78","arrondissement":"781","commune":"78070"},
{"name":"Saint-Illiers-la-Ville","latitude":"48.97611","longitude":"1.54056","population":"300","region":"11","departement":"78","arrondissement":"781","commune":"78558"},
{"name":"Omerville","latitude":"49.14083","longitude":"1.71861","population":"297","region":"11","departement":"95","arrondissement":"953","commune":"95462"},
{"name":"Chaignes","latitude":"49.01639","longitude":"1.44","population":"284","region":"28","departement":"27","arrondissement":"273","commune":"27136"},
{"name":"La Heunière","latitude":"49.06139","longitude":"1.41417","population":"255","region":"28","departement":"27","arrondissement":"273","commune":"27336"},
{"name":"Port-Villez","latitude":"49.0626","longitude":"1.5227","population":"240","region":"11","departement":"78","arrondissement":"781","commune":"78503"},
{"name":"Saint-Cyr-en-Arthies","latitude":"49.05861","longitude":"1.74139","population":"229","region":"11","departement":"95","arrondissement":"953","commune":"95543"},
{"name":"Ménerville","latitude":"48.95417","longitude":"1.60278","population":"199","region":"11","departement":"78","arrondissement":"781","commune":"78385"},
{"name":"Amenucourt","latitude":"49.10611","longitude":"1.64194","population":"189","region":"11","departement":"95","arrondissement":"953","commune":"95012"},
{"name":"Chérence","latitude":"49.08917","longitude":"1.67639","population":"147","region":"11","departement":"95","arrondissement":"953","commune":"95157"},
{"name":"Favrieux","latitude":"48.94417","longitude":"1.64222","population":"145","region":"11","departement":"78","arrondissement":"781","commune":"78231"},
{"name":"Flacourt","latitude":"48.92833","longitude":"1.64667","population":"143","region":"11","departement":"78","arrondissement":"781","commune":"78234"},
{"name":"Neuilly","latitude":"48.93222","longitude":"1.41972","population":"142","region":"28","departement":"27","arrondissement":"273","commune":"27429"},
{"name":"Le Tertre-Saint-Denis","latitude":"48.93861","longitude":"1.60556","population":"107","region":"11","departement":"78","arrondissement":"781","commune":"78608"}
]