[
{"name":"Ham","latitude":"49.74639","longitude":"3.07278","population":"5085","region":"32","departement":"80","arrondissement":"804","commune":"80410"},
{"name":"Nesle","latitude":"49.75806","longitude":"2.91","population":"2505","region":"32","departement":"80","arrondissement":"804","commune":"80585"},
{"name":"Guiscard","latitude":"49.65583","longitude":"3.05167","population":"1919","region":"32","departement":"60","arrondissement":"603","commune":"60291"},
{"name":"Eppeville","latitude":"49.74167","longitude":"3.05028","population":"1882","region":"32","departement":"80","arrondissement":"804","commune":"80274"},
{"name":"Étreillers","latitude":"49.8294","longitude":"3.1607","population":"1198","region":"32","departement":"02","arrondissement":"023","commune":"02296"},
{"name":"Hombleux","latitude":"49.73861","longitude":"2.98528","population":"1027","region":"32","departement":"80","arrondissement":"804","commune":"80442"},
{"name":"Crisolles","latitude":"49.62139","longitude":"3.01611","population":"1024","region":"32","departement":"60","arrondissement":"603","commune":"60181"},
{"name":"Muille-Villette","latitude":"49.7275","longitude":"3.06667","population":"829","region":"32","departement":"80","arrondissement":"804","commune":"80579"},
{"name":"Ercheu","latitude":"49.70139","longitude":"2.94111","population":"800","region":"32","departement":"80","arrondissement":"803","commune":"80279"},
{"name":"Esmery-Hallon","latitude":"49.71694","longitude":"3.00972","population":"781","region":"32","departement":"80","arrondissement":"804","commune":"80284"},
{"name":"Voyennes","latitude":"49.77194","longitude":"2.98333","population":"599","region":"32","departement":"80","arrondissement":"804","commune":"80811"},
{"name":"Beaulieu-les-Fontaines","latitude":"49.6602","longitude":"2.9132","population":"589","region":"32","departement":"60","arrondissement":"603","commune":"60053"},
{"name":"Brouchy","latitude":"49.71667","longitude":"3.1","population":"572","region":"32","departement":"80","arrondissement":"804","commune":"80144"},
{"name":"Mesnil-Saint-Nicaise","latitude":"49.779","longitude":"2.9222","population":"571","region":"32","departement":"80","arrondissement":"804","commune":"80542"},
{"name":"Cugny","latitude":"49.70722","longitude":"3.15333","population":"560","region":"32","departement":"02","arrondissement":"023","commune":"02246"},
{"name":"Muirancourt","latitude":"49.64417","longitude":"3.00778","population":"552","region":"32","departement":"60","arrondissement":"603","commune":"60443"},
{"name":"Matigny","latitude":"49.79556","longitude":"3.00806","population":"520","region":"32","departement":"80","arrondissement":"804","commune":"80519"},
{"name":"Lagny","latitude":"49.61306","longitude":"2.91444","population":"519","region":"32","departement":"60","arrondissement":"603","commune":"60340"},
{"name":"Marchélepot","latitude":"49.83444","longitude":"2.86583","population":"471","region":"32","departement":"80","arrondissement":"804","commune":"80509"},
{"name":"Villers-Saint-Christophe","latitude":"49.77944","longitude":"3.09306","population":"466","region":"32","departement":"02","arrondissement":"023","commune":"02815"},
{"name":"Caillouël-Crépigny","latitude":"49.62167","longitude":"3.12778","population":"412","region":"32","departement":"02","arrondissement":"022","commune":"02139"},
{"name":"Licourt","latitude":"49.8249","longitude":"2.8952","population":"398","region":"32","departement":"80","arrondissement":"804","commune":"80474"},
{"name":"Béthancourt-en-Vaux","latitude":"49.6287","longitude":"3.1481","population":"393","region":"32","departement":"02","arrondissement":"022","commune":"02081"},
{"name":"Golancourt","latitude":"49.70583","longitude":"3.06417","population":"391","region":"32","departement":"60","arrondissement":"603","commune":"60278"},
{"name":"Villeselve","latitude":"49.69083","longitude":"3.11056","population":"383","region":"32","departement":"60","arrondissement":"603","commune":"60693"},
{"name":"Pertain","latitude":"49.81111","longitude":"2.86889","population":"381","region":"32","departement":"80","arrondissement":"804","commune":"80621"},
{"name":"Amy","latitude":"49.655","longitude":"2.825","population":"373","region":"32","departement":"60","arrondissement":"603","commune":"60011"},
{"name":"Rethonvillers","latitude":"49.73333","longitude":"2.86667","population":"339","region":"32","departement":"80","arrondissement":"803","commune":"80669"},
{"name":"Berlancourt","latitude":"49.67139","longitude":"3.06889","population":"331","region":"32","departement":"60","arrondissement":"603","commune":"60062"},
{"name":"Gruny","latitude":"49.72917","longitude":"2.82083","population":"322","region":"32","departement":"80","arrondissement":"803","commune":"80393"},
{"name":"Curchy","latitude":"49.77639","longitude":"2.85917","population":"322","region":"32","departement":"80","arrondissement":"803","commune":"80230"},
{"name":"Croix-Moligneaux","latitude":"49.815","longitude":"3.0041","population":"314","region":"32","departement":"80","arrondissement":"804","commune":"80226"},
{"name":"Fréniches","latitude":"49.67111","longitude":"3.00389","population":"314","region":"32","departement":"60","arrondissement":"603","commune":"60255"},
{"name":"Bussy","latitude":"49.62528","longitude":"2.98222","population":"312","region":"32","departement":"60","arrondissement":"603","commune":"60117"},
{"name":"Morchain","latitude":"49.8024","longitude":"2.9141","population":"308","region":"32","departement":"80","arrondissement":"804","commune":"80568"},
{"name":"Moyencourt","latitude":"49.72167","longitude":"2.95167","population":"303","region":"32","departement":"80","arrondissement":"803","commune":"80576"},
{"name":"Champien","latitude":"49.6944","longitude":"2.861","population":"297","region":"32","departement":"80","arrondissement":"803","commune":"80185"},
{"name":"Beaurains-lès-Noyon","latitude":"49.61083","longitude":"2.97278","population":"289","region":"32","departement":"60","arrondissement":"603","commune":"60055"},
{"name":"Carrépuis","latitude":"49.70472","longitude":"2.82111","population":"288","region":"32","departement":"80","arrondissement":"803","commune":"80176"},
{"name":"Maucourt","latitude":"49.6368","longitude":"3.0752","population":"283","region":"32","departement":"60","arrondissement":"603","commune":"60389"},
{"name":"Ognolles","latitude":"49.6925","longitude":"2.91472","population":"279","region":"32","departement":"60","arrondissement":"603","commune":"60474"},
{"name":"Sancourt","latitude":"49.77306","longitude":"3.03889","population":"276","region":"32","departement":"80","arrondissement":"804","commune":"80726"},
{"name":"Tugny-et-Pont","latitude":"49.75806","longitude":"3.15472","population":"267","region":"32","departement":"02","arrondissement":"023","commune":"02752"},
{"name":"Candor","latitude":"49.6278","longitude":"2.8961","population":"261","region":"32","departement":"60","arrondissement":"603","commune":"60124"},
{"name":"Guivry","latitude":"49.64667","longitude":"3.11917","population":"261","region":"32","departement":"02","arrondissement":"022","commune":"02362"},
{"name":"Avricourt","latitude":"49.65556","longitude":"2.8625","population":"260","region":"32","departement":"60","arrondissement":"603","commune":"60035"},
{"name":"Douilly","latitude":"49.7934","longitude":"3.0635","population":"259","region":"32","departement":"80","arrondissement":"804","commune":"80252"},
{"name":"Liancourt-Fosse","latitude":"49.755","longitude":"2.81556","population":"259","region":"32","departement":"80","arrondissement":"803","commune":"80473"},
{"name":"Écuvilly","latitude":"49.6503","longitude":"2.9204","population":"247","region":"32","departement":"60","arrondissement":"603","commune":"60204"},
{"name":"Puzeaux","latitude":"49.79806","longitude":"2.82167","population":"244","region":"32","departement":"80","arrondissement":"804","commune":"80647"},
{"name":"Frétoy-le-Château","latitude":"49.66111","longitude":"2.98111","population":"244","region":"32","departement":"60","arrondissement":"603","commune":"60263"},
{"name":"Aubigny-aux-Kaisnes","latitude":"49.77361","longitude":"3.11667","population":"243","region":"32","departement":"02","arrondissement":"023","commune":"02032"},
{"name":"Omiécourt","latitude":"49.80889","longitude":"2.84611","population":"243","region":"32","departement":"80","arrondissement":"804","commune":"80608"},
{"name":"Margny-aux-Cerises","latitude":"49.67417","longitude":"2.86694","population":"240","region":"32","departement":"60","arrondissement":"603","commune":"60381"},
{"name":"Sermaize","latitude":"49.61556","longitude":"2.95889","population":"238","region":"32","departement":"60","arrondissement":"603","commune":"60617"},
{"name":"Offoy","latitude":"49.76111","longitude":"3.01111","population":"216","region":"32","departement":"80","arrondissement":"804","commune":"80605"},
{"name":"Fluquières","latitude":"49.80333","longitude":"3.15278","population":"213","region":"32","departement":"02","arrondissement":"023","commune":"02317"},
{"name":"Libermont","latitude":"49.69389","longitude":"2.97056","population":"210","region":"32","departement":"60","arrondissement":"603","commune":"60362"},
{"name":"Languevoisin-Quiquery","latitude":"49.7475","longitude":"2.9321","population":"208","region":"32","departement":"80","arrondissement":"804","commune":"80465"},
{"name":"Catigny","latitude":"49.6386","longitude":"2.9384","population":"201","region":"32","departement":"60","arrondissement":"603","commune":"60132"},
{"name":"Dury","latitude":"49.75056","longitude":"3.12889","population":"192","region":"32","departement":"02","arrondissement":"023","commune":"02273"},
{"name":"Flavy-le-Meldeux","latitude":"49.68528","longitude":"3.04389","population":"189","region":"32","departement":"60","arrondissement":"603","commune":"60236"},
{"name":"Foreste","latitude":"49.80889","longitude":"3.09861","population":"187","region":"32","departement":"02","arrondissement":"023","commune":"02327"},
{"name":"Quesmy","latitude":"49.6341","longitude":"3.0599","population":"187","region":"32","departement":"60","arrondissement":"603","commune":"60519"},
{"name":"Commenchon","latitude":"49.64028","longitude":"3.15806","population":"183","region":"32","departement":"02","arrondissement":"022","commune":"02207"},
{"name":"Billancourt","latitude":"49.7367","longitude":"2.8943","population":"177","region":"32","departement":"80","arrondissement":"803","commune":"80105"},
{"name":"La Neuville-en-Beine","latitude":"49.67556","longitude":"3.15139","population":"176","region":"32","departement":"02","arrondissement":"022","commune":"02546"},
{"name":"Fresnières","latitude":"49.62194","longitude":"2.81417","population":"175","region":"32","departement":"60","arrondissement":"603","commune":"60258"},
{"name":"Roiglise","latitude":"49.68278","longitude":"2.83028","population":"174","region":"32","departement":"80","arrondissement":"803","commune":"80676"},
{"name":"Quivières","latitude":"49.8222","longitude":"3.0383","population":"173","region":"32","departement":"80","arrondissement":"804","commune":"80658"},
{"name":"Verpillières","latitude":"49.66796","longitude":"2.8231","population":"172","region":"32","departement":"80","arrondissement":"803","commune":"80790"},
{"name":"Ollezy","latitude":"49.734","longitude":"3.1454","population":"166","region":"32","departement":"02","arrondissement":"023","commune":"02570"},
{"name":"Beaumont-en-Beine","latitude":"49.6872","longitude":"3.1328","population":"159","region":"32","departement":"02","arrondissement":"022","commune":"02056"},
{"name":"Ugny-le-Gay","latitude":"49.65972","longitude":"3.16","population":"158","region":"32","departement":"02","arrondissement":"022","commune":"02754"},
{"name":"Crémery","latitude":"49.74167","longitude":"2.82389","population":"155","region":"32","departement":"80","arrondissement":"803","commune":"80223"},
{"name":"Sommette-Eaucourt","latitude":"49.73972","longitude":"3.11722","population":"150","region":"32","departement":"02","arrondissement":"023","commune":"02726"},
{"name":"Pargny","latitude":"49.8132","longitude":"2.9519","population":"150","region":"32","departement":"80","arrondissement":"804","commune":"80616"},
{"name":"Douchy","latitude":"49.7961","longitude":"3.1355","population":"147","region":"32","departement":"02","arrondissement":"023","commune":"02270"},
{"name":"Fonches-Fonchette","latitude":"49.7754","longitude":"2.8178","population":"146","region":"32","departement":"80","arrondissement":"803","commune":"80322"},
{"name":"Vaux-en-Vermandois","latitude":"49.8225","longitude":"3.13972","population":"145","region":"32","departement":"02","arrondissement":"023","commune":"02772"},
{"name":"Campagne","latitude":"49.6458","longitude":"2.9618","population":"142","region":"32","departement":"60","arrondissement":"603","commune":"60121"},
{"name":"Étalon","latitude":"49.76361","longitude":"2.85611","population":"139","region":"32","departement":"80","arrondissement":"803","commune":"80292"},
{"name":"Béthencourt-sur-Somme","latitude":"49.79472","longitude":"2.96361","population":"135","region":"32","departement":"80","arrondissement":"804","commune":"80097"},
{"name":"Rouy-le-Petit","latitude":"49.76537","longitude":"2.95479","population":"128","region":"32","departement":"80","arrondissement":"804","commune":"80684"},
{"name":"Falvy","latitude":"49.824","longitude":"2.96","population":"128","region":"32","departement":"80","arrondissement":"804","commune":"80300"},
{"name":"Solente","latitude":"49.69889","longitude":"2.87861","population":"116","region":"32","departement":"60","arrondissement":"603","commune":"60621"},
{"name":"Potte","latitude":"49.7979","longitude":"2.9024","population":"112","region":"32","departement":"80","arrondissement":"804","commune":"80638"},
{"name":"Épénancourt","latitude":"49.8231","longitude":"2.9321","population":"109","region":"32","departement":"80","arrondissement":"804","commune":"80272"},
{"name":"Rouy-le-Grand","latitude":"49.77977","longitude":"2.94949","population":"109","region":"32","departement":"80","arrondissement":"804","commune":"80683"},
{"name":"Cressy-Omencourt","latitude":"49.72194","longitude":"2.91139","population":"105","region":"32","departement":"80","arrondissement":"803","commune":"80224"},
{"name":"Neuflieux","latitude":"49.6197","longitude":"3.1616","population":"95","region":"32","departement":"02","arrondissement":"022","commune":"02542"},
{"name":"Hyencourt-le-Grand","latitude":"49.82167","longitude":"2.83389","population":"91","region":"32","departement":"80","arrondissement":"804","commune":"80447"},
{"name":"Le Plessis-Patte-d'Oie","latitude":"49.68386","longitude":"3.06585","population":"88","region":"32","departement":"60","arrondissement":"603","commune":"60502"},
{"name":"Beaugies-sous-Bois","latitude":"49.63778","longitude":"3.10306","population":"86","region":"32","departement":"60","arrondissement":"603","commune":"60052"},
{"name":"Balâtre","latitude":"49.70972","longitude":"2.86583","population":"84","region":"32","departement":"80","arrondissement":"803","commune":"80053"},
{"name":"Y","latitude":"49.80333","longitude":"2.99194","population":"81","region":"32","departement":"80","arrondissement":"804","commune":"80829"},
{"name":"Bray-Saint-Christophe","latitude":"49.77083","longitude":"3.14389","population":"80","region":"32","departement":"02","arrondissement":"023","commune":"02117"},
{"name":"Pithon","latitude":"49.75306","longitude":"3.09722","population":"79","region":"32","departement":"02","arrondissement":"023","commune":"02604"},
{"name":"Marché-Allouarde","latitude":"49.7275","longitude":"2.8675","population":"74","region":"32","departement":"80","arrondissement":"803","commune":"80508"},
{"name":"Germaine","latitude":"49.8114","longitude":"3.1157","population":"67","region":"32","departement":"02","arrondissement":"023","commune":"02343"},
{"name":"Villecourt","latitude":"49.7997","longitude":"2.9717","population":"61","region":"32","departement":"80","arrondissement":"804","commune":"80794"},
{"name":"Biarre","latitude":"49.72167","longitude":"2.87889","population":"61","region":"32","departement":"80","arrondissement":"803","commune":"80103"},
{"name":"Lanchy","latitude":"49.82667","longitude":"3.07556","population":"53","region":"32","departement":"02","arrondissement":"023","commune":"02402"},
{"name":"Breuil","latitude":"49.7376","longitude":"2.9564","population":"52","region":"32","departement":"80","arrondissement":"803","commune":"80139"},
{"name":"Herly","latitude":"49.75583","longitude":"2.87333","population":"49","region":"32","departement":"80","arrondissement":"803","commune":"80433"},
{"name":"Ugny-l'Équipée","latitude":"49.81722","longitude":"3.06167","population":"41","region":"32","departement":"80","arrondissement":"804","commune":"80771"},
{"name":"Buverchy","latitude":"49.7304","longitude":"2.9708","population":"39","region":"32","departement":"80","arrondissement":"804","commune":"80158"},
{"name":"Grécourt","latitude":"49.72528","longitude":"2.98639","population":"24","region":"32","departement":"80","arrondissement":"804","commune":"80389"}
]