[
{"name":"Valence","latitude":"44.11028","longitude":"0.88944","population":"5107","region":"76","departement":"82","arrondissement":"821","commune":"82186"},
{"name":"Laroque-Timbaut","latitude":"44.28306","longitude":"0.76194","population":"1502","region":"75","departement":"47","arrondissement":"471","commune":"47138"},
{"name":"Lamagistère","latitude":"44.125","longitude":"0.82333","population":"1192","region":"76","departement":"82","arrondissement":"821","commune":"82089"},
{"name":"Donzac","latitude":"44.10972","longitude":"0.82","population":"1034","region":"76","departement":"82","arrondissement":"821","commune":"82049"},
{"name":"Malause","latitude":"44.08972","longitude":"0.97306","population":"1028","region":"76","departement":"82","arrondissement":"821","commune":"82101"},
{"name":"Puymirol","latitude":"44.18694","longitude":"0.7975","population":"952","region":"75","departement":"47","arrondissement":"471","commune":"47217"},
{"name":"Caudecoste","latitude":"44.11667","longitude":"0.73667","population":"933","region":"75","departement":"47","arrondissement":"471","commune":"47060"},
{"name":"Bajamont","latitude":"44.2656","longitude":"0.7073","population":"914","region":"75","departement":"47","arrondissement":"471","commune":"47019"},
{"name":"Goudourville","latitude":"44.11444","longitude":"0.92861","population":"895","region":"76","departement":"82","arrondissement":"821","commune":"82073"},
{"name":"Golfech","latitude":"44.11389","longitude":"0.85111","population":"881","region":"76","departement":"82","arrondissement":"821","commune":"82072"},
{"name":"Saint-Pierre-de-Clairac","latitude":"44.17944","longitude":"0.76083","population":"826","region":"75","departement":"47","arrondissement":"471","commune":"47269"},
{"name":"Hautefage-la-Tour","latitude":"44.32194","longitude":"0.78444","population":"804","region":"75","departement":"47","arrondissement":"473","commune":"47117"},
{"name":"Boudou","latitude":"44.09611","longitude":"1.01389","population":"694","region":"76","departement":"82","arrondissement":"821","commune":"82019"},
{"name":"Saint-Antoine-de-Ficalba","latitude":"44.33194","longitude":"0.71611","population":"659","region":"75","departement":"47","arrondissement":"473","commune":"47228"},
{"name":"Saint-Paul-d'Espis","latitude":"44.1441","longitude":"0.9692","population":"605","region":"76","departement":"82","arrondissement":"821","commune":"82170"},
{"name":"Beauville","latitude":"44.27667","longitude":"0.88222","population":"584","region":"75","departement":"47","arrondissement":"471","commune":"47025"},
{"name":"Saint-Caprais-de-Lerm","latitude":"44.21306","longitude":"0.74361","population":"580","region":"75","departement":"47","arrondissement":"471","commune":"47234"},
{"name":"Castelsagrat","latitude":"44.18389","longitude":"0.94694","population":"541","region":"76","departement":"82","arrondissement":"821","commune":"82032"},
{"name":"Pommevic","latitude":"44.1","longitude":"0.93333","population":"520","region":"76","departement":"82","arrondissement":"821","commune":"82141"},
{"name":"La Sauvetat-de-Savères","latitude":"44.22583","longitude":"0.79806","population":"517","region":"75","departement":"47","arrondissement":"471","commune":"47289"},
{"name":"Saint-Jean-de-Thurac","latitude":"44.154","longitude":"0.7433","population":"498","region":"75","departement":"47","arrondissement":"471","commune":"47248"},
{"name":"Sauveterre-Saint-Denis","latitude":"44.154","longitude":"0.7073","population":"457","region":"75","departement":"47","arrondissement":"471","commune":"47293"},
{"name":"Sauvagnas","latitude":"44.24972","longitude":"0.73861","population":"457","region":"75","departement":"47","arrondissement":"471","commune":"47288"},
{"name":"Saint-Maurin","latitude":"44.20778","longitude":"0.89306","population":"455","region":"75","departement":"47","arrondissement":"471","commune":"47260"},
{"name":"Roquecor","latitude":"44.32194","longitude":"0.94361","population":"443","region":"76","departement":"82","arrondissement":"821","commune":"82151"},
{"name":"Monbalen","latitude":"44.31306","longitude":"0.73861","population":"427","region":"75","departement":"47","arrondissement":"471","commune":"47171"},
{"name":"Gasques","latitude":"44.154","longitude":"0.9188","population":"419","region":"76","departement":"82","arrondissement":"821","commune":"82065"},
{"name":"Saint-Nicolas-de-la-Balerme","latitude":"44.1369","longitude":"0.764","population":"403","region":"75","departement":"47","arrondissement":"471","commune":"47262"},
{"name":"Bourg-de-Visa","latitude":"44.2629","longitude":"0.9584","population":"397","region":"76","departement":"82","arrondissement":"821","commune":"82022"},
{"name":"Touffailles","latitude":"44.27278","longitude":"1.05056","population":"396","region":"76","departement":"82","arrondissement":"821","commune":"82182"},
{"name":"Saint-Romain-le-Noble","latitude":"44.16222","longitude":"0.78528","population":"394","region":"75","departement":"47","arrondissement":"471","commune":"47274"},
{"name":"Cauzac","latitude":"44.28111","longitude":"0.81333","population":"381","region":"75","departement":"47","arrondissement":"471","commune":"47062"},
{"name":"Auradou","latitude":"44.334","longitude":"0.8117","population":"379","region":"75","departement":"47","arrondissement":"473","commune":"47017"},
{"name":"Clermont-Soubiran","latitude":"44.1405","longitude":"0.8324","population":"367","region":"75","departement":"47","arrondissement":"471","commune":"47067"},
{"name":"Saint-Nazaire-de-Valentane","latitude":"44.22389","longitude":"1.0125","population":"333","region":"76","departement":"82","arrondissement":"821","commune":"82168"},
{"name":"Saint-Sixte","latitude":"44.1288","longitude":"0.7838","population":"322","region":"75","departement":"47","arrondissement":"471","commune":"47279"},
{"name":"Tayrac","latitude":"44.19694","longitude":"0.84167","population":"313","region":"75","departement":"47","arrondissement":"471","commune":"47305"},
{"name":"Frespech","latitude":"44.31","longitude":"0.82472","population":"289","region":"75","departement":"47","arrondissement":"473","commune":"47105"},
{"name":"Brassac","latitude":"44.21472","longitude":"0.97278","population":"261","region":"76","departement":"82","arrondissement":"821","commune":"82024"},
{"name":"Saint-Clair","latitude":"44.163","longitude":"0.9476","population":"258","region":"76","departement":"82","arrondissement":"821","commune":"82160"},
{"name":"Saint-Urcisse","latitude":"44.16083","longitude":"0.81833","population":"231","region":"75","departement":"47","arrondissement":"471","commune":"47281"},
{"name":"Saint-Vincent-Lespinasse","latitude":"44.118","longitude":"0.9539","population":"229","region":"76","departement":"82","arrondissement":"821","commune":"82175"},
{"name":"Blaymont","latitude":"44.3043","longitude":"0.8639","population":"225","region":"75","departement":"47","arrondissement":"471","commune":"47030"},
{"name":"Fauroux","latitude":"44.24306","longitude":"1.00444","population":"219","region":"76","departement":"82","arrondissement":"821","commune":"82060"},
{"name":"Massoulès","latitude":"44.3394","longitude":"0.8693","population":"213","region":"75","departement":"47","arrondissement":"473","commune":"47162"},
{"name":"Dondas","latitude":"44.25333","longitude":"0.83889","population":"202","region":"75","departement":"47","arrondissement":"471","commune":"47082"},
{"name":"Saint-Amans-du-Pech","latitude":"44.31639","longitude":"0.88917","population":"191","region":"76","departement":"82","arrondissement":"821","commune":"82153"},
{"name":"Saint-Robert","latitude":"44.24667","longitude":"0.795","population":"188","region":"75","departement":"47","arrondissement":"471","commune":"47273"},
{"name":"Lacour","latitude":"44.29167","longitude":"0.9475","population":"184","region":"76","departement":"82","arrondissement":"821","commune":"82084"},
{"name":"Montjoi","latitude":"44.1963","longitude":"0.9206","population":"182","region":"76","departement":"82","arrondissement":"821","commune":"82130"},
{"name":"Saint-Martin-de-Beauville","latitude":"44.2269","longitude":"0.8189","population":"170","region":"75","departement":"47","arrondissement":"471","commune":"47255"},
{"name":"Engayrac","latitude":"44.25944","longitude":"0.88556","population":"146","region":"75","departement":"47","arrondissement":"471","commune":"47087"},
{"name":"Cassignas","latitude":"44.3","longitude":"0.78806","population":"129","region":"75","departement":"47","arrondissement":"471","commune":"47050"},
{"name":"Grayssas","latitude":"44.165","longitude":"0.87444","population":"126","region":"75","departement":"47","arrondissement":"471","commune":"47113"},
{"name":"Saint-Beauzeil","latitude":"44.334","longitude":"0.8999","population":"123","region":"76","departement":"82","arrondissement":"821","commune":"82157"},
{"name":"Perville","latitude":"44.18028","longitude":"0.87972","population":"119","region":"76","departement":"82","arrondissement":"821","commune":"82138"},
{"name":"Massels","latitude":"44.31861","longitude":"0.85361","population":"110","region":"75","departement":"47","arrondissement":"473","commune":"47161"}
]