[
{"name":"Louhans","latitude":"46.62639","longitude":"5.22472","population":"6451","region":"27","departement":"71","arrondissement":"714","commune":"71263"},
{"name":"Ouroux-sur-Saône","latitude":"46.72194","longitude":"4.95417","population":"2962","region":"27","departement":"71","arrondissement":"712","commune":"71336"},
{"name":"Branges","latitude":"46.6452","longitude":"5.1749","population":"2368","region":"27","departement":"71","arrondissement":"714","commune":"71056"},
{"name":"Saint-Germain-du-Plain","latitude":"46.70056","longitude":"4.98444","population":"2167","region":"27","departement":"71","arrondissement":"712","commune":"71420"},
{"name":"Sornay","latitude":"46.62667","longitude":"5.17889","population":"1940","region":"27","departement":"71","arrondissement":"714","commune":"71528"},
{"name":"Saint-Germain-du-Bois","latitude":"46.75306","longitude":"5.2425","population":"1935","region":"27","departement":"71","arrondissement":"714","commune":"71419"},
{"name":"Cuisery","latitude":"46.55889","longitude":"5.00139","population":"1641","region":"27","departement":"71","arrondissement":"714","commune":"71158"},
{"name":"Simandre","latitude":"46.6227","longitude":"4.9886","population":"1590","region":"27","departement":"71","arrondissement":"714","commune":"71522"},
{"name":"Mervans","latitude":"46.79806","longitude":"5.18667","population":"1365","region":"27","departement":"71","arrondissement":"714","commune":"71295"},
{"name":"Oslon","latitude":"46.78361","longitude":"4.9225","population":"1313","region":"27","departement":"71","arrondissement":"712","commune":"71333"},
{"name":"Saint-Usuge","latitude":"46.67833","longitude":"5.25111","population":"1189","region":"27","departement":"71","arrondissement":"714","commune":"71484"},
{"name":"Simard","latitude":"46.72111","longitude":"5.18083","population":"1133","region":"27","departement":"71","arrondissement":"714","commune":"71523"},
{"name":"L'Abergement-Sainte-Colombe","latitude":"46.7523","longitude":"5.0075","population":"1087","region":"27","departement":"71","arrondissement":"712","commune":"71002"},
{"name":"Saint-Christophe-en-Bresse","latitude":"46.7525","longitude":"4.98833","population":"958","region":"27","departement":"71","arrondissement":"712","commune":"71398"},
{"name":"Bruailles","latitude":"46.59583","longitude":"5.23611","population":"932","region":"27","departement":"71","arrondissement":"714","commune":"71064"},
{"name":"Baudrières","latitude":"46.67389","longitude":"5.01278","population":"883","region":"27","departement":"71","arrondissement":"712","commune":"71023"},
{"name":"Lans","latitude":"46.77","longitude":"4.92278","population":"875","region":"27","departement":"71","arrondissement":"712","commune":"71253"},
{"name":"Saint-Étienne-en-Bresse","latitude":"46.70611","longitude":"5.05167","population":"838","region":"27","departement":"71","arrondissement":"714","commune":"71410"},
{"name":"Montret","latitude":"46.67833","longitude":"5.11278","population":"752","region":"27","departement":"71","arrondissement":"714","commune":"71319"},
{"name":"L'Abergement-de-Cuisery","latitude":"46.5786","longitude":"4.9607","population":"728","region":"27","departement":"71","arrondissement":"714","commune":"71001"},
{"name":"Loisy","latitude":"46.58167","longitude":"5.02778","population":"574","region":"27","departement":"71","arrondissement":"714","commune":"71261"},
{"name":"Sainte-Croix","latitude":"46.57167","longitude":"5.24611","population":"573","region":"27","departement":"71","arrondissement":"714","commune":"71401"},
{"name":"Bantanges","latitude":"46.60944","longitude":"5.11194","population":"570","region":"27","departement":"71","arrondissement":"714","commune":"71018"},
{"name":"Serley","latitude":"46.78333","longitude":"5.21667","population":"570","region":"27","departement":"71","arrondissement":"714","commune":"71516"},
{"name":"Rancy","latitude":"46.59778","longitude":"5.0925","population":"553","region":"27","departement":"71","arrondissement":"714","commune":"71365"},
{"name":"Gigny-sur-Saône","latitude":"46.66111","longitude":"4.94611","population":"522","region":"27","departement":"71","arrondissement":"712","commune":"71219"},
{"name":"Lessard-en-Bresse","latitude":"46.74056","longitude":"5.09361","population":"517","region":"27","departement":"71","arrondissement":"712","commune":"71256"},
{"name":"La Chapelle-Naude","latitude":"46.59417","longitude":"5.19167","population":"509","region":"27","departement":"71","arrondissement":"714","commune":"71092"},
{"name":"Saint-Vincent-en-Bresse","latitude":"46.66611","longitude":"5.06111","population":"503","region":"27","departement":"71","arrondissement":"714","commune":"71489"},
{"name":"Ormes","latitude":"46.63306","longitude":"4.96472","population":"503","region":"27","departement":"71","arrondissement":"714","commune":"71332"},
{"name":"Montagny-près-Louhans","latitude":"46.65861","longitude":"5.26972","population":"462","region":"27","departement":"71","arrondissement":"714","commune":"71303"},
{"name":"Savigny-sur-Seille","latitude":"46.62389","longitude":"5.1075","population":"443","region":"27","departement":"71","arrondissement":"714","commune":"71508"},
{"name":"Jouvençon","latitude":"46.57417","longitude":"5.05444","population":"420","region":"27","departement":"71","arrondissement":"714","commune":"71244"},
{"name":"Vincelles","latitude":"46.6596","longitude":"5.237","population":"417","region":"27","departement":"71","arrondissement":"714","commune":"71580"},
{"name":"Thurey","latitude":"46.74389","longitude":"5.12278","population":"410","region":"27","departement":"71","arrondissement":"714","commune":"71538"},
{"name":"Ménetreuil","latitude":"46.58278","longitude":"5.11222","population":"375","region":"27","departement":"71","arrondissement":"714","commune":"71293"},
{"name":"Diconne","latitude":"46.77389","longitude":"5.13417","population":"317","region":"27","departement":"71","arrondissement":"714","commune":"71175"},
{"name":"Huilly-sur-Seille","latitude":"46.5921","longitude":"5.0525","population":"299","region":"27","departement":"71","arrondissement":"714","commune":"71234"},
{"name":"Devrouze","latitude":"46.76278","longitude":"5.15833","population":"289","region":"27","departement":"71","arrondissement":"714","commune":"71173"},
{"name":"Juif","latitude":"46.68194","longitude":"5.15972","population":"253","region":"27","departement":"71","arrondissement":"714","commune":"71246"},
{"name":"Tronchy","latitude":"46.7271","longitude":"5.0723","population":"232","region":"27","departement":"71","arrondissement":"712","commune":"71548"},
{"name":"La Frette","latitude":"46.63889","longitude":"5.05028","population":"211","region":"27","departement":"71","arrondissement":"714","commune":"71206"},
{"name":"Villegaudin","latitude":"46.79639","longitude":"5.09806","population":"201","region":"27","departement":"71","arrondissement":"712","commune":"71577"},
{"name":"Guerfand","latitude":"46.78694","longitude":"5.03083","population":"171","region":"27","departement":"71","arrondissement":"712","commune":"71228"},
{"name":"Saint-André-en-Bresse","latitude":"46.65222","longitude":"5.08972","population":"104","region":"27","departement":"71","arrondissement":"714","commune":"71386"},
{"name":"Vérissey","latitude":"46.7109","longitude":"5.12","population":"50","region":"27","departement":"71","arrondissement":"714","commune":"71568"}
]