[
{"name":"Aulnay-sous-Bois","latitude":"48.9366","longitude":"2.4938","population":"82525","region":"11","departement":"93","arrondissement":"932","commune":"93005"},
{"name":"Le Blanc-Mesnil","latitude":"48.93861","longitude":"2.46111","population":"51106","region":"11","departement":"93","arrondissement":"932","commune":"93007"},
{"name":"Sevran","latitude":"48.94139","longitude":"2.52278","population":"50021","region":"11","departement":"93","arrondissement":"932","commune":"93071"},
{"name":"Villepinte","latitude":"48.96056","longitude":"2.53028","population":"35740","region":"11","departement":"93","arrondissement":"932","commune":"93078"},
{"name":"Tremblay-en-France","latitude":"48.95611","longitude":"2.57639","population":"35036","region":"11","departement":"93","arrondissement":"932","commune":"93073"},
{"name":"Goussainville","latitude":"49.032","longitude":"2.474","population":"30990","region":"11","departement":"95","arrondissement":"952","commune":"95280"},
{"name":"Villeparisis","latitude":"48.94278","longitude":"2.60639","population":"24146","region":"11","departement":"77","arrondissement":"775","commune":"77514"},
{"name":"Mitry-Mory","latitude":"48.98333","longitude":"2.61667","population":"18455","region":"11","departement":"77","arrondissement":"771","commune":"77294"},
{"name":"Claye-Souilly","latitude":"48.945","longitude":"2.68667","population":"11128","region":"11","departement":"77","arrondissement":"775","commune":"77118"},
{"name":"Fosses","latitude":"49.09806","longitude":"2.50667","population":"9598","region":"11","departement":"95","arrondissement":"952","commune":"95250"},
{"name":"Louvres","latitude":"49.0437","longitude":"2.5055","population":"8975","region":"11","departement":"95","arrondissement":"952","commune":"95351"},
{"name":"Dammartin-en-Goële","latitude":"49.05417","longitude":"2.68139","population":"7962","region":"11","departement":"77","arrondissement":"771","commune":"77153"},
{"name":"Othis","latitude":"49.07639","longitude":"2.67639","population":"6484","region":"11","departement":"77","arrondissement":"771","commune":"77349"},
{"name":"Vaujours","latitude":"48.93389","longitude":"2.57194","population":"6273","region":"11","departement":"93","arrondissement":"932","commune":"93074"},
{"name":"Saint-Pathus","latitude":"49.07056","longitude":"2.79972","population":"5545","region":"11","departement":"77","arrondissement":"771","commune":"77430"},
{"name":"Marly-la-Ville","latitude":"49.08083","longitude":"2.49944","population":"5497","region":"11","departement":"95","arrondissement":"952","commune":"95371"},
{"name":"Le Thillay","latitude":"49.00472","longitude":"2.47083","population":"4093","region":"11","departement":"95","arrondissement":"952","commune":"95612"},
{"name":"Saint-Mard","latitude":"49.03833","longitude":"2.69528","population":"3753","region":"11","departement":"77","arrondissement":"771","commune":"77420"},
{"name":"Coye-la-Forêt","latitude":"49.14222","longitude":"2.47306","population":"3752","region":"32","departement":"60","arrondissement":"604","commune":"60172"},
{"name":"Survilliers","latitude":"49.09778","longitude":"2.545","population":"3723","region":"11","departement":"95","arrondissement":"952","commune":"95604"},
{"name":"Nanteuil-le-Haudouin","latitude":"49.14167","longitude":"2.81056","population":"3423","region":"32","departement":"60","arrondissement":"604","commune":"60446"},
{"name":"Orry-la-Ville","latitude":"49.13222","longitude":"2.51278","population":"3407","region":"32","departement":"60","arrondissement":"604","commune":"60482"},
{"name":"Puiseux-en-France","latitude":"49.05778","longitude":"2.50028","population":"3344","region":"11","departement":"95","arrondissement":"952","commune":"95509"},
{"name":"Annet-sur-Marne","latitude":"48.92556","longitude":"2.71917","population":"3248","region":"11","departement":"77","arrondissement":"775","commune":"77005"},
{"name":"Saint-Soupplets","latitude":"49.03833","longitude":"2.80722","population":"3246","region":"11","departement":"77","arrondissement":"771","commune":"77437"},
{"name":"Le Plessis-Belleville","latitude":"49.09667","longitude":"2.75306","population":"3208","region":"32","departement":"60","arrondissement":"604","commune":"60500"},
{"name":"La Chapelle-en-Serval","latitude":"49.1275","longitude":"2.53444","population":"2799","region":"32","departement":"60","arrondissement":"604","commune":"60142"},
{"name":"Moussy-le-Neuf","latitude":"49.06306","longitude":"2.60306","population":"2799","region":"11","departement":"77","arrondissement":"771","commune":"77322"},
{"name":"Roissy-en-France","latitude":"49.00417","longitude":"2.51806","population":"2631","region":"11","departement":"95","arrondissement":"952","commune":"95527"},
{"name":"Saint-Witz","latitude":"49.09167","longitude":"2.56833","population":"2554","region":"11","departement":"95","arrondissement":"952","commune":"95580"},
{"name":"Longperrier","latitude":"49.05083","longitude":"2.66444","population":"2370","region":"11","departement":"77","arrondissement":"771","commune":"77259"},
{"name":"Vémars","latitude":"49.06972","longitude":"2.56778","population":"2208","region":"11","departement":"95","arrondissement":"952","commune":"95641"},
{"name":"Juilly","latitude":"49.01278","longitude":"2.70417","population":"2035","region":"11","departement":"77","arrondissement":"771","commune":"77241"},
{"name":"Lagny-le-Sec","latitude":"49.08667","longitude":"2.74417","population":"1877","region":"32","departement":"60","arrondissement":"604","commune":"60341"},
{"name":"Plailly","latitude":"49.10333","longitude":"2.58361","population":"1665","region":"32","departement":"60","arrondissement":"604","commune":"60494"},
{"name":"Charny","latitude":"48.97111","longitude":"2.76222","population":"1192","region":"11","departement":"77","arrondissement":"771","commune":"77095"},
{"name":"Ver-sur-Launette","latitude":"49.105","longitude":"2.68528","population":"1184","region":"32","departement":"60","arrondissement":"604","commune":"60666"},
{"name":"Silly-le-Long","latitude":"49.10694","longitude":"2.79167","population":"1142","region":"32","departement":"60","arrondissement":"604","commune":"60619"},
{"name":"Thiers-sur-Thève","latitude":"49.15222","longitude":"2.57194","population":"1123","region":"32","departement":"60","arrondissement":"604","commune":"60631"},
{"name":"Messy","latitude":"48.96667","longitude":"2.7","population":"1089","region":"11","departement":"77","arrondissement":"771","commune":"77292"},
{"name":"Moussy-le-Vieux","latitude":"49.04667","longitude":"2.625","population":"1042","region":"11","departement":"77","arrondissement":"771","commune":"77323"},
{"name":"Ermenonville","latitude":"49.12611","longitude":"2.69583","population":"949","region":"32","departement":"60","arrondissement":"604","commune":"60213"},
{"name":"Gressy","latitude":"48.965","longitude":"2.67333","population":"924","region":"11","departement":"77","arrondissement":"771","commune":"77214"},
{"name":"Mortefontaine","latitude":"49.1125","longitude":"2.59944","population":"880","region":"32","departement":"60","arrondissement":"604","commune":"60432"},
{"name":"Le Mesnil-Amelot","latitude":"49.01861","longitude":"2.59194","population":"870","region":"11","departement":"77","arrondissement":"771","commune":"77291"},
{"name":"Thieux","latitude":"49.01","longitude":"2.6675","population":"812","region":"11","departement":"77","arrondissement":"771","commune":"77462"},
{"name":"Précy-sur-Marne","latitude":"48.93111","longitude":"2.77389","population":"747","region":"11","departement":"77","arrondissement":"771","commune":"77376"},
{"name":"Villeron","latitude":"49.05778","longitude":"2.54278","population":"728","region":"11","departement":"95","arrondissement":"952","commune":"95675"},
{"name":"Compans","latitude":"48.99389","longitude":"2.665","population":"694","region":"11","departement":"77","arrondissement":"771","commune":"77123"},
{"name":"Montgé-en-Goële","latitude":"49.0275","longitude":"2.7503","population":"690","region":"11","departement":"77","arrondissement":"771","commune":"77308"},
{"name":"Villeroy","latitude":"48.98361","longitude":"2.78167","population":"685","region":"11","departement":"77","arrondissement":"771","commune":"77515"},
{"name":"Fresnes-sur-Marne","latitude":"48.93972","longitude":"2.74139","population":"651","region":"11","departement":"77","arrondissement":"771","commune":"77196"},
{"name":"Trilbardou","latitude":"48.94222","longitude":"2.80583","population":"636","region":"11","departement":"77","arrondissement":"771","commune":"77474"},
{"name":"Rouvres","latitude":"49.06241","longitude":"2.71708","population":"624","region":"11","departement":"77","arrondissement":"771","commune":"77392"},
{"name":"Villeneuve-sous-Dammartin","latitude":"49.035","longitude":"2.63972","population":"616","region":"11","departement":"77","arrondissement":"771","commune":"77511"},
{"name":"Iverny","latitude":"49.00056","longitude":"2.78833","population":"590","region":"11","departement":"77","arrondissement":"771","commune":"77233"},
{"name":"Marchémoret","latitude":"49.05056","longitude":"2.77028","population":"559","region":"11","departement":"77","arrondissement":"771","commune":"77273"},
{"name":"Saint-Mesmes","latitude":"48.98389","longitude":"2.69556","population":"541","region":"11","departement":"77","arrondissement":"771","commune":"77427"},
{"name":"Cuisy","latitude":"49.01944","longitude":"2.7725","population":"445","region":"11","departement":"77","arrondissement":"771","commune":"77150"},
{"name":"Bellefontaine","latitude":"49.0975","longitude":"2.46694","population":"443","region":"11","departement":"95","arrondissement":"952","commune":"95055"},
{"name":"Ève","latitude":"49.08944","longitude":"2.70417","population":"429","region":"32","departement":"60","arrondissement":"604","commune":"60226"},
{"name":"Montagny-Sainte-Félicité","latitude":"49.13028","longitude":"2.73833","population":"409","region":"32","departement":"60","arrondissement":"604","commune":"60413"},
{"name":"Vinantes","latitude":"49.01056","longitude":"2.73444","population":"341","region":"11","departement":"77","arrondissement":"771","commune":"77525"},
{"name":"Chennevières-lès-Louvres","latitude":"49.04472","longitude":"2.55083","population":"338","region":"11","departement":"95","arrondissement":"952","commune":"95154"},
{"name":"Mauregard","latitude":"49.03417","longitude":"2.58111","population":"292","region":"11","departement":"77","arrondissement":"771","commune":"77282"},
{"name":"Nantouillet","latitude":"49.00167","longitude":"2.70333","population":"266","region":"11","departement":"77","arrondissement":"771","commune":"77332"},
{"name":"Charmentray","latitude":"48.94556","longitude":"2.77611","population":"257","region":"11","departement":"77","arrondissement":"771","commune":"77094"},
{"name":"Vignely","latitude":"48.93","longitude":"2.80917","population":"253","region":"11","departement":"77","arrondissement":"771","commune":"77498"},
{"name":"Le Plessis-l'Évêque","latitude":"49.00833","longitude":"2.78417","population":"247","region":"11","departement":"77","arrondissement":"771","commune":"77366"},
{"name":"Le Plessis-aux-Bois","latitude":"49.00278","longitude":"2.76861","population":"245","region":"11","departement":"77","arrondissement":"771","commune":"77364"},
{"name":"Vaudherland","latitude":"49.00056","longitude":"2.48611","population":"89","region":"11","departement":"95","arrondissement":"952","commune":"95633"},
{"name":"Épiais-lès-Louvres","latitude":"49.03139","longitude":"2.5575","population":"78","region":"11","departement":"95","arrondissement":"952","commune":"95212"}
]