[
{"name":"Blois","latitude":"47.59306","longitude":"1.32722","population":"46013","region":"24","departement":"41","arrondissement":"411","commune":"41018"},
{"name":"Vineuil","latitude":"47.58056","longitude":"1.3725","population":"7025","region":"24","departement":"41","arrondissement":"411","commune":"41295"},
{"name":"La Chaussée-Saint-Victor","latitude":"47.61389","longitude":"1.36528","population":"4207","region":"24","departement":"41","arrondissement":"411","commune":"41047"},
{"name":"Saint-Gervais-la-Forêt","latitude":"47.56889","longitude":"1.36","population":"3334","region":"24","departement":"41","arrondissement":"411","commune":"41212"},
{"name":"Villebarou","latitude":"47.6225","longitude":"1.32333","population":"2604","region":"24","departement":"41","arrondissement":"411","commune":"41276"},
{"name":"Chailles","latitude":"47.54167","longitude":"1.31028","population":"2517","region":"24","departement":"41","arrondissement":"411","commune":"41032"},
{"name":"Cellettes","latitude":"47.52806","longitude":"1.38056","population":"2295","region":"24","departement":"41","arrondissement":"411","commune":"41031"},
{"name":"Chouzy-sur-Cisse","latitude":"47.52528","longitude":"1.24722","population":"1860","region":"24","departement":"41","arrondissement":"411","commune":"41055"},
{"name":"Saint-Sulpice-de-Pommeray","latitude":"47.60778","longitude":"1.26917","population":"1806","region":"24","departement":"41","arrondissement":"411","commune":"41230"},
{"name":"Herbault","latitude":"47.60472","longitude":"1.13861","population":"1210","region":"24","departement":"41","arrondissement":"411","commune":"41101"},
{"name":"Fossé","latitude":"47.63333","longitude":"1.28333","population":"1037","region":"24","departement":"41","arrondissement":"411","commune":"41091"},
{"name":"Saint-Denis-sur-Loire","latitude":"47.625","longitude":"1.38639","population":"811","region":"24","departement":"41","arrondissement":"411","commune":"41206"},
{"name":"Valencisse","latitude":"47.57861","longitude":"1.21556","population":"792","region":"24","departement":"41","arrondissement":"411","commune":"41142"},
{"name":"Villerbon","latitude":"47.66222","longitude":"1.37167","population":"768","region":"24","departement":"41","arrondissement":"411","commune":"41288"},
{"name":"La Chapelle-Vendômoise","latitude":"47.67083","longitude":"1.23917","population":"754","region":"24","departement":"41","arrondissement":"411","commune":"41040"},
{"name":"Averdon","latitude":"47.68444","longitude":"1.29528","population":"708","region":"24","departement":"41","arrondissement":"411","commune":"41009"},
{"name":"Marolles","latitude":"47.64778","longitude":"1.30694","population":"701","region":"24","departement":"41","arrondissement":"411","commune":"41128"},
{"name":"Chambon-sur-Cisse","latitude":"47.5625","longitude":"1.21583","population":"692","region":"24","departement":"41","arrondissement":"411","commune":"41033"},
{"name":"Landes-le-Gaulois","latitude":"47.65278","longitude":"1.18306","population":"684","region":"24","departement":"41","arrondissement":"411","commune":"41109"},
{"name":"Saint-Lubin-en-Vergonnois","latitude":"47.61306","longitude":"1.23778","population":"676","region":"24","departement":"41","arrondissement":"411","commune":"41223"},
{"name":"Champigny-en-Beauce","latitude":"47.71194","longitude":"1.25583","population":"654","region":"24","departement":"41","arrondissement":"411","commune":"41035"},
{"name":"Maves","latitude":"47.74222","longitude":"1.36444","population":"639","region":"24","departement":"41","arrondissement":"411","commune":"41130"},
{"name":"Villefrancœur","latitude":"47.69361","longitude":"1.21917","population":"482","region":"24","departement":"41","arrondissement":"411","commune":"41281"},
{"name":"Lancé","latitude":"47.69389","longitude":"1.0675","population":"446","region":"24","departement":"41","arrondissement":"412","commune":"41107"},
{"name":"Mulsans","latitude":"47.69611","longitude":"1.385","population":"441","region":"24","departement":"41","arrondissement":"411","commune":"41156"},
{"name":"Saint-Bohaire","latitude":"47.64444","longitude":"1.26333","population":"424","region":"24","departement":"41","arrondissement":"411","commune":"41203"},
{"name":"Crucheray","latitude":"47.72806","longitude":"1.08833","population":"403","region":"24","departement":"41","arrondissement":"412","commune":"41072"},
{"name":"Coulanges","latitude":"47.54306","longitude":"1.22306","population":"307","region":"24","departement":"41","arrondissement":"411","commune":"41064"},
{"name":"Françay","latitude":"47.61778","longitude":"1.12583","population":"300","region":"24","departement":"41","arrondissement":"411","commune":"41093"},
{"name":"Pray","latitude":"47.67611","longitude":"1.11694","population":"298","region":"24","departement":"41","arrondissement":"412","commune":"41182"},
{"name":"Villemardy","latitude":"47.73333","longitude":"1.19056","population":"282","region":"24","departement":"41","arrondissement":"412","commune":"41283"},
{"name":"Santenay","latitude":"47.56667","longitude":"1.11667","population":"273","region":"24","departement":"41","arrondissement":"411","commune":"41234"},
{"name":"Villeromain","latitude":"47.72889","longitude":"1.14306","population":"221","region":"24","departement":"41","arrondissement":"412","commune":"41290"},
{"name":"Conan","latitude":"47.74861","longitude":"1.28639","population":"196","region":"24","departement":"41","arrondissement":"411","commune":"41057"},
{"name":"Périgny","latitude":"47.74028","longitude":"1.15028","population":"194","region":"24","departement":"41","arrondissement":"412","commune":"41174"},
{"name":"Gombergean","latitude":"47.65139","longitude":"1.08333","population":"177","region":"24","departement":"41","arrondissement":"412","commune":"41098"},
{"name":"Lancôme","latitude":"47.64889","longitude":"1.12333","population":"140","region":"24","departement":"41","arrondissement":"411","commune":"41108"},
{"name":"Tourailles","latitude":"47.685","longitude":"1.15861","population":"133","region":"24","departement":"41","arrondissement":"412","commune":"41261"},
{"name":"Nourray","latitude":"47.7175","longitude":"1.05861","population":"114","region":"24","departement":"41","arrondissement":"412","commune":"41163"},
{"name":"Rhodon","latitude":"47.75333","longitude":"1.26722","population":"104","region":"24","departement":"41","arrondissement":"412","commune":"41188"},
{"name":"Saint-Étienne-des-Guérets","latitude":"47.59917","longitude":"1.06417","population":"101","region":"24","departement":"41","arrondissement":"411","commune":"41208"},
{"name":"Seillac","latitude":"47.545","longitude":"1.15722","population":"81","region":"24","departement":"41","arrondissement":"411","commune":"41240"}
]