[
{"name":"Faverges-Seythenex","latitude":"45.74667","longitude":"6.29389","population":"6657","region":"84","departement":"74","arrondissement":"741","commune":"74123"},
{"name":"Doussard","latitude":"45.77556","longitude":"6.22056","population":"3473","region":"84","departement":"74","arrondissement":"741","commune":"74104"},
{"name":"Alby-sur-Chéran","latitude":"45.8172","longitude":"6.0209","population":"2007","region":"84","departement":"74","arrondissement":"741","commune":"74002"},
{"name":"Cusy","latitude":"45.765","longitude":"6.03056","population":"1731","region":"84","departement":"74","arrondissement":"741","commune":"74097"},
{"name":"Frontenex","latitude":"45.6363","longitude":"6.3089","population":"1673","region":"84","departement":"73","arrondissement":"731","commune":"73121"},
{"name":"Saint-Jean-d'Arvey","latitude":"45.58611","longitude":"5.99639","population":"1473","region":"84","departement":"73","arrondissement":"732","commune":"73243"},
{"name":"Gruffy","latitude":"45.78778","longitude":"6.055","population":"1404","region":"84","departement":"74","arrondissement":"741","commune":"74138"},
{"name":"Viuz-la-Chiésaz","latitude":"45.8109","longitude":"6.0623","population":"1278","region":"84","departement":"74","arrondissement":"741","commune":"74310"},
{"name":"Grésy-sur-Isère","latitude":"45.60111","longitude":"6.25361","population":"1260","region":"84","departement":"73","arrondissement":"731","commune":"73129"},
{"name":"Sainte-Hélène-sur-Isère","latitude":"45.61389","longitude":"6.32083","population":"1123","region":"84","departement":"73","arrondissement":"731","commune":"73241"},
{"name":"Lathuile","latitude":"45.7825","longitude":"6.20278","population":"960","region":"84","departement":"74","arrondissement":"741","commune":"74147"},
{"name":"Héry-sur-Alby","latitude":"45.79694","longitude":"6.01306","population":"901","region":"84","departement":"74","arrondissement":"741","commune":"74142"},
{"name":"Duingt","latitude":"45.82806","longitude":"6.20278","population":"891","region":"84","departement":"74","arrondissement":"741","commune":"74108"},
{"name":"Saint-Ferréol","latitude":"45.76611","longitude":"6.30667","population":"864","region":"84","departement":"74","arrondissement":"741","commune":"74234"},
{"name":"Montcel","latitude":"45.72333","longitude":"5.98306","population":"840","region":"84","departement":"73","arrondissement":"732","commune":"73164"},
{"name":"Les Déserts","latitude":"45.62139","longitude":"6.01111","population":"836","region":"84","departement":"73","arrondissement":"732","commune":"73098"},
{"name":"Verrens-Arvey","latitude":"45.65361","longitude":"6.31556","population":"782","region":"84","departement":"73","arrondissement":"731","commune":"73312"},
{"name":"Lescheraines","latitude":"45.70833","longitude":"6.105","population":"731","region":"84","departement":"73","arrondissement":"732","commune":"73146"},
{"name":"Mûres","latitude":"45.80583","longitude":"6.03861","population":"688","region":"84","departement":"74","arrondissement":"741","commune":"74194"},
{"name":"Saint-Vital","latitude":"45.62694","longitude":"6.29806","population":"668","region":"84","departement":"73","arrondissement":"731","commune":"73283"},
{"name":"Le Châtelard","latitude":"45.68528","longitude":"6.13722","population":"645","region":"84","departement":"73","arrondissement":"732","commune":"73081"},
{"name":"Bellecombe-en-Bauges","latitude":"45.7371","longitude":"6.1424","population":"641","region":"84","departement":"73","arrondissement":"732","commune":"73036"},
{"name":"Saint-Offenge","latitude":"45.73528","longitude":"6.00222","population":"609","region":"84","departement":"73","arrondissement":"732","commune":"73263"},
{"name":"Montailleur","latitude":"45.6175","longitude":"6.27917","population":"608","region":"84","departement":"73","arrondissement":"731","commune":"73162"},
{"name":"Chainaz-les-Frasses","latitude":"45.77306","longitude":"5.99583","population":"597","region":"84","departement":"74","arrondissement":"741","commune":"74054"},
{"name":"Giez","latitude":"45.75222","longitude":"6.24667","population":"593","region":"84","departement":"74","arrondissement":"741","commune":"74135"},
{"name":"Tournon","latitude":"45.6435","longitude":"6.3179","population":"557","region":"84","departement":"73","arrondissement":"731","commune":"73297"},
{"name":"Saint-Ours","latitude":"45.7575","longitude":"5.98861","population":"541","region":"84","departement":"73","arrondissement":"732","commune":"73265"},
{"name":"Saint-Eustache","latitude":"45.79583","longitude":"6.14833","population":"470","region":"84","departement":"74","arrondissement":"741","commune":"74232"},
{"name":"Fréterive","latitude":"45.58444","longitude":"6.21028","population":"468","region":"84","departement":"73","arrondissement":"732","commune":"73120"},
{"name":"Aillon-le-Jeune","latitude":"45.61806","longitude":"6.08056","population":"450","region":"84","departement":"73","arrondissement":"732","commune":"73004"},
{"name":"Thoiry","latitude":"45.59111","longitude":"6.02917","population":"439","region":"84","departement":"73","arrondissement":"732","commune":"73293"},
{"name":"La Motte-en-Bauges","latitude":"45.702","longitude":"6.1298","population":"431","region":"84","departement":"73","arrondissement":"732","commune":"73178"},
{"name":"Plancherine","latitude":"45.66528","longitude":"6.31639","population":"413","region":"84","departement":"73","arrondissement":"731","commune":"73202"},
{"name":"Cléry","latitude":"45.6444","longitude":"6.2936","population":"413","region":"84","departement":"73","arrondissement":"731","commune":"73086"},
{"name":"Arith","latitude":"45.71583","longitude":"6.08417","population":"377","region":"84","departement":"73","arrondissement":"732","commune":"73020"},
{"name":"Allèves","latitude":"45.75222","longitude":"6.08028","population":"357","region":"84","departement":"74","arrondissement":"741","commune":"74004"},
{"name":"Bonvillard","latitude":"45.5868","longitude":"6.3053","population":"339","region":"84","departement":"73","arrondissement":"731","commune":"73048"},
{"name":"Jarsy","latitude":"45.65694","longitude":"6.17889","population":"281","region":"84","departement":"73","arrondissement":"732","commune":"73139"},
{"name":"Leschaux","latitude":"45.7731","longitude":"6.1262","population":"262","region":"84","departement":"74","arrondissement":"741","commune":"74148"},
{"name":"École","latitude":"45.65","longitude":"6.16667","population":"246","region":"84","departement":"73","arrondissement":"732","commune":"73106"},
{"name":"La Compôte","latitude":"45.67056","longitude":"6.16111","population":"230","region":"84","departement":"73","arrondissement":"732","commune":"73090"},
{"name":"Chevaline","latitude":"45.7625","longitude":"6.21972","population":"207","region":"84","departement":"74","arrondissement":"741","commune":"74072"},
{"name":"Entrevernes","latitude":"45.79528","longitude":"6.18861","population":"202","region":"84","departement":"74","arrondissement":"741","commune":"74111"},
{"name":"Le Noyer","latitude":"45.6786","longitude":"6.0605","population":"177","region":"84","departement":"73","arrondissement":"732","commune":"73192"},
{"name":"Aillon-le-Vieux","latitude":"45.65083","longitude":"6.09361","population":"173","region":"84","departement":"73","arrondissement":"732","commune":"73005"},
{"name":"Sainte-Reine","latitude":"45.61167","longitude":"6.13972","population":"157","region":"84","departement":"73","arrondissement":"732","commune":"73277"},
{"name":"Saint-François-de-Sales","latitude":"45.68111","longitude":"6.05528","population":"138","region":"84","departement":"73","arrondissement":"732","commune":"73234"},
{"name":"La Chapelle-Saint-Maurice","latitude":"45.77861","longitude":"6.15028","population":"130","region":"84","departement":"74","arrondissement":"741","commune":"74060"},
{"name":"Doucy-en-Bauges","latitude":"45.6867","longitude":"6.1694","population":"93","region":"84","departement":"73","arrondissement":"732","commune":"73101"}
]