[
{"name":"Oraison","latitude":"43.91722","longitude":"5.91861","population":"5300","region":"93","departement":"04","arrondissement":"043","commune":"04143"},
{"name":"Forcalquier","latitude":"43.95917","longitude":"5.77972","population":"4640","region":"93","departement":"04","arrondissement":"044","commune":"04088"},
{"name":"Les Mées","latitude":"44.02944","longitude":"5.97639","population":"3671","region":"93","departement":"04","arrondissement":"043","commune":"04116"},
{"name":"Villeneuve","latitude":"43.8939","longitude":"5.8634","population":"3439","region":"93","departement":"04","arrondissement":"044","commune":"04242"},
{"name":"Volx","latitude":"43.87778","longitude":"5.84167","population":"2953","region":"93","departement":"04","arrondissement":"044","commune":"04245"},
{"name":"Peyruis","latitude":"44.02889","longitude":"5.94028","population":"2615","region":"93","departement":"04","arrondissement":"044","commune":"04149"},
{"name":"Reillanne","latitude":"43.87917","longitude":"5.65917","population":"1500","region":"93","departement":"04","arrondissement":"044","commune":"04160"},
{"name":"Mane","latitude":"43.93833","longitude":"5.7675","population":"1367","region":"93","departement":"04","arrondissement":"044","commune":"04111"},
{"name":"Saint-Étienne-les-Orgues","latitude":"44.04611","longitude":"5.78028","population":"1219","region":"93","departement":"04","arrondissement":"044","commune":"04178"},
{"name":"Saint-Michel-l'Observatoire","latitude":"43.90972","longitude":"5.71611","population":"1142","region":"93","departement":"04","arrondissement":"044","commune":"04192"},
{"name":"Banon","latitude":"44.03806","longitude":"5.62806","population":"1072","region":"93","departement":"04","arrondissement":"044","commune":"04018"},
{"name":"La Brillanne","latitude":"43.92667","longitude":"5.89111","population":"919","region":"93","departement":"04","arrondissement":"044","commune":"04034"},
{"name":"Saint-Maime","latitude":"43.90389","longitude":"5.79278","population":"844","region":"93","departement":"04","arrondissement":"044","commune":"04188"},
{"name":"Dauphin","latitude":"43.89833","longitude":"5.78306","population":"792","region":"93","departement":"04","arrondissement":"044","commune":"04068"},
{"name":"Cruis","latitude":"44.0625","longitude":"5.83583","population":"603","region":"93","departement":"04","arrondissement":"044","commune":"04065"},
{"name":"Pierrerue","latitude":"43.95611","longitude":"5.83278","population":"521","region":"93","departement":"04","arrondissement":"044","commune":"04151"},
{"name":"Sigonce","latitude":"43.99694","longitude":"5.84028","population":"405","region":"93","departement":"04","arrondissement":"044","commune":"04206"},
{"name":"Montfort","latitude":"44.06361","longitude":"5.97278","population":"383","region":"93","departement":"04","arrondissement":"044","commune":"04127"},
{"name":"Lurs","latitude":"43.96944","longitude":"5.88917","population":"370","region":"93","departement":"04","arrondissement":"044","commune":"04106"},
{"name":"Ongles","latitude":"44.02778","longitude":"5.73361","population":"338","region":"93","departement":"04","arrondissement":"044","commune":"04141"},
{"name":"Limans","latitude":"43.985","longitude":"5.73056","population":"335","region":"93","departement":"04","arrondissement":"044","commune":"04104"},
{"name":"Vachères","latitude":"43.93139","longitude":"5.63833","population":"307","region":"93","departement":"04","arrondissement":"044","commune":"04227"},
{"name":"Revest-des-Brousses","latitude":"43.97194","longitude":"5.67167","population":"252","region":"93","departement":"04","arrondissement":"044","commune":"04162"},
{"name":"Niozelles","latitude":"43.93611","longitude":"5.8375","population":"237","region":"93","departement":"04","arrondissement":"044","commune":"04138"},
{"name":"Mallefougasse-Augès","latitude":"44.0658","longitude":"5.8985","population":"221","region":"93","departement":"04","arrondissement":"044","commune":"04109"},
{"name":"Montfuron","latitude":"43.83583","longitude":"5.69389","population":"197","region":"93","departement":"04","arrondissement":"044","commune":"04128"},
{"name":"Villemus","latitude":"43.85917","longitude":"5.70083","population":"161","region":"93","departement":"04","arrondissement":"044","commune":"04241"},
{"name":"Montlaux","latitude":"44.0469","longitude":"5.8454","population":"138","region":"93","departement":"04","arrondissement":"044","commune":"04130"},
{"name":"Fontienne","latitude":"44.00889","longitude":"5.79333","population":"132","region":"93","departement":"04","arrondissement":"044","commune":"04087"},
{"name":"Lardiers","latitude":"44.05694","longitude":"5.71222","population":"111","region":"93","departement":"04","arrondissement":"044","commune":"04101"},
{"name":"Ganagobie","latitude":"44.00889","longitude":"5.91639","population":"110","region":"93","departement":"04","arrondissement":"044","commune":"04091"},
{"name":"La Rochegiron","latitude":"44.0775","longitude":"5.65556","population":"107","region":"93","departement":"04","arrondissement":"044","commune":"04169"},
{"name":"Aubenas-les-Alpes","latitude":"43.93111","longitude":"5.68056","population":"107","region":"93","departement":"04","arrondissement":"044","commune":"04012"},
{"name":"Saint-Martin-les-Eaux","latitude":"43.87444","longitude":"5.73528","population":"96","region":"93","departement":"04","arrondissement":"044","commune":"04190"},
{"name":"Revest-Saint-Martin","latitude":"44.0109","longitude":"5.8274","population":"91","region":"93","departement":"04","arrondissement":"044","commune":"04164"},
{"name":"L'Hospitalet","latitude":"44.0865","longitude":"5.6987","population":"89","region":"93","departement":"04","arrondissement":"044","commune":"04095"},
{"name":"Montjustin","latitude":"43.84917","longitude":"5.63472","population":"48","region":"93","departement":"04","arrondissement":"044","commune":"04129"}
]