[
{"name":"Quiberon","latitude":"47.48333","longitude":"-3.12056","population":"5027","region":"53","departement":"56","arrondissement":"561","commune":"56186"},
{"name":"Le Palais","latitude":"47.3463","longitude":"-3.1546","population":"2545","region":"53","departement":"56","arrondissement":"561","commune":"56152"},
{"name":"Saint-Gildas-de-Rhuys","latitude":"47.5","longitude":"-2.83806","population":"1647","region":"53","departement":"56","arrondissement":"563","commune":"56214"},
{"name":"Locmaria","latitude":"47.2941","longitude":"-3.0826","population":"800","region":"53","departement":"56","arrondissement":"561","commune":"56114"},
{"name":"Île-d'Houat","latitude":"47.3904","longitude":"-2.9548","population":"255","region":"53","departement":"56","arrondissement":"561","commune":"56086"},
{"name":"Hœdic","latitude":"47.34","longitude":"-2.8783","population":"119","region":"53","departement":"56","arrondissement":"561","commune":"56085"}
]