[
{"name":"Saint-Pierre-des-Corps","latitude":"47.39083","longitude":"0.72806","population":"15370","region":"24","departement":"37","arrondissement":"372","commune":"37233"},
{"name":"Saint-Avertin","latitude":"47.36667","longitude":"0.72667","population":"13946","region":"24","departement":"37","arrondissement":"372","commune":"37208"},
{"name":"Amboise","latitude":"47.41139","longitude":"0.9825","population":"12505","region":"24","departement":"37","arrondissement":"372","commune":"37003"},
{"name":"Chambray-lès-Tours","latitude":"47.3375","longitude":"0.71389","population":"10781","region":"24","departement":"37","arrondissement":"372","commune":"37050"},
{"name":"Montlouis-sur-Loire","latitude":"47.38833","longitude":"0.82722","population":"10448","region":"24","departement":"37","arrondissement":"372","commune":"37156"},
{"name":"Veigné","latitude":"47.2875","longitude":"0.7375","population":"6055","region":"24","departement":"37","arrondissement":"372","commune":"37266"},
{"name":"Bléré","latitude":"47.32528","longitude":"0.98972","population":"5161","region":"24","departement":"37","arrondissement":"372","commune":"37027"},
{"name":"La Ville-aux-Dames","latitude":"47.39583","longitude":"0.76444","population":"4889","region":"24","departement":"37","arrondissement":"372","commune":"37273"},
{"name":"Esvres","latitude":"47.28444","longitude":"0.78611","population":"4481","region":"24","departement":"37","arrondissement":"372","commune":"37104"},
{"name":"Véretz","latitude":"47.35972","longitude":"0.80556","population":"4095","region":"24","departement":"37","arrondissement":"372","commune":"37267"},
{"name":"Monnaie","latitude":"47.50056","longitude":"0.78528","population":"3934","region":"24","departement":"37","arrondissement":"372","commune":"37153"},
{"name":"Montbazon","latitude":"47.28722","longitude":"0.71361","population":"3904","region":"24","departement":"37","arrondissement":"372","commune":"37154"},
{"name":"Notre-Dame-d'Oé","latitude":"47.45778","longitude":"0.70806","population":"3779","region":"24","departement":"37","arrondissement":"372","commune":"37172"},
{"name":"Chanceaux-sur-Choisille","latitude":"47.47083","longitude":"0.70333","population":"3599","region":"24","departement":"37","arrondissement":"372","commune":"37054"},
{"name":"Nazelles-Négron","latitude":"47.4327","longitude":"0.9539","population":"3544","region":"24","departement":"37","arrondissement":"372","commune":"37163"},
{"name":"Rochecorbon","latitude":"47.41444","longitude":"0.755","population":"3282","region":"24","departement":"37","arrondissement":"372","commune":"37203"},
{"name":"Vouvray","latitude":"47.41222","longitude":"0.79917","population":"3076","region":"24","departement":"37","arrondissement":"372","commune":"37281"},
{"name":"Azay-sur-Cher","latitude":"47.34917","longitude":"0.84611","population":"2989","region":"24","departement":"37","arrondissement":"372","commune":"37015"},
{"name":"Saint-Martin-le-Beau","latitude":"47.35583","longitude":"0.90972","population":"2819","region":"24","departement":"37","arrondissement":"372","commune":"37225"},
{"name":"Vernou-sur-Brenne","latitude":"47.42111","longitude":"0.84556","population":"2715","region":"24","departement":"37","arrondissement":"372","commune":"37270"},
{"name":"Athée-sur-Cher","latitude":"47.32083","longitude":"0.91556","population":"2440","region":"24","departement":"37","arrondissement":"372","commune":"37008"},
{"name":"Larçay","latitude":"47.36806","longitude":"0.78","population":"2359","region":"24","departement":"37","arrondissement":"372","commune":"37124"},
{"name":"Parçay-Meslay","latitude":"47.44167","longitude":"0.74556","population":"2293","region":"24","departement":"37","arrondissement":"372","commune":"37179"},
{"name":"La Croix-en-Touraine","latitude":"47.33667","longitude":"0.99056","population":"2206","region":"24","departement":"37","arrondissement":"372","commune":"37091"},
{"name":"Civray-de-Touraine","latitude":"47.33222","longitude":"1.04861","population":"1789","region":"24","departement":"37","arrondissement":"372","commune":"37079"},
{"name":"Pocé-sur-Cisse","latitude":"47.4444","longitude":"0.9917","population":"1580","region":"24","departement":"37","arrondissement":"372","commune":"37185"},
{"name":"Reugny","latitude":"47.48194","longitude":"0.88417","population":"1573","region":"24","departement":"37","arrondissement":"372","commune":"37194"},
{"name":"Limeray","latitude":"47.45944","longitude":"1.04139","population":"1143","region":"24","departement":"37","arrondissement":"372","commune":"37131"},
{"name":"Chargé","latitude":"47.4325","longitude":"1.03056","population":"1134","region":"24","departement":"37","arrondissement":"372","commune":"37060"},
{"name":"Noizay","latitude":"47.42139","longitude":"0.89167","population":"1131","region":"24","departement":"37","arrondissement":"372","commune":"37171"},
{"name":"Chançay","latitude":"47.45243","longitude":"0.87247","population":"1066","region":"24","departement":"37","arrondissement":"372","commune":"37052"},
{"name":"Saint-Ouen-les-Vignes","latitude":"47.46972","longitude":"0.99444","population":"1031","region":"24","departement":"37","arrondissement":"372","commune":"37230"},
{"name":"Montreuil-en-Touraine","latitude":"47.48694","longitude":"0.94694","population":"743","region":"24","departement":"37","arrondissement":"372","commune":"37158"},
{"name":"Neuillé-le-Lierre","latitude":"47.51194","longitude":"0.91","population":"743","region":"24","departement":"37","arrondissement":"372","commune":"37166"},
{"name":"Lussault-sur-Loire","latitude":"47.39667","longitude":"0.91833","population":"719","region":"24","departement":"37","arrondissement":"372","commune":"37138"},
{"name":"Dierre","latitude":"47.34611","longitude":"0.9525","population":"576","region":"24","departement":"37","arrondissement":"372","commune":"37096"},
{"name":"Saint-Règle","latitude":"47.40833","longitude":"1.05333","population":"463","region":"24","departement":"37","arrondissement":"372","commune":"37236"}
]