[
{"name":"Saint-Florent-sur-Cher","latitude":"46.9953","longitude":"2.2526","population":"6630","region":"24","departement":"18","arrondissement":"181","commune":"18207"},
{"name":"Trouy","latitude":"47.01028","longitude":"2.35778","population":"3835","region":"24","departement":"18","arrondissement":"181","commune":"18267"},
{"name":"Plaimpied-Givaudins","latitude":"46.99861","longitude":"2.45417","population":"1725","region":"24","departement":"18","arrondissement":"181","commune":"18180"},
{"name":"Châteauneuf-sur-Cher","latitude":"46.8575","longitude":"2.31639","population":"1517","region":"24","departement":"18","arrondissement":"182","commune":"18058"},
{"name":"Lunery","latitude":"46.93528","longitude":"2.27111","population":"1449","region":"24","departement":"18","arrondissement":"181","commune":"18133"},
{"name":"Levet","latitude":"46.92583","longitude":"2.40861","population":"1350","region":"24","departement":"18","arrondissement":"181","commune":"18126"},
{"name":"Chârost","latitude":"46.99278","longitude":"2.11611","population":"1015","region":"24","departement":"18","arrondissement":"181","commune":"18055"},
{"name":"Civray","latitude":"46.96722","longitude":"2.17444","population":"988","region":"24","departement":"18","arrondissement":"181","commune":"18066"},
{"name":"Le Subdray","latitude":"47.01083","longitude":"2.29444","population":"902","region":"24","departement":"18","arrondissement":"181","commune":"18255"},
{"name":"Venesmes","latitude":"46.83917","longitude":"2.31333","population":"884","region":"24","departement":"18","arrondissement":"182","commune":"18273"},
{"name":"Chezal-Benoît","latitude":"46.82694","longitude":"2.11417","population":"868","region":"24","departement":"18","arrondissement":"182","commune":"18065"},
{"name":"Vallenay","latitude":"46.8018","longitude":"2.3714","population":"701","region":"24","departement":"18","arrondissement":"182","commune":"18270"},
{"name":"Morthomiers","latitude":"47.03694","longitude":"2.27667","population":"678","region":"24","departement":"18","arrondissement":"181","commune":"18157"},
{"name":"Saint-Caprais","latitude":"46.96833","longitude":"2.29333","population":"635","region":"24","departement":"18","arrondissement":"181","commune":"18201"},
{"name":"Saint-Germain-des-Bois","latitude":"46.91306","longitude":"2.44333","population":"569","region":"24","departement":"18","arrondissement":"182","commune":"18212"},
{"name":"Mareuil-sur-Arnon","latitude":"46.88111","longitude":"2.15917","population":"566","region":"24","departement":"18","arrondissement":"181","commune":"18137"},
{"name":"Arçay","latitude":"46.94833","longitude":"2.34028","population":"513","region":"24","departement":"18","arrondissement":"181","commune":"18008"},
{"name":"Plou","latitude":"47.0142","longitude":"2.1554","population":"465","region":"24","departement":"18","arrondissement":"181","commune":"18181"},
{"name":"Senneçay","latitude":"46.95111","longitude":"2.43722","population":"447","region":"24","departement":"18","arrondissement":"181","commune":"18248"},
{"name":"Villeneuve-sur-Cher","latitude":"47.02889","longitude":"2.22306","population":"427","region":"24","departement":"18","arrondissement":"181","commune":"18285"},
{"name":"Saint-Ambroix","latitude":"46.93167","longitude":"2.12028","population":"403","region":"24","departement":"18","arrondissement":"181","commune":"18198"},
{"name":"Saint-Loup-des-Chaumes","latitude":"46.82444","longitude":"2.38917","population":"297","region":"24","departement":"18","arrondissement":"182","commune":"18221"},
{"name":"Saint-Baudel","latitude":"46.83833","longitude":"2.20694","population":"295","region":"24","departement":"18","arrondissement":"182","commune":"18199"},
{"name":"Primelles","latitude":"46.9287","longitude":"2.2139","population":"254","region":"24","departement":"18","arrondissement":"181","commune":"18188"},
{"name":"Corquoy","latitude":"46.8972","longitude":"2.2931","population":"238","region":"24","departement":"18","arrondissement":"182","commune":"18073"},
{"name":"Lissay-Lochy","latitude":"46.97222","longitude":"2.40667","population":"209","region":"24","departement":"18","arrondissement":"181","commune":"18129"},
{"name":"Chavannes","latitude":"46.8531","longitude":"2.3768","population":"173","region":"24","departement":"18","arrondissement":"182","commune":"18063"},
{"name":"Lapan","latitude":"46.92333","longitude":"2.29972","population":"157","region":"24","departement":"18","arrondissement":"181","commune":"18122"},
{"name":"Saint-Symphorien","latitude":"46.81222","longitude":"2.31056","population":"128","region":"24","departement":"18","arrondissement":"182","commune":"18236"},
{"name":"Montlouis","latitude":"46.81417","longitude":"2.24028","population":"115","region":"24","departement":"18","arrondissement":"182","commune":"18152"},
{"name":"Villecelin","latitude":"46.82611","longitude":"2.18167","population":"113","region":"24","departement":"18","arrondissement":"182","commune":"18283"},
{"name":"Saugy","latitude":"46.97028","longitude":"2.11694","population":"72","region":"24","departement":"18","arrondissement":"181","commune":"18244"},
{"name":"Crézançay-sur-Cher","latitude":"46.81278","longitude":"2.3575","population":"65","region":"24","departement":"18","arrondissement":"182","commune":"18078"},
{"name":"Serruelles","latitude":"46.8825","longitude":"2.37111","population":"51","region":"24","departement":"18","arrondissement":"182","commune":"18250"},
{"name":"Sainte-Lunaise","latitude":"46.9206","longitude":"2.3489","population":"23","region":"24","departement":"18","arrondissement":"181","commune":"18222"}
]