[
{"name":"Onzain","latitude":"47.49972","longitude":"1.17417","population":"3449","region":"24","departement":"41","arrondissement":"411","commune":"41167"},
{"name":"Montrichard Val de Cher","latitude":"47.34306","longitude":"1.18333","population":"3429","region":"24","departement":"41","arrondissement":"411","commune":"41151"},
{"name":"Saint-Georges-sur-Cher","latitude":"47.32528","longitude":"1.12528","population":"2392","region":"24","departement":"41","arrondissement":"411","commune":"41211"},
{"name":"Les Montils","latitude":"47.49528","longitude":"1.29694","population":"1735","region":"24","departement":"41","arrondissement":"411","commune":"41147"},
{"name":"Pontlevoy","latitude":"47.38889","longitude":"1.25361","population":"1570","region":"24","departement":"41","arrondissement":"411","commune":"41180"},
{"name":"Saint-Romain-sur-Cher","latitude":"47.31889","longitude":"1.39889","population":"1494","region":"24","departement":"41","arrondissement":"413","commune":"41229"},
{"name":"Candé-sur-Beuvron","latitude":"47.495","longitude":"1.26056","population":"1462","region":"24","departement":"41","arrondissement":"411","commune":"41029"},
{"name":"Francueil","latitude":"47.31194","longitude":"1.08278","population":"1286","region":"24","departement":"37","arrondissement":"372","commune":"37110"},
{"name":"Faverolles-sur-Cher","latitude":"47.32139","longitude":"1.18556","population":"1281","region":"24","departement":"41","arrondissement":"411","commune":"41080"},
{"name":"Thésée","latitude":"47.32611","longitude":"1.30389","population":"1184","region":"24","departement":"41","arrondissement":"413","commune":"41258"},
{"name":"Chissay-en-Touraine","latitude":"47.33722","longitude":"1.13306","population":"1142","region":"24","departement":"41","arrondissement":"411","commune":"41051"},
{"name":"Mareuil-sur-Cher","latitude":"47.2925","longitude":"1.32889","population":"1096","region":"24","departement":"41","arrondissement":"413","commune":"41126"},
{"name":"Cangey","latitude":"47.46778","longitude":"1.06028","population":"1067","region":"24","departement":"37","arrondissement":"372","commune":"37043"},
{"name":"Chaumont-sur-Loire","latitude":"47.48","longitude":"1.18556","population":"1037","region":"24","departement":"41","arrondissement":"411","commune":"41045"},
{"name":"Chitenay","latitude":"47.49722","longitude":"1.37056","population":"1017","region":"24","departement":"41","arrondissement":"411","commune":"41052"},
{"name":"Monthou-sur-Cher","latitude":"47.34667","longitude":"1.29528","population":"956","region":"24","departement":"41","arrondissement":"411","commune":"41146"},
{"name":"Sambin","latitude":"47.43806","longitude":"1.29694","population":"904","region":"24","departement":"41","arrondissement":"411","commune":"41233"},
{"name":"Thenay","latitude":"47.38778","longitude":"1.28806","population":"846","region":"24","departement":"41","arrondissement":"411","commune":"41257"},
{"name":"Vallières-les-Grandes","latitude":"47.42278","longitude":"1.14694","population":"822","region":"24","departement":"41","arrondissement":"411","commune":"41267"},
{"name":"Ouchamps","latitude":"47.4725","longitude":"1.30806","population":"819","region":"24","departement":"41","arrondissement":"411","commune":"41170"},
{"name":"Angé","latitude":"47.3319","longitude":"1.2437","population":"818","region":"24","departement":"41","arrondissement":"411","commune":"41002"},
{"name":"Pouillé","latitude":"47.31806","longitude":"1.28806","population":"799","region":"24","departement":"41","arrondissement":"413","commune":"41181"},
{"name":"Fougères-sur-Bièvre","latitude":"47.44778","longitude":"1.34278","population":"796","region":"24","departement":"41","arrondissement":"411","commune":"41092"},
{"name":"Monteaux","latitude":"47.48583","longitude":"1.11333","population":"788","region":"24","departement":"41","arrondissement":"411","commune":"41144"},
{"name":"Monthou-sur-Bièvre","latitude":"47.47611","longitude":"1.295","population":"749","region":"24","departement":"41","arrondissement":"411","commune":"41145"},
{"name":"Mosnes","latitude":"47.45556","longitude":"1.10083","population":"743","region":"24","departement":"37","arrondissement":"372","commune":"37161"},
{"name":"Saint-Julien-de-Chédon","latitude":"47.3274","longitude":"1.2032","population":"732","region":"24","departement":"41","arrondissement":"411","commune":"41217"},
{"name":"Feings","latitude":"47.43778","longitude":"1.35278","population":"686","region":"24","departement":"41","arrondissement":"411","commune":"41082"},
{"name":"Chisseaux","latitude":"47.33111","longitude":"1.09306","population":"637","region":"24","departement":"37","arrondissement":"372","commune":"37073"},
{"name":"Mesland","latitude":"47.50972","longitude":"1.1225","population":"547","region":"24","departement":"41","arrondissement":"411","commune":"41137"},
{"name":"Couddes","latitude":"47.36333","longitude":"1.40361","population":"514","region":"24","departement":"41","arrondissement":"413","commune":"41062"},
{"name":"Rilly-sur-Loire","latitude":"47.46583","longitude":"1.13472","population":"460","region":"24","departement":"41","arrondissement":"411","commune":"41189"},
{"name":"Seur","latitude":"47.5029","longitude":"1.3346","population":"460","region":"24","departement":"41","arrondissement":"411","commune":"41246"},
{"name":"Épeigné-les-Bois","latitude":"47.2806","longitude":"1.1114","population":"424","region":"24","departement":"37","arrondissement":"372","commune":"37100"},
{"name":"Souvigny-de-Touraine","latitude":"47.41139","longitude":"1.08944","population":"371","region":"24","departement":"37","arrondissement":"372","commune":"37252"},
{"name":"Chenonceaux","latitude":"47.33194","longitude":"1.06833","population":"353","region":"24","departement":"37","arrondissement":"372","commune":"37070"},
{"name":"Oisly","latitude":"47.38944","longitude":"1.37722","population":"338","region":"24","departement":"41","arrondissement":"411","commune":"41166"},
{"name":"Choussy","latitude":"47.37333","longitude":"1.34667","population":"325","region":"24","departement":"41","arrondissement":"413","commune":"41054"},
{"name":"Veuves","latitude":"47.47139","longitude":"1.12472","population":"224","region":"24","departement":"41","arrondissement":"411","commune":"41272"},
{"name":"Valaire","latitude":"47.46972","longitude":"1.26833","population":"79","region":"24","departement":"41","arrondissement":"411","commune":"41266"}
]