[
{"name":"Auxerre","latitude":"47.7975","longitude":"3.56694","population":"36702","region":"27","departement":"89","arrondissement":"891","commune":"89024"},
{"name":"Migennes","latitude":"47.96472","longitude":"3.51667","population":"7360","region":"27","departement":"89","arrondissement":"891","commune":"89257"},
{"name":"Monéteau","latitude":"47.85","longitude":"3.57833","population":"3719","region":"27","departement":"89","arrondissement":"891","commune":"89263"},
{"name":"Saint-Georges-sur-Baulche","latitude":"47.80528","longitude":"3.53306","population":"3502","region":"27","departement":"89","arrondissement":"891","commune":"89346"},
{"name":"Appoigny","latitude":"47.87722","longitude":"3.52806","population":"3141","region":"27","departement":"89","arrondissement":"891","commune":"89013"},
{"name":"Cheny","latitude":"47.95278","longitude":"3.53417","population":"2501","region":"27","departement":"89","arrondissement":"891","commune":"89099"},
{"name":"Chablis","latitude":"47.815","longitude":"3.79694","population":"2383","region":"27","departement":"89","arrondissement":"891","commune":"89068"},
{"name":"Héry","latitude":"47.90111","longitude":"3.62611","population":"1870","region":"27","departement":"89","arrondissement":"891","commune":"89201"},
{"name":"Venoy","latitude":"47.80556","longitude":"3.63694","population":"1738","region":"27","departement":"89","arrondissement":"891","commune":"89438"},
{"name":"Gurgy","latitude":"47.86639","longitude":"3.56028","population":"1642","region":"27","departement":"89","arrondissement":"891","commune":"89198"},
{"name":"Seignelay","latitude":"47.90333","longitude":"3.60167","population":"1593","region":"27","departement":"89","arrondissement":"891","commune":"89382"},
{"name":"Vergigny","latitude":"47.97028","longitude":"3.71917","population":"1534","region":"27","departement":"89","arrondissement":"891","commune":"89439"},
{"name":"Ligny-le-Châtel","latitude":"47.90083","longitude":"3.75667","population":"1334","region":"27","departement":"89","arrondissement":"891","commune":"89227"},
{"name":"Perrigny","latitude":"47.8197","longitude":"3.5387","population":"1145","region":"27","departement":"89","arrondissement":"891","commune":"89295"},
{"name":"Augy","latitude":"47.76667","longitude":"3.61","population":"1061","region":"27","departement":"89","arrondissement":"891","commune":"89023"},
{"name":"Bonnard","latitude":"47.92611","longitude":"3.52278","population":"931","region":"27","departement":"89","arrondissement":"891","commune":"89050"},
{"name":"Chemilly-sur-Yonne","latitude":"47.89861","longitude":"3.56167","population":"897","region":"27","departement":"89","arrondissement":"891","commune":"89096"},
{"name":"Mont-Saint-Sulpice","latitude":"47.95194","longitude":"3.62611","population":"773","region":"27","departement":"89","arrondissement":"891","commune":"89268"},
{"name":"Maligny","latitude":"47.87","longitude":"3.76472","population":"756","region":"27","departement":"89","arrondissement":"891","commune":"89242"},
{"name":"Pontigny","latitude":"47.90694","longitude":"3.71083","population":"724","region":"27","departement":"89","arrondissement":"891","commune":"89307"},
{"name":"Ormoy","latitude":"47.95417","longitude":"3.57278","population":"664","region":"27","departement":"89","arrondissement":"891","commune":"89282"},
{"name":"Montigny-la-Resle","latitude":"47.86583","longitude":"3.68","population":"605","region":"27","departement":"89","arrondissement":"891","commune":"89265"},
{"name":"Beaumont","latitude":"47.91944","longitude":"3.56083","population":"574","region":"27","departement":"89","arrondissement":"891","commune":"89031"},
{"name":"Chéu","latitude":"47.96556","longitude":"3.76556","population":"542","region":"27","departement":"89","arrondissement":"891","commune":"89101"},
{"name":"Beine","latitude":"47.81917","longitude":"3.72139","population":"499","region":"27","departement":"89","arrondissement":"891","commune":"89034"},
{"name":"Jaulges","latitude":"47.9625","longitude":"3.79028","population":"457","region":"27","departement":"89","arrondissement":"891","commune":"89205"},
{"name":"Quenne","latitude":"47.77694","longitude":"3.64972","population":"455","region":"27","departement":"89","arrondissement":"891","commune":"89319"},
{"name":"Hauterive","latitude":"47.92556","longitude":"3.59917","population":"427","region":"27","departement":"89","arrondissement":"891","commune":"89200"},
{"name":"Esnon","latitude":"47.98389","longitude":"3.57583","population":"398","region":"27","departement":"89","arrondissement":"891","commune":"89156"},
{"name":"Carisey","latitude":"47.92333","longitude":"3.84694","population":"375","region":"27","departement":"89","arrondissement":"892","commune":"89062"},
{"name":"Rouvray","latitude":"47.8975","longitude":"3.66833","population":"368","region":"27","departement":"89","arrondissement":"891","commune":"89328"},
{"name":"Chitry","latitude":"47.76194","longitude":"3.69972","population":"353","region":"27","departement":"89","arrondissement":"891","commune":"89108"},
{"name":"Chichée","latitude":"47.79278","longitude":"3.83444","population":"350","region":"27","departement":"89","arrondissement":"891","commune":"89104"},
{"name":"Bleigny-le-Carreau","latitude":"47.83556","longitude":"3.68278","population":"308","region":"27","departement":"89","arrondissement":"891","commune":"89045"},
{"name":"Villiers-Vineux","latitude":"47.94333","longitude":"3.83417","population":"294","region":"27","departement":"89","arrondissement":"892","commune":"89474"},
{"name":"Venouse","latitude":"47.89556","longitude":"3.68278","population":"293","region":"27","departement":"89","arrondissement":"891","commune":"89437"},
{"name":"Varennes","latitude":"47.90556","longitude":"3.78306","population":"289","region":"27","departement":"89","arrondissement":"891","commune":"89430"},
{"name":"Butteaux","latitude":"47.9781","longitude":"3.8105","population":"272","region":"27","departement":"89","arrondissement":"892","commune":"89061"},
{"name":"Percey","latitude":"47.96361","longitude":"3.82528","population":"263","region":"27","departement":"89","arrondissement":"892","commune":"89292"},
{"name":"Courgis","latitude":"47.77417","longitude":"3.75472","population":"260","region":"27","departement":"89","arrondissement":"891","commune":"89123"},
{"name":"Villeneuve-Saint-Salves","latitude":"47.85472","longitude":"3.65083","population":"252","region":"27","departement":"89","arrondissement":"891","commune":"89463"},
{"name":"Méré","latitude":"47.89889","longitude":"3.82278","population":"192","region":"27","departement":"89","arrondissement":"891","commune":"89250"},
{"name":"Fleys","latitude":"47.81472","longitude":"3.86222","population":"182","region":"27","departement":"89","arrondissement":"892","commune":"89168"},
{"name":"Lignorelles","latitude":"47.86306","longitude":"3.7275","population":"179","region":"27","departement":"89","arrondissement":"891","commune":"89226"},
{"name":"Chemilly-sur-Serein","latitude":"47.77139","longitude":"3.86194","population":"173","region":"27","departement":"89","arrondissement":"891","commune":"89095"},
{"name":"Fontenay-près-Chablis","latitude":"47.84722","longitude":"3.81083","population":"134","region":"27","departement":"89","arrondissement":"891","commune":"89175"},
{"name":"Préhy","latitude":"47.75889","longitude":"3.75778","population":"132","region":"27","departement":"89","arrondissement":"891","commune":"89315"},
{"name":"Villy","latitude":"47.86778","longitude":"3.75111","population":"112","region":"27","departement":"89","arrondissement":"891","commune":"89477"},
{"name":"La Chapelle-Vaupelteigne","latitude":"47.84583","longitude":"3.76556","population":"88","region":"27","departement":"89","arrondissement":"891","commune":"89081"}
]