[
{"name":"Lézignan-Corbières","latitude":"43.20056","longitude":"2.75778","population":"10224","region":"76","departement":"11","arrondissement":"113","commune":"11203"},
{"name":"Rieux-Minervois","latitude":"43.28194","longitude":"2.5875","population":"2030","region":"76","departement":"11","arrondissement":"111","commune":"11315"},
{"name":"Olonzac","latitude":"43.2837","longitude":"2.7314","population":"1658","region":"76","departement":"34","arrondissement":"341","commune":"34189"},
{"name":"Capendu","latitude":"43.18389","longitude":"2.55944","population":"1554","region":"76","departement":"11","arrondissement":"111","commune":"11068"},
{"name":"Fabrezan","latitude":"43.13556","longitude":"2.69722","population":"1252","region":"76","departement":"11","arrondissement":"113","commune":"11132"},
{"name":"Azille","latitude":"43.27833","longitude":"2.65917","population":"1164","region":"76","departement":"11","arrondissement":"111","commune":"11022"},
{"name":"La Redorte","latitude":"43.2522","longitude":"2.654","population":"1117","region":"76","departement":"11","arrondissement":"111","commune":"11190"},
{"name":"Ferrals-les-Corbières","latitude":"43.14694","longitude":"2.7275","population":"1106","region":"76","departement":"11","arrondissement":"113","commune":"11140"},
{"name":"Peyriac-Minervois","latitude":"43.29139","longitude":"2.5675","population":"1081","region":"76","departement":"11","arrondissement":"111","commune":"11286"},
{"name":"Puichéric","latitude":"43.22389","longitude":"2.62444","population":"1073","region":"76","departement":"11","arrondissement":"111","commune":"11301"},
{"name":"Laure-Minervois","latitude":"43.27139","longitude":"2.52028","population":"1040","region":"76","departement":"11","arrondissement":"111","commune":"11198"},
{"name":"Pépieux","latitude":"43.29778","longitude":"2.67917","population":"984","region":"76","departement":"11","arrondissement":"111","commune":"11280"},
{"name":"Luc-sur-Orbieu","latitude":"43.17667","longitude":"2.78583","population":"979","region":"76","departement":"11","arrondissement":"113","commune":"11210"},
{"name":"Villeneuve-Minervois","latitude":"43.31472","longitude":"2.46222","population":"969","region":"76","departement":"11","arrondissement":"111","commune":"11433"},
{"name":"Conilhac-Corbières","latitude":"43.18861","longitude":"2.71583","population":"853","region":"76","departement":"11","arrondissement":"113","commune":"11098"},
{"name":"Saint-Laurent-de-la-Cabrerisse","latitude":"43.08528","longitude":"2.70056","population":"749","region":"76","departement":"11","arrondissement":"113","commune":"11351"},
{"name":"Badens","latitude":"43.21889","longitude":"2.50889","population":"748","region":"76","departement":"11","arrondissement":"111","commune":"11023"},
{"name":"Barbaira","latitude":"43.185","longitude":"2.51222","population":"721","region":"76","departement":"11","arrondissement":"111","commune":"11027"},
{"name":"Douzens","latitude":"43.18583","longitude":"2.59722","population":"706","region":"76","departement":"11","arrondissement":"111","commune":"11122"},
{"name":"Boutenac","latitude":"43.1478","longitude":"2.7908","population":"703","region":"76","departement":"11","arrondissement":"113","commune":"11048"},
{"name":"Homps","latitude":"43.2675","longitude":"2.72111","population":"683","region":"76","departement":"11","arrondissement":"113","commune":"11172"},
{"name":"Marseillette","latitude":"43.20278","longitude":"2.54222","population":"682","region":"76","departement":"11","arrondissement":"111","commune":"11220"},
{"name":"Siran","latitude":"43.31333","longitude":"2.66111","population":"671","region":"76","departement":"34","arrondissement":"341","commune":"34302"},
{"name":"Lagrasse","latitude":"43.09083","longitude":"2.62056","population":"598","region":"76","departement":"11","arrondissement":"111","commune":"11185"},
{"name":"Moux","latitude":"43.18056","longitude":"2.65194","population":"572","region":"76","departement":"11","arrondissement":"111","commune":"11261"},
{"name":"Fontcouverte","latitude":"43.16806","longitude":"2.68861","population":"549","region":"76","departement":"11","arrondissement":"113","commune":"11148"},
{"name":"La Livinière","latitude":"43.31583","longitude":"2.63639","population":"544","region":"76","departement":"34","arrondissement":"341","commune":"34141"},
{"name":"Montlaur","latitude":"43.12944","longitude":"2.55778","population":"538","region":"76","departement":"11","arrondissement":"111","commune":"11251"},
{"name":"Thézan-des-Corbières","latitude":"43.1037","longitude":"2.7719","population":"535","region":"76","departement":"11","arrondissement":"113","commune":"11390"},
{"name":"Trausse","latitude":"43.31194","longitude":"2.56167","population":"521","region":"76","departement":"11","arrondissement":"111","commune":"11396"},
{"name":"Aigues-Vives","latitude":"43.23083","longitude":"2.53333","population":"517","region":"76","departement":"11","arrondissement":"111","commune":"11001"},
{"name":"Montséret","latitude":"43.10278","longitude":"2.81083","population":"500","region":"76","departement":"11","arrondissement":"113","commune":"11256"},
{"name":"Tourouzelle","latitude":"43.25333","longitude":"2.72167","population":"481","region":"76","departement":"11","arrondissement":"113","commune":"11393"},
{"name":"Roubia","latitude":"43.2475","longitude":"2.8","population":"466","region":"76","departement":"11","arrondissement":"113","commune":"11324"},
{"name":"Rustiques","latitude":"43.21611","longitude":"2.47306","population":"461","region":"76","departement":"11","arrondissement":"111","commune":"11330"},
{"name":"Castelnau-d'Aude","latitude":"43.23083","longitude":"2.67556","population":"452","region":"76","departement":"11","arrondissement":"113","commune":"11077"},
{"name":"Azillanet","latitude":"43.32417","longitude":"2.7375","population":"415","region":"76","departement":"34","arrondissement":"341","commune":"34020"},
{"name":"Cesseras","latitude":"43.325","longitude":"2.71528","population":"392","region":"76","departement":"34","arrondissement":"341","commune":"34075"},
{"name":"Saint-Couat-d'Aude","latitude":"43.20278","longitude":"2.62944","population":"387","region":"76","departement":"11","arrondissement":"111","commune":"11337"},
{"name":"Argens-Minervois","latitude":"43.2423","longitude":"2.7665","population":"376","region":"76","departement":"11","arrondissement":"113","commune":"11013"},
{"name":"Floure","latitude":"43.18278","longitude":"2.49","population":"366","region":"76","departement":"11","arrondissement":"111","commune":"11146"},
{"name":"Escales","latitude":"43.22361","longitude":"2.69528","population":"362","region":"76","departement":"11","arrondissement":"113","commune":"11126"},
{"name":"Montbrun-des-Corbières","latitude":"43.19889","longitude":"2.68472","population":"318","region":"76","departement":"11","arrondissement":"113","commune":"11241"},
{"name":"Camplong-d'Aude","latitude":"43.12861","longitude":"2.65194","population":"299","region":"76","departement":"11","arrondissement":"113","commune":"11064"},
{"name":"Oupia","latitude":"43.29","longitude":"2.76639","population":"288","region":"76","departement":"34","arrondissement":"341","commune":"34190"},
{"name":"Tournissan","latitude":"43.08167","longitude":"2.66444","population":"272","region":"76","departement":"11","arrondissement":"111","commune":"11392"},
{"name":"Ribaute","latitude":"43.10778","longitude":"2.635","population":"268","region":"76","departement":"11","arrondissement":"111","commune":"11311"},
{"name":"Comigne","latitude":"43.17056","longitude":"2.58139","population":"257","region":"76","departement":"11","arrondissement":"111","commune":"11095"},
{"name":"Saint-Frichoux","latitude":"43.25167","longitude":"2.55222","population":"224","region":"76","departement":"11","arrondissement":"111","commune":"11342"},
{"name":"Serviès-en-Val","latitude":"43.08917","longitude":"2.52","population":"221","region":"76","departement":"11","arrondissement":"111","commune":"11378"},
{"name":"Blomac","latitude":"43.20417","longitude":"2.59639","population":"201","region":"76","departement":"11","arrondissement":"111","commune":"11042"},
{"name":"Pradelles-en-Val","latitude":"43.14556","longitude":"2.51417","population":"198","region":"76","departement":"11","arrondissement":"111","commune":"11298"},
{"name":"Beaufort","latitude":"43.29833","longitude":"2.75806","population":"178","region":"76","departement":"34","arrondissement":"341","commune":"34026"},
{"name":"Roquecourbe-Minervois","latitude":"43.22","longitude":"2.64917","population":"120","region":"76","departement":"11","arrondissement":"111","commune":"11318"},
{"name":"Arquettes-en-Val","latitude":"43.1037","longitude":"2.5028","population":"95","region":"76","departement":"11","arrondissement":"111","commune":"11016"},
{"name":"Rieux-en-Val","latitude":"43.08167","longitude":"2.53083","population":"88","region":"76","departement":"11","arrondissement":"111","commune":"11314"},
{"name":"Labastide-en-Val","latitude":"43.07583","longitude":"2.47389","population":"84","region":"76","departement":"11","arrondissement":"111","commune":"11179"},
{"name":"Taurize","latitude":"43.0767","longitude":"2.5055","population":"74","region":"76","departement":"11","arrondissement":"111","commune":"11387"},
{"name":"Villetritouls","latitude":"43.0812","longitude":"2.4911","population":"40","region":"76","departement":"11","arrondissement":"111","commune":"11440"}
]