[
{"name":"Bapaume","latitude":"50.1039","longitude":"2.852","population":"4106","region":"32","departement":"62","arrondissement":"621","commune":"62080"},
{"name":"Arleux","latitude":"50.28028","longitude":"3.10639","population":"2776","region":"32","departement":"59","arrondissement":"593","commune":"59015"},
{"name":"Écourt-Saint-Quentin","latitude":"50.25056","longitude":"3.07111","population":"1749","region":"32","departement":"62","arrondissement":"621","commune":"62284"},
{"name":"Fontaine-Notre-Dame","latitude":"50.16694","longitude":"3.15972","population":"1690","region":"32","departement":"59","arrondissement":"592","commune":"59244"},
{"name":"Lécluse","latitude":"50.2767","longitude":"3.0419","population":"1483","region":"32","departement":"59","arrondissement":"593","commune":"59336"},
{"name":"Croisilles","latitude":"50.2002","longitude":"2.8808","population":"1378","region":"32","departement":"62","arrondissement":"621","commune":"62259"},
{"name":"Tilloy-lès-Mofflaines","latitude":"50.2767","longitude":"2.8169","population":"1370","region":"32","departement":"62","arrondissement":"621","commune":"62817"},
{"name":"Oisy-le-Verger","latitude":"50.25028","longitude":"3.12389","population":"1281","region":"32","departement":"62","arrondissement":"621","commune":"62638"},
{"name":"Bourlon","latitude":"50.1777","longitude":"3.1175","population":"1203","region":"32","departement":"62","arrondissement":"621","commune":"62164"},
{"name":"Hermies","latitude":"50.11194","longitude":"3.03778","population":"1168","region":"32","departement":"62","arrondissement":"621","commune":"62440"},
{"name":"Vaulx-Vraucourt","latitude":"50.1462","longitude":"2.9096","population":"1070","region":"32","departement":"62","arrondissement":"621","commune":"62839"},
{"name":"Bertincourt","latitude":"50.08556","longitude":"2.98028","population":"946","region":"32","departement":"62","arrondissement":"621","commune":"62117"},
{"name":"Marquion","latitude":"50.211","longitude":"3.0869","population":"944","region":"32","departement":"62","arrondissement":"621","commune":"62559"},
{"name":"Hamel","latitude":"50.28","longitude":"3.07389","population":"753","region":"32","departement":"59","arrondissement":"593","commune":"59280"},
{"name":"Sailly-en-Ostrevent","latitude":"50.28889","longitude":"2.99389","population":"706","region":"32","departement":"62","arrondissement":"621","commune":"62734"},
{"name":"Rumaucourt","latitude":"50.24222","longitude":"3.05944","population":"698","region":"32","departement":"62","arrondissement":"621","commune":"62728"},
{"name":"Wancourt","latitude":"50.24778","longitude":"2.87056","population":"650","region":"32","departement":"62","arrondissement":"621","commune":"62873"},
{"name":"Vis-en-Artois","latitude":"50.24722","longitude":"2.94","population":"642","region":"32","departement":"62","arrondissement":"621","commune":"62864"},
{"name":"Metz-en-Couture","latitude":"50.0679","longitude":"3.0644","population":"631","region":"32","departement":"62","arrondissement":"621","commune":"62572"},
{"name":"Graincourt-lès-Havrincourt","latitude":"50.14472","longitude":"3.10944","population":"622","region":"32","departement":"62","arrondissement":"621","commune":"62384"},
{"name":"Monchy-le-Preux","latitude":"50.27053","longitude":"2.89318","population":"612","region":"32","departement":"62","arrondissement":"621","commune":"62582"},
{"name":"Quéant","latitude":"50.17917","longitude":"2.98333","population":"608","region":"32","departement":"62","arrondissement":"621","commune":"62673"},
{"name":"Brunémont","latitude":"50.27306","longitude":"3.13917","population":"593","region":"32","departement":"59","arrondissement":"593","commune":"59115"},
{"name":"Inchy-en-Artois","latitude":"50.1795","longitude":"3.0527","population":"587","region":"32","departement":"62","arrondissement":"621","commune":"62469"},
{"name":"Haynecourt","latitude":"50.21167","longitude":"3.16139","population":"579","region":"32","departement":"59","arrondissement":"592","commune":"59294"},
{"name":"Palluel","latitude":"50.26722","longitude":"3.09861","population":"565","region":"32","departement":"62","arrondissement":"621","commune":"62646"},
{"name":"Ligny-Thilloy","latitude":"50.08444","longitude":"2.82528","population":"564","region":"32","departement":"62","arrondissement":"621","commune":"62515"},
{"name":"Beaumetz-lès-Cambrai","latitude":"50.12167","longitude":"2.98417","population":"561","region":"32","departement":"62","arrondissement":"621","commune":"62096"},
{"name":"Épinoy","latitude":"50.2299","longitude":"3.1634","population":"518","region":"32","departement":"62","arrondissement":"621","commune":"62298"},
{"name":"Écoust-Saint-Mein","latitude":"50.18194","longitude":"2.91028","population":"494","region":"32","departement":"62","arrondissement":"621","commune":"62285"},
{"name":"Neuville-Vitasse","latitude":"50.24722","longitude":"2.82028","population":"486","region":"32","departement":"62","arrondissement":"621","commune":"62611"},
{"name":"Baralle","latitude":"50.21167","longitude":"3.05806","population":"485","region":"32","departement":"62","arrondissement":"621","commune":"62081"},
{"name":"Aubencheul-au-Bac","latitude":"50.25667","longitude":"3.15972","population":"478","region":"32","departement":"59","arrondissement":"592","commune":"59023"},
{"name":"Hénin-sur-Cojeul","latitude":"50.22472","longitude":"2.83444","population":"471","region":"32","departement":"62","arrondissement":"621","commune":"62428"},
{"name":"Mœuvres","latitude":"50.1633","longitude":"3.0653","population":"463","region":"32","departement":"59","arrondissement":"592","commune":"59405"},
{"name":"Sauchy-Lestrée","latitude":"50.22722","longitude":"3.10333","population":"456","region":"32","departement":"62","arrondissement":"621","commune":"62781"},
{"name":"Boiry-Notre-Dame","latitude":"50.27306","longitude":"2.94389","population":"455","region":"32","departement":"62","arrondissement":"621","commune":"62145"},
{"name":"Étaing","latitude":"50.27361","longitude":"2.99972","population":"441","region":"32","departement":"62","arrondissement":"621","commune":"62317"},
{"name":"Saudemont","latitude":"50.24417","longitude":"3.04","population":"439","region":"32","departement":"62","arrondissement":"621","commune":"62782"},
{"name":"Ytres","latitude":"50.0652","longitude":"2.9933","population":"433","region":"32","departement":"62","arrondissement":"621","commune":"62909"},
{"name":"Cantaing-sur-Escaut","latitude":"50.14861","longitude":"3.16361","population":"433","region":"32","departement":"59","arrondissement":"592","commune":"59125"},
{"name":"Cagnicourt","latitude":"50.2119","longitude":"2.9978","population":"423","region":"32","departement":"62","arrondissement":"621","commune":"62192"},
{"name":"Villers-Plouich","latitude":"50.07889","longitude":"3.13417","population":"414","region":"32","departement":"59","arrondissement":"592","commune":"59625"},
{"name":"Boiry-Becquerelle","latitude":"50.21361","longitude":"2.81528","population":"406","region":"32","departement":"62","arrondissement":"621","commune":"62144"},
{"name":"Saint-Léger","latitude":"50.1867","longitude":"2.8583","population":"399","region":"32","departement":"62","arrondissement":"621","commune":"62754"},
{"name":"Sauchy-Cauchy","latitude":"50.23556","longitude":"3.09778","population":"398","region":"32","departement":"62","arrondissement":"621","commune":"62780"},
{"name":"Ervillers","latitude":"50.16111","longitude":"2.82361","population":"397","region":"32","departement":"62","arrondissement":"621","commune":"62306"},
{"name":"Ribécourt-la-Tour","latitude":"50.1111","longitude":"3.1301","population":"375","region":"32","departement":"59","arrondissement":"592","commune":"59500"},
{"name":"Havrincourt","latitude":"50.1111","longitude":"3.0869","population":"373","region":"32","departement":"62","arrondissement":"621","commune":"62421"},
{"name":"Beugny","latitude":"50.12","longitude":"2.93417","population":"362","region":"32","departement":"62","arrondissement":"621","commune":"62122"},
{"name":"Guémappe","latitude":"50.25389","longitude":"2.88917","population":"359","region":"32","departement":"62","arrondissement":"621","commune":"62392"},
{"name":"Dury","latitude":"50.24694","longitude":"3.00806","population":"341","region":"32","departement":"62","arrondissement":"621","commune":"62280"},
{"name":"Mory","latitude":"50.15611","longitude":"2.8525","population":"341","region":"32","departement":"62","arrondissement":"621","commune":"62594"},
{"name":"Sains-lès-Marquion","latitude":"50.19417","longitude":"3.07278","population":"340","region":"32","departement":"62","arrondissement":"621","commune":"62739"},
{"name":"Boursies","latitude":"50.14","longitude":"3.03306","population":"339","region":"32","departement":"59","arrondissement":"592","commune":"59097"},
{"name":"Lagnicourt-Marcel","latitude":"50.15778","longitude":"2.95611","population":"336","region":"32","departement":"62","arrondissement":"621","commune":"62484"},
{"name":"Hendecourt-lès-Cagnicourt","latitude":"50.21","longitude":"2.94833","population":"329","region":"32","departement":"62","arrondissement":"621","commune":"62424"},
{"name":"Pronville","latitude":"50.17444","longitude":"3.00278","population":"318","region":"32","departement":"62","arrondissement":"621","commune":"62671"},
{"name":"Frémicourt","latitude":"50.11111","longitude":"2.90222","population":"299","region":"32","departement":"62","arrondissement":"621","commune":"62353"},
{"name":"Riencourt-lès-Cagnicourt","latitude":"50.19917","longitude":"2.95778","population":"284","region":"32","departement":"62","arrondissement":"621","commune":"62709"},
{"name":"Fontaine-lès-Croisilles","latitude":"50.21861","longitude":"2.90861","population":"281","region":"32","departement":"62","arrondissement":"621","commune":"62343"},
{"name":"Doignies","latitude":"50.1291","longitude":"3.0149","population":"279","region":"32","departement":"59","arrondissement":"592","commune":"59176"},
{"name":"Flesquières","latitude":"50.12389","longitude":"3.11667","population":"278","region":"32","departement":"59","arrondissement":"592","commune":"59236"},
{"name":"Chérisy","latitude":"50.23417","longitude":"2.91194","population":"278","region":"32","departement":"62","arrondissement":"621","commune":"62223"},
{"name":"Ruyaulcourt","latitude":"50.0832","longitude":"3.014","population":"271","region":"32","departement":"62","arrondissement":"621","commune":"62731"},
{"name":"Rémy","latitude":"50.2533","longitude":"2.9564","population":"270","region":"32","departement":"62","arrondissement":"621","commune":"62703"},
{"name":"Boyelles","latitude":"50.20333","longitude":"2.81528","population":"254","region":"32","departement":"62","arrondissement":"621","commune":"62172"},
{"name":"Favreuil","latitude":"50.12417","longitude":"2.85694","population":"252","region":"32","departement":"62","arrondissement":"621","commune":"62326"},
{"name":"Villers-lès-Cagnicourt","latitude":"50.2227","longitude":"3.0104","population":"250","region":"32","departement":"62","arrondissement":"621","commune":"62858"},
{"name":"Barastre","latitude":"50.0769","longitude":"2.933","population":"249","region":"32","departement":"62","arrondissement":"621","commune":"62082"},
{"name":"Lebucquière","latitude":"50.1125","longitude":"2.96611","population":"245","region":"32","departement":"62","arrondissement":"621","commune":"62493"},
{"name":"Haucourt","latitude":"50.2479","longitude":"2.9537","population":"244","region":"32","departement":"62","arrondissement":"621","commune":"62414"},
{"name":"Bullecourt","latitude":"50.19222","longitude":"2.92778","population":"243","region":"32","departement":"62","arrondissement":"621","commune":"62185"},
{"name":"Buissy","latitude":"50.20639","longitude":"3.04111","population":"242","region":"32","departement":"62","arrondissement":"621","commune":"62184"},
{"name":"Anneux","latitude":"50.15417","longitude":"3.12583","population":"241","region":"32","departement":"59","arrondissement":"592","commune":"59010"},
{"name":"Récourt","latitude":"50.25333","longitude":"3.03556","population":"227","region":"32","departement":"62","arrondissement":"621","commune":"62697"},
{"name":"Éterpigny","latitude":"50.25806","longitude":"2.97972","population":"226","region":"32","departement":"62","arrondissement":"621","commune":"62319"},
{"name":"Beaulencourt","latitude":"50.076","longitude":"2.879","population":"221","region":"32","departement":"62","arrondissement":"621","commune":"62093"},
{"name":"Saint-Martin-sur-Cojeul","latitude":"50.23167","longitude":"2.8425","population":"208","region":"32","departement":"62","arrondissement":"621","commune":"62761"},
{"name":"Villers-au-Flos","latitude":"50.08111","longitude":"2.90333","population":"207","region":"32","departement":"62","arrondissement":"621","commune":"62855"},
{"name":"Héninel","latitude":"50.23806","longitude":"2.86361","population":"206","region":"32","departement":"62","arrondissement":"621","commune":"62426"},
{"name":"Haplincourt","latitude":"50.09","longitude":"2.93139","population":"193","region":"32","departement":"62","arrondissement":"621","commune":"62410"},
{"name":"Trescault","latitude":"50.09028","longitude":"3.09222","population":"189","region":"32","departement":"62","arrondissement":"621","commune":"62830"},
{"name":"Sapignies","latitude":"50.13417","longitude":"2.83472","population":"179","region":"32","departement":"62","arrondissement":"621","commune":"62776"},
{"name":"Morchies","latitude":"50.13833","longitude":"2.95528","population":"177","region":"32","departement":"62","arrondissement":"621","commune":"62591"},
{"name":"Neuville-Bourjonval","latitude":"50.0688","longitude":"3.0221","population":"168","region":"32","departement":"62","arrondissement":"621","commune":"62608"},
{"name":"Avesnes-lès-Bapaume","latitude":"50.10472","longitude":"2.84056","population":"136","region":"32","departement":"62","arrondissement":"621","commune":"62064"},
{"name":"Beugnâtre","latitude":"50.13","longitude":"2.8763","population":"135","region":"32","departement":"62","arrondissement":"621","commune":"62121"},
{"name":"Noreuil","latitude":"50.17056","longitude":"2.93444","population":"135","region":"32","departement":"62","arrondissement":"621","commune":"62619"},
{"name":"Béhagnies","latitude":"50.14056","longitude":"2.82972","population":"132","region":"32","departement":"62","arrondissement":"621","commune":"62103"},
{"name":"Vélu","latitude":"50.10639","longitude":"2.9725","population":"125","region":"32","departement":"62","arrondissement":"621","commune":"62840"},
{"name":"Bus","latitude":"50.0652","longitude":"2.9654","population":"116","region":"32","departement":"62","arrondissement":"621","commune":"62189"},
{"name":"Biefvillers-lès-Bapaume","latitude":"50.11528","longitude":"2.82361","population":"111","region":"32","departement":"62","arrondissement":"621","commune":"62129"},
{"name":"Bancourt","latitude":"50.10083","longitude":"2.88806","population":"74","region":"32","departement":"62","arrondissement":"621","commune":"62079"},
{"name":"Riencourt-lès-Bapaume","latitude":"50.08833","longitude":"2.88167","population":"35","region":"32","departement":"62","arrondissement":"621","commune":"62708"}
]