[
{"name":"Millau","latitude":"44.09778","longitude":"3.07778","population":"22013","region":"76","departement":"12","arrondissement":"121","commune":"12145"},
{"name":"Sévérac d'Aveyron","latitude":"44.32167","longitude":"3.07139","population":"2438","region":"76","departement":"12","arrondissement":"121","commune":"12270"},
{"name":"Rivière-sur-Tarn","latitude":"44.18833","longitude":"3.13083","population":"1042","region":"76","departement":"12","arrondissement":"121","commune":"12200"},
{"name":"Aguessac","latitude":"44.15667","longitude":"3.09833","population":"849","region":"76","departement":"12","arrondissement":"121","commune":"12002"},
{"name":"Vézins-de-Lévézou","latitude":"44.27917","longitude":"2.95278","population":"657","region":"76","departement":"12","arrondissement":"121","commune":"12294"},
{"name":"Ségur","latitude":"44.2925","longitude":"2.83472","population":"582","region":"76","departement":"12","arrondissement":"121","commune":"12266"},
{"name":"Compeyre","latitude":"44.16111","longitude":"3.10167","population":"522","region":"76","departement":"12","arrondissement":"121","commune":"12070"},
{"name":"Saint-Beauzély","latitude":"44.16528","longitude":"2.95806","population":"517","region":"76","departement":"12","arrondissement":"121","commune":"12213"},
{"name":"Verrières","latitude":"44.2017","longitude":"3.059","population":"411","region":"76","departement":"12","arrondissement":"121","commune":"12291"},
{"name":"Montjaux","latitude":"44.1025","longitude":"2.90556","population":"391","region":"76","departement":"12","arrondissement":"121","commune":"12153"},
{"name":"Saint-Léons","latitude":"44.21556","longitude":"2.98583","population":"355","region":"76","departement":"12","arrondissement":"121","commune":"12238"},
{"name":"Paulhe","latitude":"44.15222","longitude":"3.10361","population":"342","region":"76","departement":"12","arrondissement":"121","commune":"12178"},
{"name":"La Cresse","latitude":"44.1775","longitude":"3.12972","population":"326","region":"76","departement":"12","arrondissement":"121","commune":"12086"},
{"name":"Castelnau-Pégayrols","latitude":"44.12972","longitude":"2.93361","population":"323","region":"76","departement":"12","arrondissement":"121","commune":"12062"},
{"name":"Curan","latitude":"44.2","longitude":"2.85417","population":"307","region":"76","departement":"12","arrondissement":"121","commune":"12307"},
{"name":"Saint-Laurent-de-Lévézou","latitude":"44.20778","longitude":"2.95861","population":"156","region":"76","departement":"12","arrondissement":"121","commune":"12236"},
{"name":"Le Recoux","latitude":"44.33778","longitude":"3.14722","population":"123","region":"76","departement":"48","arrondissement":"481","commune":"48125"}
]