[
{"name":"Laguiole","latitude":"44.68417","longitude":"2.84722","population":"1267","region":"76","departement":"12","arrondissement":"122","commune":"12119"},
{"name":"Saint-Chély-d'Aubrac","latitude":"44.59056","longitude":"2.92111","population":"551","region":"76","departement":"12","arrondissement":"122","commune":"12214"},
{"name":"Nasbinals","latitude":"44.66222","longitude":"3.04639","population":"498","region":"76","departement":"48","arrondissement":"482","commune":"48104"},
{"name":"Saint-Urcize","latitude":"44.6967","longitude":"3.005","population":"482","region":"84","departement":"15","arrondissement":"153","commune":"15216"},
{"name":"Fournels","latitude":"44.81639","longitude":"3.12083","population":"361","region":"76","departement":"48","arrondissement":"482","commune":"48064"},
{"name":"Cantoin","latitude":"44.83611","longitude":"2.8125","population":"322","region":"76","departement":"12","arrondissement":"122","commune":"12051"},
{"name":"Condom-d'Aubrac","latitude":"44.604","longitude":"2.8664","population":"317","region":"76","departement":"12","arrondissement":"122","commune":"12074"},
{"name":"Curières","latitude":"44.65278","longitude":"2.86583","population":"244","region":"76","departement":"12","arrondissement":"122","commune":"12088"},
{"name":"Recoules-d'Aubrac","latitude":"44.69194","longitude":"3.02389","population":"237","region":"76","departement":"48","arrondissement":"482","commune":"48123"},
{"name":"Lieutadès","latitude":"44.83972","longitude":"2.89889","population":"209","region":"84","departement":"15","arrondissement":"153","commune":"15106"},
{"name":"La Fage-Montivernoux","latitude":"44.75806","longitude":"3.1525","population":"172","region":"76","departement":"48","arrondissement":"482","commune":"48058"},
{"name":"Jabrun","latitude":"44.80778","longitude":"2.96111","population":"150","region":"84","departement":"15","arrondissement":"153","commune":"15078"},
{"name":"Malbouzon","latitude":"44.70111","longitude":"3.135","population":"149","region":"76","departement":"48","arrondissement":"482","commune":"48087"},
{"name":"Cassuéjouls","latitude":"44.72639","longitude":"2.8175","population":"135","region":"76","departement":"12","arrondissement":"122","commune":"12058"},
{"name":"Anterrieux","latitude":"44.83556","longitude":"3.04389","population":"127","region":"84","departement":"15","arrondissement":"153","commune":"15007"},
{"name":"Saint-Rémy-de-Chaudes-Aigues","latitude":"44.77528","longitude":"3.03083","population":"112","region":"84","departement":"15","arrondissement":"153","commune":"15209"},
{"name":"Brion","latitude":"44.75444","longitude":"3.07083","population":"99","region":"76","departement":"48","arrondissement":"482","commune":"48031"},
{"name":"Noalhac","latitude":"44.81139","longitude":"3.10667","population":"99","region":"76","departement":"48","arrondissement":"482","commune":"48106"},
{"name":"Chauchailles","latitude":"44.7957","longitude":"3.0842","population":"96","region":"76","departement":"48","arrondissement":"482","commune":"48044"},
{"name":"Marchastel","latitude":"44.65111","longitude":"3.10694","population":"80","region":"76","departement":"48","arrondissement":"482","commune":"48091"},
{"name":"Grandvals","latitude":"44.73972","longitude":"3.03694","population":"78","region":"76","departement":"48","arrondissement":"482","commune":"48071"},
{"name":"Saint-Juéry","latitude":"44.8275","longitude":"3.08583","population":"69","region":"76","departement":"48","arrondissement":"482","commune":"48161"},
{"name":"Deux-Verges","latitude":"44.80667","longitude":"3.02361","population":"57","region":"84","departement":"15","arrondissement":"153","commune":"15060"},
{"name":"Saint-Laurent-de-Veyrès","latitude":"44.77083","longitude":"3.12861","population":"43","region":"76","departement":"48","arrondissement":"482","commune":"48167"},
{"name":"La Trinitat","latitude":"44.7489","longitude":"2.942","population":"43","region":"84","departement":"15","arrondissement":"153","commune":"15241"}
]