[
{"name":"Châteaubriant","latitude":"47.71694","longitude":"-1.37611","population":"12077","region":"52","departement":"44","arrondissement":"441","commune":"44036"},
{"name":"Pouancé","latitude":"47.74056","longitude":"-1.17639","population":"3140","region":"52","departement":"49","arrondissement":"494","commune":"49248"},
{"name":"Erbray","latitude":"47.65583","longitude":"-1.31778","population":"2862","region":"52","departement":"44","arrondissement":"441","commune":"44054"},
{"name":"Saint-Mars-la-Jaille","latitude":"47.52528","longitude":"-1.18472","population":"2429","region":"52","departement":"44","arrondissement":"444","commune":"44180"},
{"name":"Riaillé","latitude":"47.51889","longitude":"-1.29556","population":"2078","region":"52","departement":"44","arrondissement":"444","commune":"44144"},
{"name":"Soudan","latitude":"47.7375","longitude":"-1.30472","population":"2026","region":"52","departement":"44","arrondissement":"441","commune":"44199"},
{"name":"Moisdon-la-Rivière","latitude":"47.62139","longitude":"-1.37222","population":"1932","region":"52","departement":"44","arrondissement":"441","commune":"44099"},
{"name":"La Meilleraye-de-Bretagne","latitude":"47.55972","longitude":"-1.40139","population":"1307","region":"52","departement":"44","arrondissement":"441","commune":"44095"},
{"name":"Freigné","latitude":"47.54861","longitude":"-1.12222","population":"1164","region":"52","departement":"49","arrondissement":"494","commune":"49144"},
{"name":"Saint-Julien-de-Vouvantes","latitude":"47.64167","longitude":"-1.23889","population":"925","region":"52","departement":"44","arrondissement":"441","commune":"44170"},
{"name":"Chazé-Henry","latitude":"47.75278","longitude":"-1.10972","population":"873","region":"52","departement":"49","arrondissement":"494","commune":"49088"},
{"name":"La Chapelle-Glain","latitude":"47.62306","longitude":"-1.19694","population":"820","region":"52","departement":"44","arrondissement":"441","commune":"44031"},
{"name":"Grand-Auverné","latitude":"47.59139","longitude":"-1.33056","population":"782","region":"52","departement":"44","arrondissement":"441","commune":"44065"},
{"name":"Vritz","latitude":"47.58167","longitude":"-1.06972","population":"732","region":"52","departement":"44","arrondissement":"444","commune":"44219"},
{"name":"Le Pin","latitude":"47.58909","longitude":"-1.15356","population":"700","region":"52","departement":"44","arrondissement":"444","commune":"44124"},
{"name":"Saint-Sulpice-des-Landes","latitude":"47.5749","longitude":"-1.2052","population":"636","region":"52","departement":"44","arrondissement":"444","commune":"44191"},
{"name":"Bonnœuvre","latitude":"47.5275","longitude":"-1.23611","population":"560","region":"52","departement":"44","arrondissement":"444","commune":"44017"},
{"name":"Petit-Auverné","latitude":"47.61","longitude":"-1.29056","population":"433","region":"52","departement":"44","arrondissement":"441","commune":"44121"},
{"name":"Noëllet","latitude":"47.69361","longitude":"-1.09167","population":"421","region":"52","departement":"49","arrondissement":"494","commune":"49226"},
{"name":"Saint-Michel-et-Chanveaux","latitude":"47.68028","longitude":"-1.13056","population":"354","region":"52","departement":"49","arrondissement":"494","commune":"49309"},
{"name":"Juigné-des-Moutiers","latitude":"47.67889","longitude":"-1.18528","population":"340","region":"52","departement":"44","arrondissement":"441","commune":"44078"},
{"name":"Vergonnes","latitude":"47.72528","longitude":"-1.08556","population":"325","region":"52","departement":"49","arrondissement":"494","commune":"49366"},
{"name":"Armaillé","latitude":"47.71417","longitude":"-1.12889","population":"285","region":"52","departement":"49","arrondissement":"494","commune":"49010"},
{"name":"La Prévière","latitude":"47.7175","longitude":"-1.17778","population":"255","region":"52","departement":"49","arrondissement":"494","commune":"49250"},
{"name":"Carbay","latitude":"47.7325","longitude":"-1.21917","population":"246","region":"52","departement":"49","arrondissement":"494","commune":"49056"}
]