[
{"name":"Albert","latitude":"50.00194","longitude":"2.65222","population":"9959","region":"32","departement":"80","arrondissement":"804","commune":"80016"},
{"name":"Corbie","latitude":"49.90889","longitude":"2.50722","population":"6370","region":"32","departement":"80","arrondissement":"802","commune":"80212"},
{"name":"Villers-Bretonneux","latitude":"49.86694","longitude":"2.52","population":"4176","region":"32","departement":"80","arrondissement":"802","commune":"80799"},
{"name":"Fouilloy","latitude":"49.89944","longitude":"2.50361","population":"1858","region":"32","departement":"80","arrondissement":"802","commune":"80338"},
{"name":"Harbonnières","latitude":"49.84889","longitude":"2.66972","population":"1480","region":"32","departement":"80","arrondissement":"803","commune":"80417"},
{"name":"Méaulte","latitude":"49.98167","longitude":"2.66","population":"1316","region":"32","departement":"80","arrondissement":"804","commune":"80523"},
{"name":"Bray-sur-Somme","latitude":"49.94028","longitude":"2.7175","population":"1245","region":"32","departement":"80","arrondissement":"804","commune":"80136"},
{"name":"Marcelcave","latitude":"49.85","longitude":"2.57444","population":"1067","region":"32","departement":"80","arrondissement":"802","commune":"80507"},
{"name":"Warloy-Baillon","latitude":"50.01","longitude":"2.52361","population":"784","region":"32","departement":"80","arrondissement":"802","commune":"80820"},
{"name":"Ribemont-sur-Ancre","latitude":"49.9599","longitude":"2.5667","population":"630","region":"32","departement":"80","arrondissement":"802","commune":"80672"},
{"name":"Dompierre-Becquincourt","latitude":"49.9077","longitude":"2.8061","population":"626","region":"32","departement":"80","arrondissement":"804","commune":"80247"},
{"name":"Proyart","latitude":"49.88694","longitude":"2.70722","population":"622","region":"32","departement":"80","arrondissement":"804","commune":"80644"},
{"name":"Lamotte-Warfusée","latitude":"49.8717","longitude":"2.5964","population":"614","region":"32","departement":"80","arrondissement":"802","commune":"80463"},
{"name":"Méricourt-l'Abbé","latitude":"49.95194","longitude":"2.56528","population":"571","region":"32","departement":"80","arrondissement":"804","commune":"80530"},
{"name":"Cappy","latitude":"49.9284","longitude":"2.7584","population":"545","region":"32","departement":"80","arrondissement":"804","commune":"80172"},
{"name":"Bouzincourt","latitude":"50.02639","longitude":"2.61167","population":"534","region":"32","departement":"80","arrondissement":"804","commune":"80129"},
{"name":"Aubigny","latitude":"49.90056","longitude":"2.48222","population":"520","region":"32","departement":"80","arrondissement":"802","commune":"80036"},
{"name":"Le Hamel","latitude":"49.8996","longitude":"2.5712","population":"516","region":"32","departement":"80","arrondissement":"802","commune":"80411"},
{"name":"Toutencourt","latitude":"50.03556","longitude":"2.46111","population":"508","region":"32","departement":"80","arrondissement":"802","commune":"80766"},
{"name":"Fricourt","latitude":"49.99806","longitude":"2.715","population":"505","region":"32","departement":"80","arrondissement":"804","commune":"80366"},
{"name":"Aveluy","latitude":"50.02333","longitude":"2.65806","population":"503","region":"32","departement":"80","arrondissement":"804","commune":"80047"},
{"name":"Franvillers","latitude":"49.96611","longitude":"2.50722","population":"502","region":"32","departement":"80","arrondissement":"802","commune":"80350"},
{"name":"Cerisy","latitude":"49.9068","longitude":"2.6396","population":"479","region":"32","departement":"80","arrondissement":"804","commune":"80184"},
{"name":"Hamelet","latitude":"49.90528","longitude":"2.52861","population":"473","region":"32","departement":"80","arrondissement":"802","commune":"80412"},
{"name":"Framerville-Rainecourt","latitude":"49.8609","longitude":"2.7134","population":"443","region":"32","departement":"80","arrondissement":"804","commune":"80342"},
{"name":"Dernancourt","latitude":"49.97417","longitude":"2.63083","population":"443","region":"32","departement":"80","arrondissement":"804","commune":"80238"},
{"name":"Ovillers-la-Boisselle","latitude":"50.03139","longitude":"2.69778","population":"402","region":"32","departement":"80","arrondissement":"804","commune":"80615"},
{"name":"Heilly","latitude":"49.95389","longitude":"2.53694","population":"387","region":"32","departement":"80","arrondissement":"802","commune":"80426"},
{"name":"Guillaucourt","latitude":"49.84194","longitude":"2.63111","population":"385","region":"32","departement":"80","arrondissement":"803","commune":"80400"},
{"name":"Contay","latitude":"50.00444","longitude":"2.47639","population":"370","region":"32","departement":"80","arrondissement":"802","commune":"80207"},
{"name":"Morlancourt","latitude":"49.95083","longitude":"2.62889","population":"366","region":"32","departement":"80","arrondissement":"804","commune":"80572"},
{"name":"Sailly-le-Sec","latitude":"49.92056","longitude":"2.5825","population":"366","region":"32","departement":"80","arrondissement":"804","commune":"80694"},
{"name":"Bayonvillers","latitude":"49.86139","longitude":"2.62694","population":"356","region":"32","departement":"80","arrondissement":"803","commune":"80058"},
{"name":"Lahoussoye","latitude":"49.95167","longitude":"2.48167","population":"354","region":"32","departement":"80","arrondissement":"802","commune":"80458"},
{"name":"Buire-sur-l'Ancre","latitude":"49.965","longitude":"2.59222","population":"329","region":"32","departement":"80","arrondissement":"804","commune":"80151"},
{"name":"Étinehem","latitude":"49.92806","longitude":"2.68972","population":"327","region":"32","departement":"80","arrondissement":"804","commune":"80295"},
{"name":"Vaux-sur-Somme","latitude":"49.92139","longitude":"2.55056","population":"315","region":"32","departement":"80","arrondissement":"802","commune":"80784"},
{"name":"Sailly-Laurette","latitude":"49.91194","longitude":"2.60667","population":"309","region":"32","departement":"80","arrondissement":"804","commune":"80693"},
{"name":"Senlis-le-Sec","latitude":"50.02528","longitude":"2.57833","population":"284","region":"32","departement":"80","arrondissement":"802","commune":"80733"},
{"name":"Longueval","latitude":"50.0256","longitude":"2.8043","population":"283","region":"32","departement":"80","arrondissement":"804","commune":"80490"},
{"name":"Ville-sur-Ancre","latitude":"49.9626","longitude":"2.6126","population":"282","region":"32","departement":"80","arrondissement":"804","commune":"80807"},
{"name":"Foucaucourt-en-Santerre","latitude":"49.87472","longitude":"2.77528","population":"280","region":"32","departement":"80","arrondissement":"804","commune":"80335"},
{"name":"Vauvillers","latitude":"49.84889","longitude":"2.70417","population":"278","region":"32","departement":"80","arrondissement":"804","commune":"80781"},
{"name":"Morcourt","latitude":"49.89194","longitude":"2.65139","population":"276","region":"32","departement":"80","arrondissement":"804","commune":"80569"},
{"name":"La Neuville-lès-Bray","latitude":"49.93306","longitude":"2.71806","population":"271","region":"32","departement":"80","arrondissement":"804","commune":"80593"},
{"name":"Vaire-sous-Corbie","latitude":"49.91611","longitude":"2.54528","population":"265","region":"32","departement":"80","arrondissement":"802","commune":"80774"},
{"name":"Wiencourt-l'Équipée","latitude":"49.84528","longitude":"2.61111","population":"255","region":"32","departement":"80","arrondissement":"803","commune":"80824"},
{"name":"Cachy","latitude":"49.85222","longitude":"2.48","population":"250","region":"32","departement":"80","arrondissement":"802","commune":"80159"},
{"name":"Treux","latitude":"49.95778","longitude":"2.59139","population":"248","region":"32","departement":"80","arrondissement":"804","commune":"80769"},
{"name":"Pozières","latitude":"50.04083","longitude":"2.72278","population":"247","region":"32","departement":"80","arrondissement":"804","commune":"80640"},
{"name":"Englebelmer","latitude":"50.0607","longitude":"2.6099","population":"247","region":"32","departement":"80","arrondissement":"802","commune":"80266"},
{"name":"Bonnay","latitude":"49.93556","longitude":"2.51111","population":"245","region":"32","departement":"80","arrondissement":"802","commune":"80112"},
{"name":"Mesnil-Martinsart","latitude":"50.05361","longitude":"2.64833","population":"235","region":"32","departement":"80","arrondissement":"804","commune":"80540"},
{"name":"Millencourt","latitude":"50.00139","longitude":"2.58639","population":"232","region":"32","departement":"80","arrondissement":"804","commune":"80547"},
{"name":"Baizieux","latitude":"49.99306","longitude":"2.51889","population":"222","region":"32","departement":"80","arrondissement":"802","commune":"80052"},
{"name":"Montauban-de-Picardie","latitude":"50.00667","longitude":"2.77917","population":"210","region":"32","departement":"80","arrondissement":"804","commune":"80560"},
{"name":"Varennes","latitude":"50.05","longitude":"2.53333","population":"206","region":"32","departement":"80","arrondissement":"802","commune":"80776"},
{"name":"Martinpuich","latitude":"50.0499","longitude":"2.7656","population":"196","region":"32","departement":"62","arrondissement":"621","commune":"62561"},
{"name":"Suzanne","latitude":"49.95","longitude":"2.76667","population":"194","region":"32","departement":"80","arrondissement":"804","commune":"80743"},
{"name":"Chipilly","latitude":"49.90889","longitude":"2.64972","population":"189","region":"32","departement":"80","arrondissement":"804","commune":"80192"},
{"name":"Soyécourt","latitude":"49.8625","longitude":"2.79528","population":"188","region":"32","departement":"80","arrondissement":"804","commune":"80741"},
{"name":"Méricourt-sur-Somme","latitude":"49.90583","longitude":"2.67417","population":"186","region":"32","departement":"80","arrondissement":"804","commune":"80532"},
{"name":"Hénencourt","latitude":"50.0025","longitude":"2.56444","population":"185","region":"32","departement":"80","arrondissement":"802","commune":"80429"},
{"name":"Léalvillers","latitude":"50.06417","longitude":"2.51028","population":"182","region":"32","departement":"80","arrondissement":"802","commune":"80470"},
{"name":"Forceville","latitude":"50.0616","longitude":"2.5577","population":"169","region":"32","departement":"80","arrondissement":"802","commune":"80329"},
{"name":"Authuille","latitude":"50.04306","longitude":"2.66833","population":"167","region":"32","departement":"80","arrondissement":"804","commune":"80045"},
{"name":"Mametz","latitude":"49.99722","longitude":"2.73639","population":"167","region":"32","departement":"80","arrondissement":"804","commune":"80505"},
{"name":"Bécordel-Bécourt","latitude":"49.98972","longitude":"2.68556","population":"166","region":"32","departement":"80","arrondissement":"804","commune":"80073"},
{"name":"Harponville","latitude":"50.03528","longitude":"2.50222","population":"166","region":"32","departement":"80","arrondissement":"802","commune":"80420"},
{"name":"Maricourt","latitude":"49.9806","longitude":"2.7854","population":"161","region":"32","departement":"80","arrondissement":"804","commune":"80513"},
{"name":"Laviéville","latitude":"49.99111","longitude":"2.57583","population":"157","region":"32","departement":"80","arrondissement":"804","commune":"80468"},
{"name":"Chuignolles","latitude":"49.90083","longitude":"2.72639","population":"156","region":"32","departement":"80","arrondissement":"804","commune":"80195"},
{"name":"Courcelette","latitude":"50.05833","longitude":"2.74694","population":"147","region":"32","departement":"80","arrondissement":"804","commune":"80216"},
{"name":"Herleville","latitude":"49.8618","longitude":"2.7521","population":"132","region":"32","departement":"80","arrondissement":"804","commune":"80432"},
{"name":"Vermandovillers","latitude":"49.85028","longitude":"2.78194","population":"131","region":"32","departement":"80","arrondissement":"804","commune":"80789"},
{"name":"Contalmaison","latitude":"50.02306","longitude":"2.73028","population":"123","region":"32","departement":"80","arrondissement":"804","commune":"80206"},
{"name":"Fay","latitude":"49.88556","longitude":"2.80861","population":"122","region":"32","departement":"80","arrondissement":"804","commune":"80304"},
{"name":"Thiepval","latitude":"50.05444","longitude":"2.68889","population":"121","region":"32","departement":"80","arrondissement":"804","commune":"80753"},
{"name":"Chuignes","latitude":"49.90028","longitude":"2.75333","population":"118","region":"32","departement":"80","arrondissement":"804","commune":"80194"},
{"name":"Carnoy","latitude":"49.98444","longitude":"2.75417","population":"111","region":"32","departement":"80","arrondissement":"804","commune":"80175"},
{"name":"Bresle","latitude":"49.98389","longitude":"2.55722","population":"109","region":"32","departement":"80","arrondissement":"802","commune":"80138"},
{"name":"Hédauville","latitude":"50.04556","longitude":"2.56778","population":"103","region":"32","departement":"80","arrondissement":"802","commune":"80425"},
{"name":"Vadencourt","latitude":"50.00722","longitude":"2.48944","population":"99","region":"32","departement":"80","arrondissement":"802","commune":"80773"},
{"name":"Éclusier-Vaux","latitude":"49.94611","longitude":"2.79361","population":"86","region":"32","departement":"80","arrondissement":"804","commune":"80264"},
{"name":"Bazentin","latitude":"50.03028","longitude":"2.76306","population":"76","region":"32","departement":"80","arrondissement":"804","commune":"80059"},
{"name":"Fontaine-lès-Cappy","latitude":"49.89833","longitude":"2.78083","population":"46","region":"32","departement":"80","arrondissement":"804","commune":"80325"}
]