[
{"name":"L'Isle-sur-Serein","latitude":"47.58778","longitude":"4.00444","population":"747","region":"27","departement":"89","arrondissement":"892","commune":"89204"},
{"name":"Noyers","latitude":"47.69694","longitude":"3.99389","population":"695","region":"27","departement":"89","arrondissement":"892","commune":"89279"},
{"name":"Nuits","latitude":"47.7315","longitude":"4.2137","population":"417","region":"27","departement":"89","arrondissement":"892","commune":"89280"},
{"name":"Étaule","latitude":"47.53639","longitude":"3.91472","population":"412","region":"27","departement":"89","arrondissement":"892","commune":"89159"},
{"name":"Massangis","latitude":"47.62528","longitude":"3.97417","population":"411","region":"27","departement":"89","arrondissement":"892","commune":"89246"},
{"name":"Nitry","latitude":"47.67222","longitude":"3.87861","population":"378","region":"27","departement":"89","arrondissement":"892","commune":"89277"},
{"name":"Annay-la-Côte","latitude":"47.53472","longitude":"3.8875","population":"360","region":"27","departement":"89","arrondissement":"892","commune":"89009"},
{"name":"Lucy-le-Bois","latitude":"47.55639","longitude":"3.89306","population":"316","region":"27","departement":"89","arrondissement":"892","commune":"89232"},
{"name":"Châtel-Gérard","latitude":"47.63222","longitude":"4.09639","population":"253","region":"27","departement":"89","arrondissement":"892","commune":"89092"},
{"name":"Argenteuil-sur-Armançon","latitude":"47.75028","longitude":"4.10778","population":"245","region":"27","departement":"89","arrondissement":"892","commune":"89017"},
{"name":"Annay-sur-Serein","latitude":"47.72917","longitude":"3.95972","population":"242","region":"27","departement":"89","arrondissement":"892","commune":"89010"},
{"name":"Étivey","latitude":"47.6775","longitude":"4.1444","population":"239","region":"27","departement":"89","arrondissement":"892","commune":"89161"},
{"name":"Corrombles","latitude":"47.51722","longitude":"4.19667","population":"237","region":"27","departement":"21","arrondissement":"213","commune":"21198"},
{"name":"Provency","latitude":"47.54639","longitude":"3.95583","population":"225","region":"27","departement":"89","arrondissement":"892","commune":"89316"},
{"name":"Bierry-les-Belles-Fontaines","latitude":"47.59611","longitude":"4.18417","population":"205","region":"27","departement":"89","arrondissement":"892","commune":"89042"},
{"name":"Thory","latitude":"47.565","longitude":"3.914","population":"196","region":"27","departement":"89","arrondissement":"892","commune":"89415"},
{"name":"Montréal","latitude":"47.54222","longitude":"4.03611","population":"195","region":"27","departement":"89","arrondissement":"892","commune":"89267"},
{"name":"Sainte-Colombe","latitude":"47.56667","longitude":"3.96917","population":"187","region":"27","departement":"89","arrondissement":"892","commune":"89339"},
{"name":"Fain-lès-Moutiers","latitude":"47.58333","longitude":"4.21194","population":"173","region":"27","departement":"21","arrondissement":"213","commune":"21260"},
{"name":"Sarry","latitude":"47.6694","longitude":"4.0733","population":"168","region":"27","departement":"89","arrondissement":"892","commune":"89376"},
{"name":"Thizy","latitude":"47.57056","longitude":"4.055","population":"167","region":"27","departement":"89","arrondissement":"892","commune":"89412"},
{"name":"Athie","latitude":"47.5389","longitude":"3.9905","population":"150","region":"27","departement":"89","arrondissement":"892","commune":"89022"},
{"name":"Dissangis","latitude":"47.59722","longitude":"3.98194","population":"148","region":"27","departement":"89","arrondissement":"892","commune":"89141"},
{"name":"Annéot","latitude":"47.52111","longitude":"3.88056","population":"148","region":"27","departement":"89","arrondissement":"892","commune":"89011"},
{"name":"Villiers-les-Hauts","latitude":"47.72639","longitude":"4.14833","population":"147","region":"27","departement":"89","arrondissement":"892","commune":"89470"},
{"name":"Sceaux","latitude":"47.52917","longitude":"4.02028","population":"138","region":"27","departement":"89","arrondissement":"892","commune":"89381"},
{"name":"Fulvy","latitude":"47.74139","longitude":"4.17111","population":"137","region":"27","departement":"89","arrondissement":"892","commune":"89184"},
{"name":"Angely","latitude":"47.56472","longitude":"4.02111","population":"135","region":"27","departement":"89","arrondissement":"892","commune":"89008"},
{"name":"Corsaint","latitude":"47.53889","longitude":"4.19917","population":"133","region":"27","departement":"21","arrondissement":"213","commune":"21199"},
{"name":"Grimault","latitude":"47.65167","longitude":"3.98694","population":"118","region":"27","departement":"89","arrondissement":"892","commune":"89194"},
{"name":"Môlay","latitude":"47.73472","longitude":"3.93944","population":"114","region":"27","departement":"89","arrondissement":"892","commune":"89259"},
{"name":"Moulins-en-Tonnerrois","latitude":"47.73167","longitude":"4.03444","population":"112","region":"27","departement":"89","arrondissement":"892","commune":"89271"},
{"name":"Santigny","latitude":"47.5675","longitude":"4.12139","population":"110","region":"27","departement":"89","arrondissement":"892","commune":"89375"},
{"name":"Blacy","latitude":"47.5725","longitude":"4.04361","population":"109","region":"27","departement":"89","arrondissement":"892","commune":"89043"},
{"name":"Sainte-Vertu","latitude":"47.75","longitude":"3.91667","population":"106","region":"27","departement":"89","arrondissement":"892","commune":"89371"},
{"name":"Coutarnoux","latitude":"47.58667","longitude":"3.96472","population":"102","region":"27","departement":"89","arrondissement":"892","commune":"89128"},
{"name":"Vignes","latitude":"47.52361","longitude":"4.11778","population":"95","region":"27","departement":"89","arrondissement":"892","commune":"89448"},
{"name":"Annoux","latitude":"47.62639","longitude":"4.05056","population":"95","region":"27","departement":"89","arrondissement":"892","commune":"89012"},
{"name":"Talcy","latitude":"47.57222","longitude":"4.06944","population":"87","region":"27","departement":"89","arrondissement":"892","commune":"89406"},
{"name":"Vassy-sous-Pisy","latitude":"47.5695","longitude":"4.1687","population":"82","region":"27","departement":"89","arrondissement":"892","commune":"89431"},
{"name":"Marmeaux","latitude":"47.58222","longitude":"4.09639","population":"79","region":"27","departement":"89","arrondissement":"892","commune":"89244"},
{"name":"Aigremont","latitude":"47.71889","longitude":"3.89028","population":"70","region":"27","departement":"89","arrondissement":"891","commune":"89002"},
{"name":"Pisy","latitude":"47.55528","longitude":"4.14167","population":"65","region":"27","departement":"89","arrondissement":"892","commune":"89300"},
{"name":"Trévilly","latitude":"47.52944","longitude":"4.05944","population":"62","region":"27","departement":"89","arrondissement":"892","commune":"89421"},
{"name":"Bard-lès-Époisses","latitude":"47.53139","longitude":"4.21583","population":"61","region":"27","departement":"21","arrondissement":"213","commune":"21047"},
{"name":"Censy","latitude":"47.69694","longitude":"4.04167","population":"56","region":"27","departement":"89","arrondissement":"892","commune":"89064"},
{"name":"Pasilly","latitude":"47.69722","longitude":"4.07778","population":"49","region":"27","departement":"89","arrondissement":"892","commune":"89290"},
{"name":"Jouancy","latitude":"47.6829","longitude":"4.0346","population":"36","region":"27","departement":"89","arrondissement":"892","commune":"89207"}
]