[
{"name":"Saint-Sever","latitude":"43.75667","longitude":"-0.57417","population":"4821","region":"75","departement":"40","arrondissement":"402","commune":"40282"},
{"name":"Hagetmau","latitude":"43.6554","longitude":"-0.5932","population":"4539","region":"75","departement":"40","arrondissement":"402","commune":"40119"},
{"name":"Grenade-sur-l'Adour","latitude":"43.77611","longitude":"-0.42944","population":"2476","region":"75","departement":"40","arrondissement":"402","commune":"40117"},
{"name":"Benquet","latitude":"43.83","longitude":"-0.50167","population":"1471","region":"75","departement":"40","arrondissement":"402","commune":"40037"},
{"name":"Samadet","latitude":"43.63889","longitude":"-0.48667","population":"1040","region":"75","departement":"40","arrondissement":"402","commune":"40286"},
{"name":"Bascons","latitude":"43.82194","longitude":"-0.41861","population":"922","region":"75","departement":"40","arrondissement":"402","commune":"40025"},
{"name":"Doazit","latitude":"43.69083","longitude":"-0.64611","population":"904","region":"75","departement":"40","arrondissement":"401","commune":"40089"},
{"name":"Haut-Mauco","latitude":"43.82583","longitude":"-0.55528","population":"801","region":"75","departement":"40","arrondissement":"402","commune":"40122"},
{"name":"Geaune","latitude":"43.63972","longitude":"-0.37861","population":"729","region":"75","departement":"40","arrondissement":"402","commune":"40110"},
{"name":"Aurice","latitude":"43.81417","longitude":"-0.60472","population":"645","region":"75","departement":"40","arrondissement":"402","commune":"40020"},
{"name":"Saint-Cricq-Chalosse","latitude":"43.65444","longitude":"-0.68472","population":"639","region":"75","departement":"40","arrondissement":"402","commune":"40253"},
{"name":"Sainte-Colombe","latitude":"43.68167","longitude":"-0.55667","population":"639","region":"75","departement":"40","arrondissement":"402","commune":"40252"},
{"name":"Horsarrieu","latitude":"43.68361","longitude":"-0.59694","population":"630","region":"75","departement":"40","arrondissement":"402","commune":"40128"},
{"name":"Larrivière-Saint-Savin","latitude":"43.76917","longitude":"-0.4275","population":"593","region":"75","departement":"40","arrondissement":"402","commune":"40145"},
{"name":"Saint-Maurice-sur-Adour","latitude":"43.785","longitude":"-0.4675","population":"592","region":"75","departement":"40","arrondissement":"402","commune":"40275"},
{"name":"Montgaillard","latitude":"43.74222","longitude":"-0.48306","population":"571","region":"75","departement":"40","arrondissement":"402","commune":"40195"},
{"name":"Montsoué","latitude":"43.73139","longitude":"-0.50667","population":"568","region":"75","departement":"40","arrondissement":"402","commune":"40196"},
{"name":"Montaut","latitude":"43.7409","longitude":"-0.6553","population":"554","region":"75","departement":"40","arrondissement":"402","commune":"40191"},
{"name":"Renung","latitude":"43.74889","longitude":"-0.35944","population":"496","region":"75","departement":"40","arrondissement":"402","commune":"40240"},
{"name":"Saint-Aubin","latitude":"43.7112","longitude":"-0.6958","population":"495","region":"75","departement":"40","arrondissement":"401","commune":"40249"},
{"name":"Eugénie-les-Bains","latitude":"43.69583","longitude":"-0.37833","population":"470","region":"75","departement":"40","arrondissement":"402","commune":"40097"},
{"name":"Coudures","latitude":"43.69083","longitude":"-0.52056","population":"460","region":"75","departement":"40","arrondissement":"402","commune":"40086"},
{"name":"Maurrin","latitude":"43.82472","longitude":"-0.3725","population":"457","region":"75","departement":"40","arrondissement":"402","commune":"40175"},
{"name":"Momuy","latitude":"43.61417","longitude":"-0.63556","population":"454","region":"75","departement":"40","arrondissement":"402","commune":"40188"},
{"name":"Saint-Loubouer","latitude":"43.67694","longitude":"-0.42","population":"436","region":"75","departement":"40","arrondissement":"402","commune":"40270"},
{"name":"Cauna","latitude":"43.78167","longitude":"-0.63917","population":"414","region":"75","departement":"40","arrondissement":"402","commune":"40076"},
{"name":"Castaignos-Souslens","latitude":"43.58639","longitude":"-0.65083","population":"382","region":"75","departement":"40","arrondissement":"401","commune":"40069"},
{"name":"Monségur","latitude":"43.6041","longitude":"-0.541","population":"378","region":"75","departement":"40","arrondissement":"402","commune":"40190"},
{"name":"Eyres-Moncube","latitude":"43.71972","longitude":"-0.54972","population":"375","region":"75","departement":"40","arrondissement":"402","commune":"40098"},
{"name":"Bahus-Soubiran","latitude":"43.67361","longitude":"-0.35611","population":"361","region":"75","departement":"40","arrondissement":"402","commune":"40022"},
{"name":"Serres-Gaston","latitude":"43.65694","longitude":"-0.51639","population":"358","region":"75","departement":"40","arrondissement":"402","commune":"40298"},
{"name":"Bordères-et-Lamensans","latitude":"43.77278","longitude":"-0.36389","population":"351","region":"75","departement":"40","arrondissement":"402","commune":"40049"},
{"name":"Audignon","latitude":"43.7225","longitude":"-0.60389","population":"349","region":"75","departement":"40","arrondissement":"402","commune":"40017"},
{"name":"Maylis","latitude":"43.69667","longitude":"-0.68056","population":"337","region":"75","departement":"40","arrondissement":"401","commune":"40177"},
{"name":"Nassiet","latitude":"43.6","longitude":"-0.67833","population":"327","region":"75","departement":"40","arrondissement":"401","commune":"40203"},
{"name":"Fargues","latitude":"43.7292","longitude":"-0.4492","population":"321","region":"75","departement":"40","arrondissement":"402","commune":"40099"},
{"name":"Bas-Mauco","latitude":"43.7967","longitude":"-0.5545","population":"308","region":"75","departement":"40","arrondissement":"402","commune":"40026"},
{"name":"Brassempouy","latitude":"43.63194","longitude":"-0.69472","population":"302","region":"75","departement":"40","arrondissement":"401","commune":"40054"},
{"name":"Vielle-Tursan","latitude":"43.67556","longitude":"-0.45056","population":"294","region":"75","departement":"40","arrondissement":"402","commune":"40325"},
{"name":"Lamothe","latitude":"43.7913","longitude":"-0.6526","population":"293","region":"75","departement":"40","arrondissement":"401","commune":"40143"},
{"name":"Mant","latitude":"43.58556","longitude":"-0.50889","population":"286","region":"75","departement":"40","arrondissement":"402","commune":"40172"},
{"name":"Bats","latitude":"43.65889","longitude":"-0.45861","population":"282","region":"75","departement":"40","arrondissement":"402","commune":"40029"},
{"name":"Buanes","latitude":"43.71083","longitude":"-0.42167","population":"275","region":"75","departement":"40","arrondissement":"402","commune":"40057"},
{"name":"Toulouzette","latitude":"43.75583","longitude":"-0.68611","population":"274","region":"75","departement":"40","arrondissement":"401","commune":"40318"},
{"name":"Dumes","latitude":"43.70583","longitude":"-0.58222","population":"268","region":"75","departement":"40","arrondissement":"402","commune":"40092"},
{"name":"Urgons","latitude":"43.64889","longitude":"-0.44306","population":"262","region":"75","departement":"40","arrondissement":"402","commune":"40321"},
{"name":"Hauriet","latitude":"43.7328","longitude":"-0.6967","population":"257","region":"75","departement":"40","arrondissement":"401","commune":"40121"},
{"name":"Classun","latitude":"43.71056","longitude":"-0.41417","population":"251","region":"75","departement":"40","arrondissement":"402","commune":"40082"},
{"name":"Banos","latitude":"43.73667","longitude":"-0.62306","population":"247","region":"75","departement":"40","arrondissement":"402","commune":"40024"},
{"name":"Aubagnan","latitude":"43.66694","longitude":"-0.48861","population":"240","region":"75","departement":"40","arrondissement":"402","commune":"40016"},
{"name":"Lacrabe","latitude":"43.61528","longitude":"-0.59056","population":"239","region":"75","departement":"40","arrondissement":"402","commune":"40138"},
{"name":"Le Leuy","latitude":"43.82222","longitude":"-0.6525","population":"221","region":"75","departement":"40","arrondissement":"401","commune":"40153"},
{"name":"Sarraziet","latitude":"43.70278","longitude":"-0.48917","population":"207","region":"75","departement":"40","arrondissement":"402","commune":"40289"},
{"name":"Serreslous-et-Arribans","latitude":"43.66306","longitude":"-0.64583","population":"206","region":"75","departement":"40","arrondissement":"402","commune":"40299"},
{"name":"Arboucave","latitude":"43.6125","longitude":"-0.43556","population":"204","region":"75","departement":"40","arrondissement":"402","commune":"40005"},
{"name":"Castelnau-Tursan","latitude":"43.65778","longitude":"-0.40694","population":"185","region":"75","departement":"40","arrondissement":"402","commune":"40072"},
{"name":"Morganx","latitude":"43.6059","longitude":"-0.5698","population":"182","region":"75","departement":"40","arrondissement":"402","commune":"40198"},
{"name":"Argelos","latitude":"43.58278","longitude":"-0.62944","population":"180","region":"75","departement":"40","arrondissement":"401","commune":"40007"},
{"name":"Pécorade","latitude":"43.65556","longitude":"-0.37111","population":"151","region":"75","departement":"40","arrondissement":"402","commune":"40220"},
{"name":"Cazalis","latitude":"43.62472","longitude":"-0.66167","population":"146","region":"75","departement":"40","arrondissement":"402","commune":"40079"},
{"name":"Labastide-Chalosse","latitude":"43.61194","longitude":"-0.61","population":"131","region":"75","departement":"40","arrondissement":"402","commune":"40130"},
{"name":"Lacajunte","latitude":"43.59306","longitude":"-0.425","population":"129","region":"75","departement":"40","arrondissement":"402","commune":"40136"},
{"name":"Clèdes","latitude":"43.61917","longitude":"-0.37833","population":"120","region":"75","departement":"40","arrondissement":"402","commune":"40083"},
{"name":"Puyol-Cazalet","latitude":"43.60417","longitude":"-0.40694","population":"111","region":"75","departement":"40","arrondissement":"402","commune":"40239"},
{"name":"Payros-Cazautets","latitude":"43.62611","longitude":"-0.38972","population":"91","region":"75","departement":"40","arrondissement":"402","commune":"40219"}
]