[
{"name":"Scaër","latitude":"48.02722","longitude":"-3.70222","population":"5244","region":"53","departement":"29","arrondissement":"294","commune":"29274"},
{"name":"Gourin","latitude":"48.13944","longitude":"-3.6075","population":"4121","region":"53","departement":"56","arrondissement":"562","commune":"56066"},
{"name":"Châteauneuf-du-Faou","latitude":"48.18611","longitude":"-3.81278","population":"3682","region":"53","departement":"29","arrondissement":"292","commune":"29027"},
{"name":"Guiscriff","latitude":"48.05","longitude":"-3.64528","population":"2339","region":"53","departement":"56","arrondissement":"562","commune":"56081"},
{"name":"Coray","latitude":"48.06111","longitude":"-3.82972","population":"1825","region":"53","departement":"29","arrondissement":"292","commune":"29041"},
{"name":"Spézet","latitude":"48.1925","longitude":"-3.71667","population":"1824","region":"53","departement":"29","arrondissement":"292","commune":"29278"},
{"name":"Lanvénégen","latitude":"47.99833","longitude":"-3.54167","population":"1217","region":"53","departement":"56","arrondissement":"562","commune":"56105"},
{"name":"Tourch","latitude":"48.02444","longitude":"-3.82583","population":"965","region":"53","departement":"29","arrondissement":"294","commune":"29281"},
{"name":"Trégourez","latitude":"48.10611","longitude":"-3.86306","population":"951","region":"53","departement":"29","arrondissement":"292","commune":"29291"},
{"name":"Leuhan","latitude":"48.09917","longitude":"-3.78444","population":"788","region":"53","departement":"29","arrondissement":"292","commune":"29125"},
{"name":"Saint-Hernin","latitude":"48.21806","longitude":"-3.63472","population":"745","region":"53","departement":"29","arrondissement":"292","commune":"29250"},
{"name":"Motreff","latitude":"48.20167","longitude":"-3.55528","population":"736","region":"53","departement":"29","arrondissement":"292","commune":"29152"},
{"name":"Laz","latitude":"48.1375","longitude":"-3.83528","population":"720","region":"53","departement":"29","arrondissement":"292","commune":"29122"},
{"name":"Roudouallec","latitude":"48.12667","longitude":"-3.71694","population":"713","region":"53","departement":"56","arrondissement":"562","commune":"56199"},
{"name":"Saint-Goazec","latitude":"48.1625","longitude":"-3.78417","population":"692","region":"53","departement":"29","arrondissement":"292","commune":"29249"},
{"name":"Le Saint","latitude":"48.08944","longitude":"-3.56222","population":"654","region":"53","departement":"56","arrondissement":"562","commune":"56201"},
{"name":"Tréogan","latitude":"48.18917","longitude":"-3.52","population":"98","region":"53","departement":"22","arrondissement":"222","commune":"22373"}
]