[
{"name":"Cluses","latitude":"46.06028","longitude":"6.57861","population":"17468","region":"84","departement":"74","arrondissement":"742","commune":"74081"},
{"name":"Sallanches","latitude":"45.93639","longitude":"6.63194","population":"15619","region":"84","departement":"74","arrondissement":"742","commune":"74256"},
{"name":"Scionzier","latitude":"46.05722","longitude":"6.55","population":"7124","region":"84","departement":"74","arrondissement":"742","commune":"74264"},
{"name":"Saint-Pierre-en-Faucigny","latitude":"46.0593","longitude":"6.3728","population":"5860","region":"84","departement":"74","arrondissement":"742","commune":"74250"},
{"name":"Marnaz","latitude":"46.05917","longitude":"6.52583","population":"5208","region":"84","departement":"74","arrondissement":"742","commune":"74169"},
{"name":"Megève","latitude":"45.85694","longitude":"6.6175","population":"3907","region":"84","departement":"74","arrondissement":"742","commune":"74173"},
{"name":"Magland","latitude":"46.02194","longitude":"6.61972","population":"3086","region":"84","departement":"74","arrondissement":"742","commune":"74159"},
{"name":"Le Grand-Bornand","latitude":"45.94194","longitude":"6.42528","population":"2195","region":"84","departement":"74","arrondissement":"741","commune":"74136"},
{"name":"Combloux","latitude":"45.89556","longitude":"6.64111","population":"2082","region":"84","departement":"74","arrondissement":"742","commune":"74083"},
{"name":"La Clusaz","latitude":"45.90417","longitude":"6.42306","population":"1876","region":"84","departement":"74","arrondissement":"741","commune":"74080"},
{"name":"Arâches-la-Frasse","latitude":"46.04327","longitude":"6.63145","population":"1812","region":"84","departement":"74","arrondissement":"742","commune":"74014"},
{"name":"Domancy","latitude":"45.91361","longitude":"6.64833","population":"1806","region":"84","departement":"74","arrondissement":"742","commune":"74103"},
{"name":"Mont-Saxonnex","latitude":"46.05444","longitude":"6.48444","population":"1555","region":"84","departement":"74","arrondissement":"742","commune":"74189"},
{"name":"Vougy","latitude":"46.06667","longitude":"6.4925","population":"1451","region":"84","departement":"74","arrondissement":"742","commune":"74312"},
{"name":"Saint-Jean-de-Sixt","latitude":"45.92306","longitude":"6.41","population":"1353","region":"84","departement":"74","arrondissement":"741","commune":"74239"},
{"name":"Praz-sur-Arly","latitude":"45.83722","longitude":"6.57","population":"1353","region":"84","departement":"74","arrondissement":"742","commune":"74215"},
{"name":"Le Petit-Bornand-les-Glières","latitude":"46.0008","longitude":"6.3971","population":"1112","region":"84","departement":"74","arrondissement":"742","commune":"74212"},
{"name":"Les Villards-sur-Thônes","latitude":"45.90722","longitude":"6.36583","population":"1003","region":"84","departement":"74","arrondissement":"741","commune":"74302"},
{"name":"Demi-Quartier","latitude":"45.87726","longitude":"6.63171","population":"999","region":"84","departement":"74","arrondissement":"742","commune":"74099"},
{"name":"Cordon","latitude":"45.9234","longitude":"6.6131","population":"995","region":"84","departement":"74","arrondissement":"742","commune":"74089"},
{"name":"Manigod","latitude":"45.86083","longitude":"6.37","population":"949","region":"84","departement":"74","arrondissement":"741","commune":"74160"},
{"name":"Saint-Sixt","latitude":"46.05278","longitude":"6.32944","population":"886","region":"84","departement":"74","arrondissement":"742","commune":"74253"},
{"name":"Saint-Laurent","latitude":"46.04667","longitude":"6.35917","population":"789","region":"84","departement":"74","arrondissement":"742","commune":"74244"},
{"name":"Saint-Sigismond","latitude":"46.0719","longitude":"6.6149","population":"642","region":"84","departement":"74","arrondissement":"742","commune":"74252"},
{"name":"Entremont","latitude":"45.95667","longitude":"6.38889","population":"619","region":"84","departement":"74","arrondissement":"742","commune":"74110"},
{"name":"Le Reposoir","latitude":"46.0116","longitude":"6.5357","population":"497","region":"84","departement":"74","arrondissement":"742","commune":"74221"},
{"name":"Nancy-sur-Cluses","latitude":"46.04333","longitude":"6.5775","population":"451","region":"84","departement":"74","arrondissement":"742","commune":"74196"},
{"name":"La Giettaz","latitude":"45.86222","longitude":"6.49528","population":"448","region":"84","departement":"73","arrondissement":"731","commune":"73123"},
{"name":"Brizon","latitude":"46.04806","longitude":"6.445","population":"443","region":"84","departement":"74","arrondissement":"742","commune":"74049"}
]