[
{"name":"Cierp-Gaud","latitude":"42.9156","longitude":"0.6398","population":"883","region":"76","departement":"31","arrondissement":"312","commune":"31144"},
{"name":"Arreau","latitude":"42.90528","longitude":"0.35889","population":"786","region":"76","departement":"65","arrondissement":"652","commune":"65031"},
{"name":"Loures-Barousse","latitude":"43.02444","longitude":"0.60528","population":"732","region":"76","departement":"65","arrondissement":"652","commune":"65287"},
{"name":"Sauveterre-de-Comminges","latitude":"43.0335","longitude":"0.6686","population":"721","region":"76","departement":"31","arrondissement":"312","commune":"31535"},
{"name":"Hèches","latitude":"43.01639","longitude":"0.37222","population":"631","region":"76","departement":"65","arrondissement":"652","commune":"65218"},
{"name":"Sarrancolin","latitude":"42.96639","longitude":"0.37722","population":"608","region":"76","departement":"65","arrondissement":"652","commune":"65408"},
{"name":"Marignac","latitude":"42.9147","longitude":"0.6587","population":"525","region":"76","departement":"31","arrondissement":"312","commune":"31316"},
{"name":"Barbazan","latitude":"43.03222","longitude":"0.62306","population":"449","region":"76","departement":"31","arrondissement":"312","commune":"31045"},
{"name":"Saint-Béat","latitude":"42.91444","longitude":"0.6925","population":"392","region":"76","departement":"31","arrondissement":"312","commune":"31471"},
{"name":"Labroquère","latitude":"43.03833","longitude":"0.59194","population":"308","region":"76","departement":"31","arrondissement":"312","commune":"31255"},
{"name":"Siradan","latitude":"42.97","longitude":"0.61222","population":"293","region":"76","departement":"65","arrondissement":"652","commune":"65427"},
{"name":"Tibiran-Jaunac","latitude":"43.04833","longitude":"0.54389","population":"263","region":"76","departement":"65","arrondissement":"652","commune":"65444"},
{"name":"Saint-Bertrand-de-Comminges","latitude":"43.0272","longitude":"0.5714","population":"259","region":"76","departement":"31","arrondissement":"312","commune":"31472"},
{"name":"Cier-de-Rivière","latitude":"43.06306","longitude":"0.63361","population":"256","region":"76","departement":"31","arrondissement":"312","commune":"31143"},
{"name":"Cier-de-Luchon","latitude":"42.85833","longitude":"0.60111","population":"240","region":"76","departement":"31","arrondissement":"312","commune":"31142"},
{"name":"Izaourt","latitude":"43.01667","longitude":"0.6","population":"233","region":"76","departement":"65","arrondissement":"652","commune":"65230"},
{"name":"Nistos","latitude":"43.0173","longitude":"0.4796","population":"233","region":"76","departement":"65","arrondissement":"652","commune":"65329"},
{"name":"Montoussé","latitude":"43.06639","longitude":"0.41472","population":"230","region":"76","departement":"65","arrondissement":"652","commune":"65322"},
{"name":"Bize","latitude":"43.0425","longitude":"0.4725","population":"220","region":"76","departement":"65","arrondissement":"652","commune":"65093"},
{"name":"Beyrède-Jumet","latitude":"42.95806","longitude":"0.37583","population":"219","region":"76","departement":"65","arrondissement":"652","commune":"65092"},
{"name":"Chaum","latitude":"42.93417","longitude":"0.65528","population":"214","region":"76","departement":"31","arrondissement":"312","commune":"31139"},
{"name":"Bertren","latitude":"43.00028","longitude":"0.61806","population":"212","region":"76","departement":"65","arrondissement":"652","commune":"65087"},
{"name":"Fronsac","latitude":"42.95222","longitude":"0.64917","population":"205","region":"76","departement":"31","arrondissement":"312","commune":"31199"},
{"name":"Lortet","latitude":"43.04306","longitude":"0.37917","population":"202","region":"76","departement":"65","arrondissement":"652","commune":"65279"},
{"name":"Seilhan","latitude":"43.05083","longitude":"0.57583","population":"202","region":"76","departement":"31","arrondissement":"312","commune":"31542"},
{"name":"Saléchan","latitude":"42.95583","longitude":"0.63111","population":"202","region":"76","departement":"65","arrondissement":"652","commune":"65398"},
{"name":"Anères","latitude":"43.06861","longitude":"0.46472","population":"190","region":"76","departement":"65","arrondissement":"652","commune":"65009"},
{"name":"Izaux","latitude":"43.06222","longitude":"0.37639","population":"184","region":"76","departement":"65","arrondissement":"652","commune":"65231"},
{"name":"Aventignan","latitude":"43.06833","longitude":"0.52083","population":"180","region":"76","departement":"65","arrondissement":"652","commune":"65051"},
{"name":"Esténos","latitude":"42.94722","longitude":"0.64083","population":"179","region":"76","departement":"31","arrondissement":"312","commune":"31176"},
{"name":"Moustajon","latitude":"42.81444","longitude":"0.5975","population":"168","region":"76","departement":"31","arrondissement":"312","commune":"31394"},
{"name":"Labastide","latitude":"43.03583","longitude":"0.35306","population":"165","region":"76","departement":"65","arrondissement":"652","commune":"65239"},
{"name":"Nestier","latitude":"43.06278","longitude":"0.48","population":"165","region":"76","departement":"65","arrondissement":"652","commune":"65327"},
{"name":"Valcabrère","latitude":"43.03278","longitude":"0.58167","population":"158","region":"76","departement":"31","arrondissement":"312","commune":"31564"},
{"name":"Bordères-Louron","latitude":"42.8715","longitude":"0.3959","population":"157","region":"76","departement":"65","arrondissement":"652","commune":"65099"},
{"name":"Eup","latitude":"42.92722","longitude":"0.69","population":"138","region":"76","departement":"31","arrondissement":"312","commune":"31177"},
{"name":"Salles-et-Pratviel","latitude":"42.82972","longitude":"0.60556","population":"136","region":"76","departement":"31","arrondissement":"312","commune":"31524"},
{"name":"Ilhet","latitude":"42.96389","longitude":"0.3825","population":"130","region":"76","departement":"65","arrondissement":"652","commune":"65228"},
{"name":"Saint-Pé-d'Ardet","latitude":"42.98472","longitude":"0.67083","population":"129","region":"76","departement":"31","arrondissement":"312","commune":"31509"},
{"name":"Burgalays","latitude":"42.8925","longitude":"0.62944","population":"129","region":"76","departement":"31","arrondissement":"312","commune":"31092"},
{"name":"Montégut","latitude":"43.06389","longitude":"0.50333","population":"126","region":"76","departement":"65","arrondissement":"652","commune":"65319"},
{"name":"Malvezie","latitude":"43.00556","longitude":"0.6875","population":"121","region":"76","departement":"31","arrondissement":"312","commune":"31313"},
{"name":"Mauléon-Barousse","latitude":"42.95944","longitude":"0.56778","population":"118","region":"76","departement":"65","arrondissement":"652","commune":"65305"},
{"name":"Jézeau","latitude":"42.90083","longitude":"0.38111","population":"115","region":"76","departement":"65","arrondissement":"652","commune":"65234"},
{"name":"Ore","latitude":"42.97528","longitude":"0.65056","population":"114","region":"76","departement":"31","arrondissement":"312","commune":"31405"},
{"name":"Sarp","latitude":"43.01528","longitude":"0.58944","population":"107","region":"76","departement":"65","arrondissement":"652","commune":"65407"},
{"name":"Antignac","latitude":"42.82611","longitude":"0.6","population":"106","region":"76","departement":"31","arrondissement":"312","commune":"31010"},
{"name":"Bizous","latitude":"43.06861","longitude":"0.44194","population":"105","region":"76","departement":"65","arrondissement":"652","commune":"65094"},
{"name":"Adervielle-Pouchergues","latitude":"42.8193","longitude":"0.4049","population":"104","region":"76","departement":"65","arrondissement":"652","commune":"65003"},
{"name":"Saint-Arroman","latitude":"43.04472","longitude":"0.40139","population":"102","region":"76","departement":"65","arrondissement":"652","commune":"65385"},
{"name":"Sost","latitude":"42.92917","longitude":"0.55722","population":"101","region":"76","departement":"65","arrondissement":"652","commune":"65431"},
{"name":"Lourde","latitude":"42.98417","longitude":"0.66083","population":"101","region":"76","departement":"31","arrondissement":"312","commune":"31306"},
{"name":"Générest","latitude":"43.03222","longitude":"0.52583","population":"94","region":"76","departement":"65","arrondissement":"652","commune":"65194"},
{"name":"Génos","latitude":"43.00056","longitude":"0.67361","population":"94","region":"76","departement":"31","arrondissement":"312","commune":"31217"},
{"name":"Galié","latitude":"42.98861","longitude":"0.63278","population":"87","region":"76","departement":"31","arrondissement":"312","commune":"31207"},
{"name":"Antichan-de-Frontignes","latitude":"42.97306","longitude":"0.66556","population":"83","region":"76","departement":"31","arrondissement":"312","commune":"31009"},
{"name":"Lombrès","latitude":"43.05667","longitude":"0.51","population":"81","region":"76","departement":"65","arrondissement":"652","commune":"65277"},
{"name":"Bagiry","latitude":"42.97778","longitude":"0.62583","population":"81","region":"76","departement":"31","arrondissement":"312","commune":"31041"},
{"name":"Sacoué","latitude":"42.98806","longitude":"0.56306","population":"80","region":"76","departement":"65","arrondissement":"652","commune":"65382"},
{"name":"Thèbe","latitude":"42.96583","longitude":"0.59056","population":"80","region":"76","departement":"65","arrondissement":"652","commune":"65441"},
{"name":"Vielle-Louron","latitude":"42.8337","longitude":"0.404","population":"77","region":"76","departement":"65","arrondissement":"652","commune":"65466"},
{"name":"Anla","latitude":"43.00278","longitude":"0.58194","population":"77","region":"76","departement":"65","arrondissement":"652","commune":"65012"},
{"name":"Avajan","latitude":"42.84222","longitude":"0.40722","population":"76","region":"76","departement":"65","arrondissement":"652","commune":"65050"},
{"name":"Esbareich","latitude":"42.94472","longitude":"0.56194","population":"75","region":"76","departement":"65","arrondissement":"652","commune":"65158"},
{"name":"Poubeau","latitude":"42.81306","longitude":"0.4975","population":"74","region":"76","departement":"31","arrondissement":"312","commune":"31434"},
{"name":"Gazave","latitude":"43.03694","longitude":"0.41722","population":"72","region":"76","departement":"65","arrondissement":"652","commune":"65190"},
{"name":"Pailhac","latitude":"42.90806","longitude":"0.36806","population":"72","region":"76","departement":"65","arrondissement":"652","commune":"65354"},
{"name":"Gouaux","latitude":"42.865","longitude":"0.36167","population":"70","region":"76","departement":"65","arrondissement":"652","commune":"65205"},
{"name":"Gembrie","latitude":"42.98972","longitude":"0.57444","population":"69","region":"76","departement":"65","arrondissement":"652","commune":"65193"},
{"name":"Frontignan-de-Comminges","latitude":"42.97111","longitude":"0.65861","population":"68","region":"76","departement":"31","arrondissement":"312","commune":"31200"},
{"name":"Cazaux-Layrisse","latitude":"42.8715","longitude":"0.59694","population":"68","region":"76","departement":"31","arrondissement":"312","commune":"31132"},
{"name":"Seich","latitude":"43.01472","longitude":"0.49","population":"65","region":"76","departement":"65","arrondissement":"652","commune":"65416"},
{"name":"Luscan","latitude":"43.0119","longitude":"0.6236","population":"62","region":"76","departement":"31","arrondissement":"312","commune":"31308"},
{"name":"Lez","latitude":"42.90917","longitude":"0.70083","population":"61","region":"76","departement":"31","arrondissement":"312","commune":"31298"},
{"name":"Bareilles","latitude":"42.89667","longitude":"0.42389","population":"61","region":"76","departement":"65","arrondissement":"652","commune":"65064"},
{"name":"Camparan","latitude":"42.83778","longitude":"0.355","population":"60","region":"76","departement":"65","arrondissement":"652","commune":"65124"},
{"name":"Troubat","latitude":"42.97611","longitude":"0.58028","population":"57","region":"76","departement":"65","arrondissement":"652","commune":"65453"},
{"name":"Bezins-Garraux","latitude":"42.9325","longitude":"0.68861","population":"55","region":"76","departement":"31","arrondissement":"312","commune":"31067"},
{"name":"Ferrère","latitude":"42.95333","longitude":"0.53667","population":"55","region":"76","departement":"65","arrondissement":"652","commune":"65175"},
{"name":"Cazaux-Fréchet-Anéran-Camors","latitude":"42.8301","longitude":"0.4211","population":"55","region":"76","departement":"65","arrondissement":"652","commune":"65141"},
{"name":"Guran","latitude":"42.89","longitude":"0.61611","population":"53","region":"76","departement":"31","arrondissement":"312","commune":"31235"},
{"name":"Saint-Paul-d'Oueil","latitude":"42.82583","longitude":"0.55111","population":"53","region":"76","departement":"31","arrondissement":"312","commune":"31508"},
{"name":"Aveux","latitude":"43.00944","longitude":"0.57083","population":"52","region":"76","departement":"65","arrondissement":"652","commune":"65053"},
{"name":"Signac","latitude":"42.90528","longitude":"0.62833","population":"52","region":"76","departement":"31","arrondissement":"312","commune":"31548"},
{"name":"Montsérié","latitude":"43.05","longitude":"0.43667","population":"48","region":"76","departement":"65","arrondissement":"652","commune":"65323"},
{"name":"Gaudent","latitude":"42.99333","longitude":"0.56722","population":"47","region":"76","departement":"65","arrondissement":"652","commune":"65186"},
{"name":"Hautaget","latitude":"43.05556","longitude":"0.45611","population":"46","region":"76","departement":"65","arrondissement":"652","commune":"65217"},
{"name":"Gouaux-de-Luchon","latitude":"42.85611","longitude":"0.62056","population":"45","region":"76","departement":"31","arrondissement":"312","commune":"31222"},
{"name":"Bazus-Neste","latitude":"43.03528","longitude":"0.38111","population":"43","region":"76","departement":"65","arrondissement":"652","commune":"65076"},
{"name":"Lège","latitude":"42.8769","longitude":"0.6119","population":"41","region":"76","departement":"31","arrondissement":"312","commune":"31290"},
{"name":"Mont-de-Galié","latitude":"42.98917","longitude":"0.64694","population":"39","region":"76","departement":"31","arrondissement":"312","commune":"31369"},
{"name":"Créchets","latitude":"43.0025","longitude":"0.575","population":"39","region":"76","departement":"65","arrondissement":"652","commune":"65154"},
{"name":"Cazarilh","latitude":"42.9575","longitude":"0.58139","population":"39","region":"76","departement":"65","arrondissement":"652","commune":"65139"},
{"name":"Ilheu","latitude":"42.99694","longitude":"0.59556","population":"38","region":"76","departement":"65","arrondissement":"652","commune":"65229"},
{"name":"Artigue","latitude":"42.83194","longitude":"0.61972","population":"38","region":"76","departement":"31","arrondissement":"312","commune":"31019"},
{"name":"Antichan","latitude":"42.99472","longitude":"0.58222","population":"37","region":"76","departement":"65","arrondissement":"652","commune":"65014"},
{"name":"Estarvielle","latitude":"42.81972","longitude":"0.41528","population":"34","region":"76","departement":"65","arrondissement":"652","commune":"65171"},
{"name":"Bramevaque","latitude":"42.97722","longitude":"0.57472","population":"34","region":"76","departement":"65","arrondissement":"652","commune":"65109"},
{"name":"Mont","latitude":"42.81667","longitude":"0.42833","population":"33","region":"76","departement":"65","arrondissement":"652","commune":"65317"},
{"name":"Lançon","latitude":"42.88556","longitude":"0.36667","population":"33","region":"76","departement":"65","arrondissement":"652","commune":"65255"},
{"name":"Binos","latitude":"42.90083","longitude":"0.61722","population":"32","region":"76","departement":"31","arrondissement":"312","commune":"31590"},
{"name":"Sainte-Marie","latitude":"42.9691","longitude":"0.62896","population":"31","region":"76","departement":"65","arrondissement":"652","commune":"65391"},
{"name":"Ourde","latitude":"42.95889","longitude":"0.555","population":"30","region":"76","departement":"65","arrondissement":"652","commune":"65347"},
{"name":"Portet-de-Luchon","latitude":"42.813","longitude":"0.4868","population":"28","region":"76","departement":"31","arrondissement":"312","commune":"31432"},
{"name":"Bachos","latitude":"42.8976","longitude":"0.6182","population":"27","region":"76","departement":"31","arrondissement":"312","commune":"31040"},
{"name":"Camous","latitude":"42.945","longitude":"0.37556","population":"27","region":"76","departement":"65","arrondissement":"652","commune":"65122"},
{"name":"Mayrègne","latitude":"42.8436","longitude":"0.5399","population":"26","region":"76","departement":"31","arrondissement":"312","commune":"31335"},
{"name":"Sode","latitude":"42.81667","longitude":"0.61667","population":"24","region":"76","departement":"31","arrondissement":"312","commune":"31549"},
{"name":"Jurvielle","latitude":"42.8175","longitude":"0.48639","population":"22","region":"76","departement":"31","arrondissement":"312","commune":"31242"},
{"name":"Benque-Dessous-et-Dessus","latitude":"42.81528","longitude":"0.55472","population":"22","region":"76","departement":"31","arrondissement":"312","commune":"31064"},
{"name":"Samuran","latitude":"42.98722","longitude":"0.59444","population":"20","region":"76","departement":"65","arrondissement":"652","commune":"65402"},
{"name":"Cazaux-Debat","latitude":"42.88806","longitude":"0.38472","population":"19","region":"76","departement":"65","arrondissement":"652","commune":"65140"},
{"name":"Ardengost","latitude":"42.92472","longitude":"0.40417","population":"17","region":"76","departement":"65","arrondissement":"652","commune":"65023"},
{"name":"Grailhen","latitude":"42.84667","longitude":"0.36167","population":"17","region":"76","departement":"65","arrondissement":"652","commune":"65208"},
{"name":"Mazouau","latitude":"43.03333","longitude":"0.4","population":"15","region":"76","departement":"65","arrondissement":"652","commune":"65309"},
{"name":"Saccourvielle","latitude":"42.81556","longitude":"0.56194","population":"13","region":"76","departement":"31","arrondissement":"312","commune":"31465"},
{"name":"Fréchet-Aure","latitude":"42.93083","longitude":"0.37111","population":"13","region":"76","departement":"65","arrondissement":"652","commune":"65180"},
{"name":"Cirès","latitude":"42.85222","longitude":"0.5175","population":"12","region":"76","departement":"31","arrondissement":"312","commune":"31146"},
{"name":"Ris","latitude":"42.88722","longitude":"0.39778","population":"10","region":"76","departement":"65","arrondissement":"652","commune":"65379"},
{"name":"Bourg-d'Oueil","latitude":"42.85917","longitude":"0.49806","population":"8","region":"76","departement":"31","arrondissement":"312","commune":"31081"},
{"name":"Caubous","latitude":"42.8508","longitude":"0.5228","population":"6","region":"76","departement":"31","arrondissement":"312","commune":"31127"},
{"name":"Baren","latitude":"42.86889","longitude":"0.61917","population":"5","region":"76","departement":"31","arrondissement":"312","commune":"31046"}
]