[
{"name":"Troyes","latitude":"48.29889","longitude":"4.07806","population":"61188","region":"44","departement":"10","arrondissement":"103","commune":"10387"},
{"name":"La Chapelle-Saint-Luc","latitude":"48.312","longitude":"4.0454","population":"13463","region":"44","departement":"10","arrondissement":"103","commune":"10081"},
{"name":"Saint-André-les-Vergers","latitude":"48.27972","longitude":"4.05389","population":"11296","region":"44","departement":"10","arrondissement":"103","commune":"10333"},
{"name":"Sainte-Savine","latitude":"48.29472","longitude":"4.04889","population":"10176","region":"44","departement":"10","arrondissement":"103","commune":"10362"},
{"name":"Saint-Julien-les-Villas","latitude":"48.27139","longitude":"4.0975","population":"6781","region":"44","departement":"10","arrondissement":"103","commune":"10343"},
{"name":"Pont-Sainte-Marie","latitude":"48.32056","longitude":"4.10139","population":"4791","region":"44","departement":"10","arrondissement":"103","commune":"10297"},
{"name":"Rosières-près-Troyes","latitude":"48.26028","longitude":"4.07167","population":"3172","region":"44","departement":"10","arrondissement":"103","commune":"10325"},
{"name":"Les Noës-près-Troyes","latitude":"48.3025","longitude":"4.04111","population":"3171","region":"44","departement":"10","arrondissement":"103","commune":"10265"},
{"name":"La Rivière-de-Corps","latitude":"48.28778","longitude":"4.01972","population":"2925","region":"44","departement":"10","arrondissement":"103","commune":"10321"},
{"name":"Saint-Lyé","latitude":"48.36361","longitude":"4.00139","population":"2904","region":"44","departement":"10","arrondissement":"103","commune":"10349"},
{"name":"Saint-Parres-aux-Tertres","latitude":"48.3","longitude":"4.11667","population":"2851","region":"44","departement":"10","arrondissement":"103","commune":"10357"},
{"name":"Saint-Germain","latitude":"48.25778","longitude":"4.03194","population":"2279","region":"44","departement":"10","arrondissement":"103","commune":"10340"},
{"name":"Bréviandes","latitude":"48.25611","longitude":"4.09556","population":"2259","region":"44","departement":"10","arrondissement":"103","commune":"10060"},
{"name":"Verrières","latitude":"48.2328","longitude":"4.1489","population":"1740","region":"44","departement":"10","arrondissement":"103","commune":"10406"},
{"name":"Creney-près-Troyes","latitude":"48.33222","longitude":"4.12694","population":"1586","region":"44","departement":"10","arrondissement":"103","commune":"10115"},
{"name":"Sainte-Maure","latitude":"48.34472","longitude":"4.06139","population":"1417","region":"44","departement":"10","arrondissement":"103","commune":"10352"},
{"name":"Buchères","latitude":"48.23639","longitude":"4.11139","population":"1404","region":"44","departement":"10","arrondissement":"103","commune":"10067"},
{"name":"Barberey-Saint-Sulpice","latitude":"48.33778","longitude":"4.03194","population":"1207","region":"44","departement":"10","arrondissement":"103","commune":"10030"},
{"name":"Payns","latitude":"48.38167","longitude":"3.97722","population":"1198","region":"44","departement":"10","arrondissement":"103","commune":"10282"},
{"name":"Charmont-sous-Barbuise","latitude":"48.40833","longitude":"4.17417","population":"1017","region":"44","departement":"10","arrondissement":"103","commune":"10084"},
{"name":"Savières","latitude":"48.40722","longitude":"3.95167","population":"952","region":"44","departement":"10","arrondissement":"102","commune":"10368"},
{"name":"Saint-Pouange","latitude":"48.22472","longitude":"4.04194","population":"896","region":"44","departement":"10","arrondissement":"103","commune":"10360"},
{"name":"Villechétif","latitude":"48.31139","longitude":"4.145","population":"888","region":"44","departement":"10","arrondissement":"103","commune":"10412"},
{"name":"Saint-Mesmin","latitude":"48.44389","longitude":"3.92556","population":"887","region":"44","departement":"10","arrondissement":"102","commune":"10353"},
{"name":"Macey","latitude":"48.2925","longitude":"3.91528","population":"862","region":"44","departement":"10","arrondissement":"103","commune":"10211"},
{"name":"Torvilliers","latitude":"48.27556","longitude":"3.97611","population":"860","region":"44","departement":"10","arrondissement":"103","commune":"10381"},
{"name":"Fontaine-les-Grès","latitude":"48.42361","longitude":"3.90806","population":"857","region":"44","departement":"10","arrondissement":"102","commune":"10151"},
{"name":"Lavau","latitude":"48.325","longitude":"4.08667","population":"813","region":"44","departement":"10","arrondissement":"103","commune":"10191"},
{"name":"Montaulin","latitude":"48.25306","longitude":"4.19528","population":"752","region":"44","departement":"10","arrondissement":"103","commune":"10245"},
{"name":"Saint-Léger-près-Troyes","latitude":"48.23667","longitude":"4.07778","population":"728","region":"44","departement":"10","arrondissement":"103","commune":"10344"},
{"name":"Mergey","latitude":"48.38556","longitude":"4.00444","population":"677","region":"44","departement":"10","arrondissement":"103","commune":"10230"},
{"name":"Voué","latitude":"48.45667","longitude":"4.1225","population":"580","region":"44","departement":"10","arrondissement":"103","commune":"10442"},
{"name":"Fontvannes","latitude":"48.27889","longitude":"3.87278","population":"579","region":"44","departement":"10","arrondissement":"103","commune":"10156"},
{"name":"Rouilly-Saint-Loup","latitude":"48.26278","longitude":"4.15056","population":"547","region":"44","departement":"10","arrondissement":"103","commune":"10329"},
{"name":"Bouranton","latitude":"48.31139","longitude":"4.18","population":"513","region":"44","departement":"10","arrondissement":"103","commune":"10053"},
{"name":"Laines-aux-Bois","latitude":"48.23333","longitude":"3.98778","population":"510","region":"44","departement":"10","arrondissement":"103","commune":"10186"},
{"name":"Villacerf","latitude":"48.39889","longitude":"3.99111","population":"502","region":"44","departement":"10","arrondissement":"103","commune":"10409"},
{"name":"Laubressel","latitude":"48.29889","longitude":"4.21194","population":"462","region":"44","departement":"10","arrondissement":"103","commune":"10190"},
{"name":"Ruvigny","latitude":"48.27278","longitude":"4.18389","population":"447","region":"44","departement":"10","arrondissement":"103","commune":"10332"},
{"name":"Messon","latitude":"48.265","longitude":"3.90667","population":"440","region":"44","departement":"10","arrondissement":"103","commune":"10240"},
{"name":"Luyères","latitude":"48.38222","longitude":"4.195","population":"433","region":"44","departement":"10","arrondissement":"103","commune":"10210"},
{"name":"Prugny","latitude":"48.24611","longitude":"3.94417","population":"420","region":"44","departement":"10","arrondissement":"103","commune":"10307"},
{"name":"Saint-Benoît-sur-Seine","latitude":"48.36972","longitude":"4.02944","population":"403","region":"44","departement":"10","arrondissement":"103","commune":"10336"},
{"name":"Montgueux","latitude":"48.30556","longitude":"3.95944","population":"402","region":"44","departement":"10","arrondissement":"103","commune":"10248"},
{"name":"Montsuzain","latitude":"48.44389","longitude":"4.13222","population":"342","region":"44","departement":"10","arrondissement":"103","commune":"10256"},
{"name":"Thennelières","latitude":"48.29","longitude":"4.17639","population":"336","region":"44","departement":"10","arrondissement":"103","commune":"10375"},
{"name":"Le Pavillon-Sainte-Julie","latitude":"48.37","longitude":"3.89944","population":"317","region":"44","departement":"10","arrondissement":"103","commune":"10281"},
{"name":"Vailly","latitude":"48.36944","longitude":"4.12194","population":"293","region":"44","departement":"10","arrondissement":"103","commune":"10391"},
{"name":"Feuges","latitude":"48.3975","longitude":"4.11","population":"255","region":"44","departement":"10","arrondissement":"103","commune":"10149"},
{"name":"Chauchigny","latitude":"48.42333","longitude":"3.96778","population":"253","region":"44","departement":"10","arrondissement":"102","commune":"10090"},
{"name":"Rilly-Sainte-Syre","latitude":"48.44389","longitude":"3.9575","population":"253","region":"44","departement":"10","arrondissement":"102","commune":"10320"},
{"name":"Aubeterre","latitude":"48.43","longitude":"4.12","population":"232","region":"44","departement":"10","arrondissement":"103","commune":"10015"},
{"name":"Chapelle-Vallon","latitude":"48.43556","longitude":"4.04","population":"213","region":"44","departement":"10","arrondissement":"102","commune":"10082"},
{"name":"Assencières","latitude":"48.35861","longitude":"4.19889","population":"191","region":"44","departement":"10","arrondissement":"103","commune":"10014"},
{"name":"Villeloup","latitude":"48.36111","longitude":"3.87444","population":"125","region":"44","departement":"10","arrondissement":"103","commune":"10414"}
]