[
{"name":"Sarlat-la-Canéda","latitude":"44.89","longitude":"1.21667","population":"9541","region":"75","departement":"24","arrondissement":"244","commune":"24520"},
{"name":"Montignac","latitude":"45.0666","longitude":"1.1618","population":"2851","region":"75","departement":"24","arrondissement":"244","commune":"24291"},
{"name":"Salignac-Eyvigues","latitude":"44.9748","longitude":"1.3238","population":"1141","region":"75","departement":"24","arrondissement":"244","commune":"24516"},
{"name":"Saint-Geniès","latitude":"44.99417","longitude":"1.25167","population":"941","region":"75","departement":"24","arrondissement":"244","commune":"24412"},
{"name":"Proissans","latitude":"44.93444","longitude":"1.2525","population":"894","region":"75","departement":"24","arrondissement":"244","commune":"24341"},
{"name":"Marcillac-Saint-Quentin","latitude":"44.9505","longitude":"1.214","population":"791","region":"75","departement":"24","arrondissement":"244","commune":"24252"},
{"name":"Saint-André-d'Allas","latitude":"44.88583","longitude":"1.16667","population":"772","region":"75","departement":"24","arrondissement":"244","commune":"24366"},
{"name":"Carlux","latitude":"44.88389","longitude":"1.35333","population":"641","region":"75","departement":"24","arrondissement":"244","commune":"24081"},
{"name":"Saint-Julien-de-Lampon","latitude":"44.86111","longitude":"1.36306","population":"613","region":"75","departement":"24","arrondissement":"244","commune":"24432"},
{"name":"Aubas","latitude":"45.08167","longitude":"1.19083","population":"612","region":"75","departement":"24","arrondissement":"244","commune":"24014"},
{"name":"Meyrals","latitude":"44.89889","longitude":"1.06389","population":"576","region":"75","departement":"24","arrondissement":"244","commune":"24268"},
{"name":"Sainte-Nathalène","latitude":"44.9055","longitude":"1.2869","population":"568","region":"75","departement":"24","arrondissement":"244","commune":"24471"},
{"name":"Marquay","latitude":"44.94361","longitude":"1.13389","population":"567","region":"75","departement":"24","arrondissement":"244","commune":"24255"},
{"name":"Calviac-en-Périgord","latitude":"44.8551","longitude":"1.3346","population":"512","region":"75","departement":"24","arrondissement":"244","commune":"24074"},
{"name":"Prats-de-Carlux","latitude":"44.90667","longitude":"1.31639","population":"508","region":"75","departement":"24","arrondissement":"244","commune":"24336"},
{"name":"Saint-Crépin-et-Carlucet","latitude":"44.96389","longitude":"1.27417","population":"493","region":"75","departement":"24","arrondissement":"244","commune":"24392"},
{"name":"La Chapelle-Aubareil","latitude":"45.0125","longitude":"1.1825","population":"471","region":"75","departement":"24","arrondissement":"244","commune":"24106"},
{"name":"Saint-Léon-sur-Vézère","latitude":"45.01056","longitude":"1.08861","population":"428","region":"75","departement":"24","arrondissement":"244","commune":"24443"},
{"name":"La Dornac","latitude":"45.08194","longitude":"1.35972","population":"408","region":"75","departement":"24","arrondissement":"244","commune":"24153"},
{"name":"Saint-Amand-de-Coly","latitude":"45.06361","longitude":"1.24722","population":"382","region":"75","departement":"24","arrondissement":"244","commune":"24364"},
{"name":"Saint-Vincent-de-Cosse","latitude":"44.84222","longitude":"1.11861","population":"374","region":"75","departement":"24","arrondissement":"244","commune":"24510"},
{"name":"Borrèze","latitude":"44.95472","longitude":"1.38833","population":"346","region":"75","departement":"24","arrondissement":"244","commune":"24050"},
{"name":"Archignac","latitude":"45.01111","longitude":"1.31194","population":"342","region":"75","departement":"24","arrondissement":"244","commune":"24012"},
{"name":"Nadaillac","latitude":"45.0387","longitude":"1.3985","population":"339","region":"75","departement":"24","arrondissement":"244","commune":"24301"},
{"name":"Tamniès","latitude":"44.96583","longitude":"1.14944","population":"335","region":"75","departement":"24","arrondissement":"244","commune":"24544"},
{"name":"Saint-Vincent-le-Paluel","latitude":"44.89194","longitude":"1.28583","population":"273","region":"75","departement":"24","arrondissement":"244","commune":"24512"},
{"name":"Paulin","latitude":"45.00194","longitude":"1.3475","population":"272","region":"75","departement":"24","arrondissement":"244","commune":"24317"},
{"name":"Valojoulx","latitude":"45.0189","longitude":"1.1438","population":"261","region":"75","departement":"24","arrondissement":"244","commune":"24563"},
{"name":"Thonac","latitude":"45.02222","longitude":"1.11722","population":"260","region":"75","departement":"24","arrondissement":"244","commune":"24552"},
{"name":"Sainte-Mondane","latitude":"44.84556","longitude":"1.33667","population":"243","region":"75","departement":"24","arrondissement":"244","commune":"24470"},
{"name":"Simeyrols","latitude":"44.90694","longitude":"1.33889","population":"235","region":"75","departement":"24","arrondissement":"244","commune":"24535"},
{"name":"Coly","latitude":"45.08611","longitude":"1.26806","population":"226","region":"75","departement":"24","arrondissement":"244","commune":"24127"},
{"name":"Sergeac","latitude":"45.0025","longitude":"1.10639","population":"205","region":"75","departement":"24","arrondissement":"244","commune":"24531"},
{"name":"Jayac","latitude":"45.03083","longitude":"1.34389","population":"191","region":"75","departement":"24","arrondissement":"244","commune":"24215"},
{"name":"Peyzac-le-Moustier","latitude":"44.99056","longitude":"1.07889","population":"161","region":"75","departement":"24","arrondissement":"244","commune":"24326"},
{"name":"La Cassagne","latitude":"45.04556","longitude":"1.31806","population":"158","region":"75","departement":"24","arrondissement":"244","commune":"24085"},
{"name":"Fanlac","latitude":"45.06583","longitude":"1.09583","population":"142","region":"75","departement":"24","arrondissement":"244","commune":"24174"},
{"name":"Bézenac","latitude":"44.84361","longitude":"1.09028","population":"131","region":"75","departement":"24","arrondissement":"244","commune":"24041"},
{"name":"Orliaguet","latitude":"44.91222","longitude":"1.36556","population":"90","region":"75","departement":"24","arrondissement":"244","commune":"24314"}
]