[
{"name":"Les Vans","latitude":"44.40528","longitude":"4.13194","population":"2805","region":"84","departement":"07","arrondissement":"071","commune":"07334"},
{"name":"Lablachère","latitude":"44.46361","longitude":"4.21444","population":"1852","region":"84","departement":"07","arrondissement":"071","commune":"07117"},
{"name":"Génolhac","latitude":"44.35","longitude":"3.95","population":"889","region":"76","departement":"30","arrondissement":"301","commune":"30130"},
{"name":"Saint-Paul-le-Jeune","latitude":"44.34028","longitude":"4.15361","population":"865","region":"84","departement":"07","arrondissement":"071","commune":"07280"},
{"name":"Banne","latitude":"44.36667","longitude":"4.15556","population":"672","region":"84","departement":"07","arrondissement":"071","commune":"07024"},
{"name":"Les Assions","latitude":"44.42139","longitude":"4.17389","population":"646","region":"84","departement":"07","arrondissement":"071","commune":"07017"},
{"name":"Berrias-et-Casteljau","latitude":"44.3745","longitude":"4.2011","population":"643","region":"84","departement":"07","arrondissement":"071","commune":"07031"},
{"name":"Chambonas","latitude":"44.41722","longitude":"4.12889","population":"627","region":"84","departement":"07","arrondissement":"071","commune":"07050"},
{"name":"Villefort","latitude":"44.43944","longitude":"3.93194","population":"618","region":"76","departement":"48","arrondissement":"482","commune":"48198"},
{"name":"Payzac","latitude":"44.45389","longitude":"4.15306","population":"507","region":"84","departement":"07","arrondissement":"071","commune":"07171"},
{"name":"Valgorge","latitude":"44.58722","longitude":"4.12889","population":"470","region":"84","departement":"07","arrondissement":"071","commune":"07329"},
{"name":"Gravières","latitude":"44.4213","longitude":"4.0922","population":"391","region":"84","departement":"07","arrondissement":"071","commune":"07100"},
{"name":"Ponteils-et-Brésis","latitude":"44.40222","longitude":"3.97667","population":"329","region":"76","departement":"30","arrondissement":"301","commune":"30201"},
{"name":"Les Salelles","latitude":"44.4339","longitude":"4.103","population":"307","region":"84","departement":"07","arrondissement":"071","commune":"07305"},
{"name":"Prévenchères","latitude":"44.52139","longitude":"3.90972","population":"266","region":"76","departement":"48","arrondissement":"482","commune":"48119"},
{"name":"Ribes","latitude":"44.4951","longitude":"4.2074","population":"266","region":"84","departement":"07","arrondissement":"071","commune":"07189"},
{"name":"Concoules","latitude":"44.38278","longitude":"3.93833","population":"252","region":"76","departement":"30","arrondissement":"301","commune":"30090"},
{"name":"Saint-Genest-de-Beauzon","latitude":"44.4429","longitude":"4.1876","population":"249","region":"84","departement":"07","arrondissement":"071","commune":"07238"},
{"name":"Rocles","latitude":"44.5626","longitude":"4.2164","population":"235","region":"84","departement":"07","arrondissement":"071","commune":"07196"},
{"name":"Malarce-sur-la-Thines","latitude":"44.4456","longitude":"4.0724","population":"231","region":"84","departement":"07","arrondissement":"071","commune":"07147"},
{"name":"Pied-de-Borne","latitude":"44.4753","longitude":"3.9851","population":"216","region":"76","departement":"48","arrondissement":"482","commune":"48015"},
{"name":"Beaumont","latitude":"44.5383","longitude":"4.1678","population":"212","region":"84","departement":"07","arrondissement":"071","commune":"07029"},
{"name":"Aujac","latitude":"44.34944","longitude":"4.01417","population":"180","region":"76","departement":"30","arrondissement":"301","commune":"30022"},
{"name":"Saint-André-Capcèze","latitude":"44.41694","longitude":"3.94861","population":"169","region":"76","departement":"48","arrondissement":"482","commune":"48135"},
{"name":"Malbosc","latitude":"44.34583","longitude":"4.07278","population":"152","region":"84","departement":"07","arrondissement":"071","commune":"07148"},
{"name":"Saint-Pierre-Saint-Jean","latitude":"44.4573","longitude":"4.1075","population":"149","region":"84","departement":"07","arrondissement":"071","commune":"07284"},
{"name":"Sablières","latitude":"44.532","longitude":"4.0751","population":"144","region":"84","departement":"07","arrondissement":"071","commune":"07202"},
{"name":"Laboule","latitude":"44.58806","longitude":"4.16583","population":"142","region":"84","departement":"07","arrondissement":"071","commune":"07118"},
{"name":"Planzolles","latitude":"44.48556","longitude":"4.15417","population":"138","region":"84","departement":"07","arrondissement":"071","commune":"07176"},
{"name":"Saint-Mélany","latitude":"44.5302","longitude":"4.1192","population":"128","region":"84","departement":"07","arrondissement":"071","commune":"07275"},
{"name":"Pourcharesses","latitude":"44.43404","longitude":"3.8987","population":"127","region":"76","departement":"48","arrondissement":"482","commune":"48117"},
{"name":"Saint-André-Lachamp","latitude":"44.505","longitude":"4.16361","population":"127","region":"84","departement":"07","arrondissement":"071","commune":"07213"},
{"name":"Malons-et-Elze","latitude":"44.4177","longitude":"4.0238","population":"99","region":"76","departement":"30","arrondissement":"301","commune":"30153"},
{"name":"Bonnevaux","latitude":"44.3673","longitude":"4.0319","population":"95","region":"76","departement":"30","arrondissement":"301","commune":"30044"},
{"name":"Montselgues","latitude":"44.52333","longitude":"4.005","population":"92","region":"84","departement":"07","arrondissement":"071","commune":"07163"},
{"name":"Faugères","latitude":"44.4753","longitude":"4.1363","population":"91","region":"84","departement":"07","arrondissement":"071","commune":"07088"},
{"name":"Dompnac","latitude":"44.5644","longitude":"4.1048","population":"88","region":"84","departement":"07","arrondissement":"071","commune":"07081"},
{"name":"Sainte-Marguerite-Lafigère","latitude":"44.478","longitude":"3.9887","population":"80","region":"84","departement":"07","arrondissement":"071","commune":"07266"},
{"name":"Laval-d'Aurelle","latitude":"44.5653","longitude":"3.9617","population":"58","region":"84","departement":"07","arrondissement":"071","commune":"07135"}
]