[
{"name":"Narbonne","latitude":"43.18472","longitude":"3.00361","population":"51227","region":"76","departement":"11","arrondissement":"113","commune":"11262"},
{"name":"Coursan","latitude":"43.2325","longitude":"3.05889","population":"6087","region":"76","departement":"11","arrondissement":"113","commune":"11106"},
{"name":"Gruissan","latitude":"43.10694","longitude":"3.08833","population":"4543","region":"76","departement":"11","arrondissement":"113","commune":"11170"},
{"name":"Cuxac-d'Aude","latitude":"43.24583","longitude":"2.99917","population":"4395","region":"76","departement":"11","arrondissement":"113","commune":"11116"},
{"name":"Nissan-lez-Enserune","latitude":"43.28833","longitude":"3.12861","population":"3526","region":"76","departement":"34","arrondissement":"341","commune":"34183"},
{"name":"Fleury","latitude":"43.2297","longitude":"3.1346","population":"3197","region":"76","departement":"11","arrondissement":"113","commune":"11145"},
{"name":"Salles-d'Aude","latitude":"43.23833","longitude":"3.11972","population":"2774","region":"76","departement":"11","arrondissement":"113","commune":"11370"},
{"name":"Sallèles-d'Aude","latitude":"43.25917","longitude":"2.94583","population":"2466","region":"76","departement":"11","arrondissement":"113","commune":"11369"},
{"name":"Vinassan","latitude":"43.20361","longitude":"3.07389","population":"2405","region":"76","departement":"11","arrondissement":"113","commune":"11441"},
{"name":"Colombiers","latitude":"43.31306","longitude":"3.14056","population":"2353","region":"76","departement":"34","arrondissement":"341","commune":"34081"},
{"name":"Ouveillan","latitude":"43.2882","longitude":"2.9717","population":"2233","region":"76","departement":"11","arrondissement":"113","commune":"11269"},
{"name":"Saint-Nazaire-d'Aude","latitude":"43.2441","longitude":"2.8952","population":"1849","region":"76","departement":"11","arrondissement":"113","commune":"11360"},
{"name":"Moussan","latitude":"43.23139","longitude":"2.95028","population":"1795","region":"76","departement":"11","arrondissement":"113","commune":"11258"},
{"name":"Argeliers","latitude":"43.31167","longitude":"2.91028","population":"1683","region":"76","departement":"11","arrondissement":"113","commune":"11012"},
{"name":"Saint-Marcel-sur-Aude","latitude":"43.2441","longitude":"2.9231","population":"1612","region":"76","departement":"11","arrondissement":"113","commune":"11353"},
{"name":"Armissan","latitude":"43.18722","longitude":"3.09667","population":"1547","region":"76","departement":"11","arrondissement":"113","commune":"11014"},
{"name":"Ginestas","latitude":"43.26806","longitude":"2.87167","population":"1353","region":"76","departement":"11","arrondissement":"113","commune":"11164"},
{"name":"Névian","latitude":"43.21194","longitude":"2.90306","population":"1350","region":"76","departement":"11","arrondissement":"113","commune":"11264"},
{"name":"Canet","latitude":"43.2288","longitude":"2.8475","population":"1327","region":"76","departement":"11","arrondissement":"113","commune":"11067"},
{"name":"Bizanet","latitude":"43.16417","longitude":"2.86972","population":"1294","region":"76","departement":"11","arrondissement":"113","commune":"11040"},
{"name":"Ornaisons","latitude":"43.18083","longitude":"2.8375","population":"1226","region":"76","departement":"11","arrondissement":"113","commune":"11267"},
{"name":"Montredon-des-Corbières","latitude":"43.191","longitude":"2.9267","population":"1195","region":"76","departement":"11","arrondissement":"113","commune":"11255"},
{"name":"Marcorignan","latitude":"43.22556","longitude":"2.92139","population":"1155","region":"76","departement":"11","arrondissement":"113","commune":"11217"},
{"name":"Saint-André-de-Roquelongue","latitude":"43.11389","longitude":"2.83694","population":"1092","region":"76","departement":"11","arrondissement":"113","commune":"11332"},
{"name":"Bize-Minervois","latitude":"43.31861","longitude":"2.87111","population":"1072","region":"76","departement":"11","arrondissement":"113","commune":"11041"},
{"name":"Peyriac-de-Mer","latitude":"43.08722","longitude":"2.95778","population":"997","region":"76","departement":"11","arrondissement":"113","commune":"11285"},
{"name":"Bages","latitude":"43.1235","longitude":"2.9915","population":"843","region":"76","departement":"11","arrondissement":"113","commune":"11024"},
{"name":"Mirepeisset","latitude":"43.28528","longitude":"2.89667","population":"745","region":"76","departement":"11","arrondissement":"113","commune":"11233"},
{"name":"Paraza","latitude":"43.24972","longitude":"2.83194","population":"598","region":"76","departement":"11","arrondissement":"113","commune":"11273"},
{"name":"Sainte-Valière","latitude":"43.272","longitude":"2.8421","population":"548","region":"76","departement":"11","arrondissement":"113","commune":"11366"},
{"name":"Poilhes","latitude":"43.3075","longitude":"3.07722","population":"538","region":"76","departement":"34","arrondissement":"341","commune":"34206"},
{"name":"Ventenac-en-Minervois","latitude":"43.2486","longitude":"2.8601","population":"525","region":"76","departement":"11","arrondissement":"113","commune":"11405"},
{"name":"Cruscades","latitude":"43.19111","longitude":"2.81667","population":"513","region":"76","departement":"11","arrondissement":"113","commune":"11111"},
{"name":"Villedaigne","latitude":"43.21528","longitude":"2.86056","population":"459","region":"76","departement":"11","arrondissement":"113","commune":"11421"},
{"name":"Mailhac","latitude":"43.30389","longitude":"2.8275","population":"455","region":"76","departement":"11","arrondissement":"113","commune":"11212"},
{"name":"Pouzols-Minervois","latitude":"43.28722","longitude":"2.825","population":"412","region":"76","departement":"11","arrondissement":"113","commune":"11296"},
{"name":"Raissac-d'Aude","latitude":"43.22861","longitude":"2.88","population":"246","region":"76","departement":"11","arrondissement":"113","commune":"11307"},
{"name":"Montels","latitude":"43.29472","longitude":"3.03","population":"234","region":"76","departement":"34","arrondissement":"341","commune":"34167"}
]