[
{"name":"Béziers","latitude":"43.34333","longitude":"3.21611","population":"70957","region":"76","departement":"34","arrondissement":"341","commune":"34032"},
{"name":"Pézenas","latitude":"43.45944","longitude":"3.42278","population":"8345","region":"76","departement":"34","arrondissement":"341","commune":"34199"},
{"name":"Florensac","latitude":"43.38278","longitude":"3.465","population":"4757","region":"76","departement":"34","arrondissement":"341","commune":"34101"},
{"name":"Bessan","latitude":"43.36139","longitude":"3.42417","population":"4518","region":"76","departement":"34","arrondissement":"341","commune":"34031"},
{"name":"Servian","latitude":"43.4268","longitude":"3.2993","population":"4190","region":"76","departement":"34","arrondissement":"341","commune":"34300"},
{"name":"Montagnac","latitude":"43.48083","longitude":"3.48306","population":"3582","region":"76","departement":"34","arrondissement":"341","commune":"34162"},
{"name":"Paulhan","latitude":"43.54083","longitude":"3.45889","population":"3563","region":"76","departement":"34","arrondissement":"342","commune":"34194"},
{"name":"Boujan-sur-Libron","latitude":"43.3725","longitude":"3.24889","population":"3106","region":"76","departement":"34","arrondissement":"341","commune":"34037"},
{"name":"Lignan-sur-Orb","latitude":"43.38389","longitude":"3.17028","population":"2906","region":"76","departement":"34","arrondissement":"341","commune":"34140"},
{"name":"Magalas","latitude":"43.47111","longitude":"3.22194","population":"2835","region":"76","departement":"34","arrondissement":"341","commune":"34147"},
{"name":"Thézan-lès-Béziers","latitude":"43.42167","longitude":"3.16972","population":"2610","region":"76","departement":"34","arrondissement":"341","commune":"34310"},
{"name":"Montblanc","latitude":"43.39639","longitude":"3.36722","population":"2570","region":"76","departement":"34","arrondissement":"341","commune":"34166"},
{"name":"Caux","latitude":"43.50722","longitude":"3.36889","population":"2528","region":"76","departement":"34","arrondissement":"341","commune":"34063"},
{"name":"Saint-Thibéry","latitude":"43.39667","longitude":"3.41667","population":"2356","region":"76","departement":"34","arrondissement":"341","commune":"34289"},
{"name":"Pomérols","latitude":"43.39083","longitude":"3.49861","population":"2133","region":"76","departement":"34","arrondissement":"341","commune":"34207"},
{"name":"Roujan","latitude":"43.5051","longitude":"3.311","population":"1940","region":"76","departement":"34","arrondissement":"341","commune":"34237"},
{"name":"Bassan","latitude":"43.4115","longitude":"3.2543","population":"1607","region":"76","departement":"34","arrondissement":"341","commune":"34025"},
{"name":"Corneilhan","latitude":"43.4","longitude":"3.1925","population":"1570","region":"76","departement":"34","arrondissement":"341","commune":"34084"},
{"name":"Alignan-du-Vent","latitude":"43.46972","longitude":"3.34194","population":"1518","region":"76","departement":"34","arrondissement":"341","commune":"34009"},
{"name":"Tourbes","latitude":"43.44556","longitude":"3.37861","population":"1489","region":"76","departement":"34","arrondissement":"341","commune":"34311"},
{"name":"Nézignan-l'Évêque","latitude":"43.42111","longitude":"3.40639","population":"1423","region":"76","departement":"34","arrondissement":"341","commune":"34182"},
{"name":"Lézignan-la-Cèbe","latitude":"43.49306","longitude":"3.43722","population":"1373","region":"76","departement":"34","arrondissement":"341","commune":"34136"},
{"name":"Aspiran","latitude":"43.56586","longitude":"3.45026","population":"1367","region":"76","departement":"34","arrondissement":"342","commune":"34013"},
{"name":"Pinet","latitude":"43.40472","longitude":"3.50944","population":"1351","region":"76","departement":"34","arrondissement":"341","commune":"34203"},
{"name":"Saint-Geniès-de-Fontedit","latitude":"43.4682","longitude":"3.1796","population":"1351","region":"76","departement":"34","arrondissement":"341","commune":"34258"},
{"name":"Laurens","latitude":"43.52306","longitude":"3.19722","population":"1349","region":"76","departement":"34","arrondissement":"341","commune":"34130"},
{"name":"Abeilhan","latitude":"43.44972","longitude":"3.29472","population":"1327","region":"76","departement":"34","arrondissement":"341","commune":"34001"},
{"name":"Lieuran-lès-Béziers","latitude":"43.41833","longitude":"3.23722","population":"1277","region":"76","departement":"34","arrondissement":"341","commune":"34139"},
{"name":"Valros","latitude":"43.42028","longitude":"3.36639","population":"1269","region":"76","departement":"34","arrondissement":"341","commune":"34325"},
{"name":"Castelnau-de-Guers","latitude":"43.43472","longitude":"3.43861","population":"1115","region":"76","departement":"34","arrondissement":"341","commune":"34056"},
{"name":"Puissalicon","latitude":"43.45778","longitude":"3.23583","population":"1062","region":"76","departement":"34","arrondissement":"341","commune":"34224"},
{"name":"Pouzolles","latitude":"43.48333","longitude":"3.27917","population":"1045","region":"76","departement":"34","arrondissement":"341","commune":"34214"},
{"name":"Puimisson","latitude":"43.44","longitude":"3.20722","population":"988","region":"76","departement":"34","arrondissement":"341","commune":"34223"},
{"name":"Neffiès","latitude":"43.53361","longitude":"3.33","population":"950","region":"76","departement":"34","arrondissement":"341","commune":"34181"},
{"name":"Espondeilhan","latitude":"43.44","longitude":"3.2625","population":"946","region":"76","departement":"34","arrondissement":"341","commune":"34094"},
{"name":"Fontès","latitude":"43.53972","longitude":"3.37917","population":"938","region":"76","departement":"34","arrondissement":"341","commune":"34103"},
{"name":"Adissan","latitude":"43.53528","longitude":"3.42833","population":"936","region":"76","departement":"34","arrondissement":"341","commune":"34002"},
{"name":"Autignac","latitude":"43.49889","longitude":"3.16917","population":"836","region":"76","departement":"34","arrondissement":"341","commune":"34018"},
{"name":"Péret","latitude":"43.575","longitude":"3.39722","population":"834","region":"76","departement":"34","arrondissement":"341","commune":"34197"},
{"name":"Gabian","latitude":"43.5132","longitude":"3.2732","population":"810","region":"76","departement":"34","arrondissement":"341","commune":"34109"},
{"name":"Saint-Pons-de-Mauchiens","latitude":"43.51333","longitude":"3.51417","population":"638","region":"76","departement":"34","arrondissement":"341","commune":"34285"},
{"name":"Nizas","latitude":"43.51306","longitude":"3.40778","population":"579","region":"76","departement":"34","arrondissement":"341","commune":"34184"},
{"name":"Campagnan","latitude":"43.53722","longitude":"3.49806","population":"546","region":"76","departement":"34","arrondissement":"342","commune":"34047"},
{"name":"Faugères","latitude":"43.56556","longitude":"3.18917","population":"535","region":"76","departement":"34","arrondissement":"341","commune":"34096"},
{"name":"Tressan","latitude":"43.57444","longitude":"3.49","population":"522","region":"76","departement":"34","arrondissement":"342","commune":"34313"},
{"name":"Margon","latitude":"43.48694","longitude":"3.30694","population":"473","region":"76","departement":"34","arrondissement":"341","commune":"34149"},
{"name":"Pailhès","latitude":"43.43056","longitude":"3.18694","population":"469","region":"76","departement":"34","arrondissement":"341","commune":"34191"},
{"name":"Cabrières","latitude":"43.57694","longitude":"3.3625","population":"467","region":"76","departement":"34","arrondissement":"341","commune":"34045"},
{"name":"Bélarga","latitude":"43.5525","longitude":"3.48694","population":"438","region":"76","departement":"34","arrondissement":"342","commune":"34029"},
{"name":"Aumes","latitude":"43.46611","longitude":"3.46306","population":"430","region":"76","departement":"34","arrondissement":"341","commune":"34017"},
{"name":"Puilacher","latitude":"43.5675","longitude":"3.50694","population":"341","region":"76","departement":"34","arrondissement":"342","commune":"34222"},
{"name":"Coulobres","latitude":"43.44972","longitude":"3.27944","population":"328","region":"76","departement":"34","arrondissement":"341","commune":"34085"},
{"name":"Cazouls-d'Hérault","latitude":"43.506","longitude":"3.4577","population":"311","region":"76","departement":"34","arrondissement":"341","commune":"34068"},
{"name":"Usclas-d'Hérault","latitude":"43.5186","longitude":"3.4649","population":"274","region":"76","departement":"34","arrondissement":"341","commune":"34315"},
{"name":"Fouzilhon","latitude":"43.50139","longitude":"3.24472","population":"210","region":"76","departement":"34","arrondissement":"341","commune":"34105"},
{"name":"Vailhan","latitude":"43.5525","longitude":"3.30278","population":"166","region":"76","departement":"34","arrondissement":"341","commune":"34319"},
{"name":"Roquessels","latitude":"43.55194","longitude":"3.22333","population":"129","region":"76","departement":"34","arrondissement":"341","commune":"34234"},
{"name":"Fos","latitude":"43.56611","longitude":"3.24583","population":"110","region":"76","departement":"34","arrondissement":"341","commune":"34104"},
{"name":"Montesquieu","latitude":"43.56167","longitude":"3.27583","population":"62","region":"76","departement":"34","arrondissement":"341","commune":"34168"}
]