[
{"name":"Saint-Médard-en-Jalles","latitude":"44.89556","longitude":"-0.7175","population":"27332","region":"75","departement":"33","arrondissement":"332","commune":"33449"},
{"name":"La Teste-de-Buch","latitude":"44.6325","longitude":"-1.145","population":"24597","region":"75","departement":"33","arrondissement":"336","commune":"33529"},
{"name":"Gujan-Mestras","latitude":"44.63528","longitude":"-1.06778","population":"18794","region":"75","departement":"33","arrondissement":"336","commune":"33199"},
{"name":"Arcachon","latitude":"44.65861","longitude":"-1.16889","population":"11441","region":"75","departement":"33","arrondissement":"336","commune":"33009"},
{"name":"Andernos-les-Bains","latitude":"44.7425","longitude":"-1.09028","population":"11043","region":"75","departement":"33","arrondissement":"336","commune":"33005"},
{"name":"Biganos","latitude":"44.64417","longitude":"-0.97833","population":"9464","region":"75","departement":"33","arrondissement":"336","commune":"33051"},
{"name":"Lège-Cap-Ferret","latitude":"44.793","longitude":"-1.1458","population":"7527","region":"75","departement":"33","arrondissement":"336","commune":"33236"},
{"name":"Martignas-sur-Jalle","latitude":"44.84056","longitude":"-0.77556","population":"7079","region":"75","departement":"33","arrondissement":"332","commune":"33273"},
{"name":"Mios","latitude":"44.605","longitude":"-0.93694","population":"6891","region":"75","departement":"33","arrondissement":"336","commune":"33284"},
{"name":"Saint-Jean-d'Illac","latitude":"44.80972","longitude":"-0.78361","population":"6826","region":"75","departement":"33","arrondissement":"332","commune":"33422"},
{"name":"Le Teich","latitude":"44.63389","longitude":"-1.02361","population":"6485","region":"75","departement":"33","arrondissement":"336","commune":"33527"},
{"name":"Lanton","latitude":"44.70389","longitude":"-1.03528","population":"6162","region":"75","departement":"33","arrondissement":"336","commune":"33229"},
{"name":"Saint-Aubin-de-Médoc","latitude":"44.9118","longitude":"-0.7246","population":"5989","region":"75","departement":"33","arrondissement":"332","commune":"33376"},
{"name":"Audenge","latitude":"44.68361","longitude":"-1.01333","population":"5813","region":"75","departement":"33","arrondissement":"336","commune":"33019"},
{"name":"Arès","latitude":"44.765","longitude":"-1.13667","population":"5548","region":"75","departement":"33","arrondissement":"336","commune":"33011"}
]