[
{"name":"Strasbourg","latitude":"48.58361","longitude":"7.74806","population":"271708","region":"44","departement":"67","arrondissement":"678","commune":"67482"},
{"name":"Haguenau","latitude":"48.81667","longitude":"7.78778","population":"34648","region":"44","departement":"67","arrondissement":"672","commune":"67180"},
{"name":"Schiltigheim","latitude":"48.60694","longitude":"7.74917","population":"31148","region":"44","departement":"67","arrondissement":"676","commune":"67447"},
{"name":"Bischheim","latitude":"48.61389","longitude":"7.75194","population":"17777","region":"44","departement":"67","arrondissement":"676","commune":"67043"},
{"name":"Bischwiller","latitude":"48.76639","longitude":"7.85694","population":"12646","region":"44","departement":"67","arrondissement":"672","commune":"67046"},
{"name":"HÅ“nheim","latitude":"48.62417","longitude":"7.75472","population":"10468","region":"44","departement":"67","arrondissement":"676","commune":"67204"},
{"name":"Souffelweyersheim","latitude":"48.63546","longitude":"7.74038","population":"7302","region":"44","departement":"67","arrondissement":"676","commune":"67471"},
{"name":"La Wantzenau","latitude":"48.65806","longitude":"7.82833","population":"5963","region":"44","departement":"67","arrondissement":"676","commune":"67519"}
]