[
{"name":"Lyon","latitude":"45.75889","longitude":"4.84139","population":"480778","region":"84","departement":"69","arrondissement":"691","commune":"69123"},
{"name":"Villeurbanne","latitude":"45.76611","longitude":"4.87944","population":"144751","region":"84","departement":"69","arrondissement":"691","commune":"69266"},
{"name":"Vénissieux","latitude":"45.69694","longitude":"4.88583","population":"58643","region":"84","departement":"69","arrondissement":"691","commune":"69259"},
{"name":"Caluire-et-Cuire","latitude":"45.79472","longitude":"4.84639","population":"41149","region":"84","departement":"69","arrondissement":"691","commune":"69034"},
{"name":"Bron","latitude":"45.73861","longitude":"4.91306","population":"38827","region":"84","departement":"69","arrondissement":"691","commune":"69029"},
{"name":"Villefranche-sur-Saône","latitude":"45.98944","longitude":"4.71972","population":"34686","region":"84","departement":"69","arrondissement":"692","commune":"69264"},
{"name":"Rillieux-la-Pape","latitude":"45.8208","longitude":"4.8977","population":"29990","region":"84","departement":"69","arrondissement":"691","commune":"69286"},
{"name":"Oullins","latitude":"45.71417","longitude":"4.8075","population":"25347","region":"84","departement":"69","arrondissement":"691","commune":"69149"},
{"name":"Sainte-Foy-lès-Lyon","latitude":"45.73361","longitude":"4.8025","population":"22015","region":"84","departement":"69","arrondissement":"691","commune":"69202"},
{"name":"Saint-Genis-Laval","latitude":"45.6957","longitude":"4.7933","population":"20116","region":"84","departement":"69","arrondissement":"691","commune":"69204"},
{"name":"Givors","latitude":"45.59056","longitude":"4.76889","population":"19301","region":"84","departement":"69","arrondissement":"691","commune":"69091"},
{"name":"Tassin-la-Demi-Lune","latitude":"45.76333","longitude":"4.78","population":"18967","region":"84","departement":"69","arrondissement":"691","commune":"69244"},
{"name":"Écully","latitude":"45.77444","longitude":"4.7775","population":"18071","region":"84","departement":"69","arrondissement":"691","commune":"69081"},
{"name":"Saint-Fons","latitude":"45.70861","longitude":"4.85333","population":"16690","region":"84","departement":"69","arrondissement":"691","commune":"69199"},
{"name":"Francheville","latitude":"45.73639","longitude":"4.76361","population":"12633","region":"84","departement":"69","arrondissement":"691","commune":"69089"},
{"name":"Brignais","latitude":"45.67389","longitude":"4.75417","population":"11372","region":"84","departement":"69","arrondissement":"691","commune":"69027"},
{"name":"Tarare","latitude":"45.89611","longitude":"4.43306","population":"10180","region":"84","departement":"69","arrondissement":"692","commune":"69243"},
{"name":"Pierre-Bénite","latitude":"45.70361","longitude":"4.82417","population":"9916","region":"84","departement":"69","arrondissement":"691","commune":"69152"},
{"name":"Corbas","latitude":"45.66806","longitude":"4.90194","population":"9798","region":"84","departement":"69","arrondissement":"691","commune":"69273"},
{"name":"Feyzin","latitude":"45.67278","longitude":"4.85889","population":"9150","region":"84","departement":"69","arrondissement":"691","commune":"69276"},
{"name":"Craponne","latitude":"45.7452","longitude":"4.724","population":"8895","region":"84","departement":"69","arrondissement":"691","commune":"69069"},
{"name":"Grigny","latitude":"45.60833","longitude":"4.78972","population":"8777","region":"84","departement":"69","arrondissement":"691","commune":"69096"},
{"name":"Dardilly","latitude":"45.80556","longitude":"4.75306","population":"8384","region":"84","departement":"69","arrondissement":"691","commune":"69072"},
{"name":"Irigny","latitude":"45.67306","longitude":"4.8225","population":"8285","region":"84","departement":"69","arrondissement":"691","commune":"69100"},
{"name":"Chaponost","latitude":"45.7101","longitude":"4.7429","population":"8048","region":"84","departement":"69","arrondissement":"691","commune":"69043"},
{"name":"Feurs","latitude":"45.74083","longitude":"4.22583","population":"7741","region":"84","departement":"42","arrondissement":"421","commune":"42094"},
{"name":"Gleizé","latitude":"45.98917","longitude":"4.69694","population":"7675","region":"84","departement":"69","arrondissement":"692","commune":"69092"},
{"name":"Neuville-sur-Saône","latitude":"45.87611","longitude":"4.84111","population":"7319","region":"84","departement":"69","arrondissement":"691","commune":"69143"},
{"name":"Trévoux","latitude":"45.94083","longitude":"4.775","population":"6746","region":"84","departement":"01","arrondissement":"012","commune":"01427"},
{"name":"La Mulatière","latitude":"45.72806","longitude":"4.81222","population":"6496","region":"84","departement":"69","arrondissement":"691","commune":"69142"},
{"name":"Saint-Didier-au-Mont-d'Or","latitude":"45.8109","longitude":"4.7987","population":"6428","region":"84","departement":"69","arrondissement":"691","commune":"69194"},
{"name":"Fontaines-sur-Saône","latitude":"45.83583","longitude":"4.845","population":"6303","region":"84","departement":"69","arrondissement":"691","commune":"69088"},
{"name":"L'Arbresle","latitude":"45.83556","longitude":"4.61694","population":"6039","region":"84","departement":"69","arrondissement":"691","commune":"69010"},
{"name":"Jassans-Riottier","latitude":"45.98556","longitude":"4.75667","population":"5955","region":"84","departement":"01","arrondissement":"012","commune":"01194"},
{"name":"Saint-Cyr-au-Mont-d'Or","latitude":"45.8145","longitude":"4.8185","population":"5640","region":"84","departement":"69","arrondissement":"691","commune":"69191"},
{"name":"Anse","latitude":"45.93556","longitude":"4.71944","population":"5604","region":"84","departement":"69","arrondissement":"692","commune":"69009"},
{"name":"Saint-Galmier","latitude":"45.59","longitude":"4.31722","population":"5596","region":"84","departement":"42","arrondissement":"421","commune":"42222"},
{"name":"Mornant","latitude":"45.61889","longitude":"4.67222","population":"5438","region":"84","departement":"69","arrondissement":"691","commune":"69141"},
{"name":"Brindas","latitude":"45.72111","longitude":"4.69361","population":"5434","region":"84","departement":"69","arrondissement":"691","commune":"69028"},
{"name":"Lentilly","latitude":"45.81861","longitude":"4.66306","population":"5296","region":"84","departement":"69","arrondissement":"691","commune":"69112"},
{"name":"Saint-Symphorien-d'Ozon","latitude":"45.63278","longitude":"4.85639","population":"5236","region":"84","departement":"69","arrondissement":"691","commune":"69291"},
{"name":"Ternay","latitude":"45.6021","longitude":"4.8113","population":"5230","region":"84","departement":"69","arrondissement":"691","commune":"69297"},
{"name":"Amplepuis","latitude":"45.9729","longitude":"4.3307","population":"5199","region":"84","departement":"69","arrondissement":"692","commune":"69006"},
{"name":"Chazelles-sur-Lyon","latitude":"45.63861","longitude":"4.39194","population":"5097","region":"84","departement":"42","arrondissement":"421","commune":"42059"}
]