[
{"name":"Longwy","latitude":"49.51972","longitude":"5.76056","population":"14354","region":"44","departement":"54","arrondissement":"541","commune":"54323"},
{"name":"Villerupt","latitude":"49.46972","longitude":"5.92861","population":"9450","region":"44","departement":"54","arrondissement":"541","commune":"54580"},
{"name":"Mont-Saint-Martin","latitude":"49.54056","longitude":"5.77944","population":"8080","region":"44","departement":"54","arrondissement":"541","commune":"54382"},
{"name":"Hettange-Grande","latitude":"49.40583","longitude":"6.15306","population":"7452","region":"44","departement":"57","arrondissement":"577","commune":"57323"},
{"name":"Audun-le-Tiche","latitude":"49.47333","longitude":"5.95778","population":"6152","region":"44","departement":"57","arrondissement":"578","commune":"57038"}
]