[
{"name":"Voiron","latitude":"45.36333","longitude":"5.59","population":"20206","region":"84","departement":"38","arrondissement":"381","commune":"38563"},
{"name":"Saint-Marcellin","latitude":"45.15167","longitude":"5.31972","population":"8041","region":"84","departement":"38","arrondissement":"381","commune":"38416"},
{"name":"La Tour-du-Pin","latitude":"45.56583","longitude":"5.445","population":"7793","region":"84","departement":"38","arrondissement":"382","commune":"38509"},
{"name":"Moirans","latitude":"45.325","longitude":"5.56444","population":"7754","region":"84","departement":"38","arrondissement":"381","commune":"38239"},
{"name":"Tullins","latitude":"45.2975","longitude":"5.48333","population":"7652","region":"84","departement":"38","arrondissement":"381","commune":"38517"},
{"name":"Rives","latitude":"45.35083","longitude":"5.50222","population":"6078","region":"84","departement":"38","arrondissement":"381","commune":"38337"}
]