[
{"name":"Boulogne-Billancourt","latitude":"48.83528","longitude":"2.24139","population":"113085","region":"11","departement":"92","arrondissement":"923","commune":"92012"},
{"name":"Montreuil","latitude":"48.86028","longitude":"2.44306","population":"103192","region":"11","departement":"93","arrondissement":"931","commune":"93048"},
{"name":"Nanterre","latitude":"48.89056","longitude":"2.20361","population":"89966","region":"11","departement":"92","arrondissement":"922","commune":"92050"},
{"name":"Créteil","latitude":"48.79056","longitude":"2.46194","population":"89359","region":"11","departement":"94","arrondissement":"941","commune":"94028"},
{"name":"Courbevoie","latitude":"48.89722","longitude":"2.25222","population":"86945","region":"11","departement":"92","arrondissement":"922","commune":"92026"},
{"name":"Versailles","latitude":"48.80472","longitude":"2.13417","population":"86477","region":"11","departement":"78","arrondissement":"784","commune":"78646"},
{"name":"Vitry-sur-Seine","latitude":"48.7875","longitude":"2.39278","population":"85380","region":"11","departement":"94","arrondissement":"941","commune":"94081"},
{"name":"Asnières-sur-Seine","latitude":"48.91111","longitude":"2.28556","population":"81603","region":"11","departement":"92","arrondissement":"922","commune":"92004"},
{"name":"Rueil-Malmaison","latitude":"48.87778","longitude":"2.18833","population":"79065","region":"11","departement":"92","arrondissement":"922","commune":"92063"},
{"name":"Saint-Maur-des-Fossés","latitude":"48.79861","longitude":"2.49889","population":"75251","region":"11","departement":"94","arrondissement":"941","commune":"94068"},
{"name":"Champigny-sur-Marne","latitude":"48.81722","longitude":"2.51556","population":"75090","region":"11","departement":"94","arrondissement":"942","commune":"94017"},
{"name":"Aubervilliers","latitude":"48.91111","longitude":"2.3825","population":"74701","region":"11","departement":"93","arrondissement":"933","commune":"93001"},
{"name":"Issy-les-Moulineaux","latitude":"48.82306","longitude":"2.26917","population":"64027","region":"11","departement":"92","arrondissement":"923","commune":"92040"},
{"name":"Levallois-Perret","latitude":"48.89333","longitude":"2.28778","population":"63436","region":"11","departement":"92","arrondissement":"922","commune":"92044"},
{"name":"Noisy-le-Grand","latitude":"48.84389","longitude":"2.55806","population":"63405","region":"11","departement":"93","arrondissement":"932","commune":"93051"},
{"name":"Antony","latitude":"48.75333","longitude":"2.29667","population":"61393","region":"11","departement":"92","arrondissement":"921","commune":"92002"},
{"name":"Neuilly-sur-Seine","latitude":"48.88722","longitude":"2.2675","population":"60501","region":"11","departement":"92","arrondissement":"922","commune":"92051"},
{"name":"Clichy","latitude":"48.90361","longitude":"2.30556","population":"58200","region":"11","departement":"92","arrondissement":"922","commune":"92024"},
{"name":"Ivry-sur-Seine","latitude":"48.81389","longitude":"2.38778","population":"57254","region":"11","departement":"94","arrondissement":"941","commune":"94041"},
{"name":"Villejuif","latitude":"48.79389","longitude":"2.36111","population":"55250","region":"11","departement":"94","arrondissement":"943","commune":"94076"},
{"name":"Bondy","latitude":"48.90278","longitude":"2.48361","population":"53448","region":"11","departement":"93","arrondissement":"931","commune":"93010"},
{"name":"Fontenay-sous-Bois","latitude":"48.85167","longitude":"2.47722","population":"53258","region":"11","departement":"94","arrondissement":"942","commune":"94033"},
{"name":"Chelles","latitude":"48.87861","longitude":"2.58889","population":"52636","region":"11","departement":"77","arrondissement":"775","commune":"77108"},
{"name":"Maisons-Alfort","latitude":"48.80583","longitude":"2.43778","population":"52619","region":"11","departement":"94","arrondissement":"941","commune":"94046"},
{"name":"Clamart","latitude":"48.80083","longitude":"2.26194","population":"52569","region":"11","departement":"92","arrondissement":"921","commune":"92023"},
{"name":"Évry","latitude":"48.63389","longitude":"2.44417","population":"52403","region":"11","departement":"91","arrondissement":"912","commune":"91228"},
{"name":"Pantin","latitude":"48.89806","longitude":"2.40722","population":"52161","region":"11","departement":"93","arrondissement":"931","commune":"93055"},
{"name":"Vincennes","latitude":"48.84778","longitude":"2.43917","population":"48689","region":"11","departement":"94","arrondissement":"942","commune":"94080"},
{"name":"Bobigny","latitude":"48.90972","longitude":"2.43861","population":"48503","region":"11","departement":"93","arrondissement":"931","commune":"93008"},
{"name":"Montrouge","latitude":"48.81639","longitude":"2.32111","population":"48410","region":"11","departement":"92","arrondissement":"921","commune":"92049"},
{"name":"Saint-Ouen","latitude":"48.90694","longitude":"2.33306","population":"46510","region":"11","departement":"93","arrondissement":"933","commune":"93070"},
{"name":"Suresnes","latitude":"48.87111","longitude":"2.22694","population":"46053","region":"11","departement":"92","arrondissement":"922","commune":"92073"},
{"name":"Puteaux","latitude":"48.88417","longitude":"2.23806","population":"44892","region":"11","departement":"92","arrondissement":"922","commune":"92062"},
{"name":"Meudon","latitude":"48.8075","longitude":"2.24028","population":"44717","region":"11","departement":"92","arrondissement":"923","commune":"92048"},
{"name":"Alfortville","latitude":"48.7975","longitude":"2.42417","population":"44278","region":"11","departement":"94","arrondissement":"941","commune":"94002"},
{"name":"Corbeil-Essonnes","latitude":"48.61028","longitude":"2.47472","population":"42456","region":"11","departement":"91","arrondissement":"912","commune":"91174"},
{"name":"Livry-Gargan","latitude":"48.91833","longitude":"2.53528","population":"41206","region":"11","departement":"93","arrondissement":"932","commune":"93046"},
{"name":"Saint-Germain-en-Laye","latitude":"48.89639","longitude":"2.09056","population":"40945","region":"11","departement":"78","arrondissement":"783","commune":"78551"},
{"name":"Rosny-sous-Bois","latitude":"48.87306","longitude":"2.48528","population":"40867","region":"11","departement":"93","arrondissement":"931","commune":"93064"},
{"name":"Massy","latitude":"48.73056","longitude":"2.27639","population":"40523","region":"11","departement":"91","arrondissement":"913","commune":"91377"},
{"name":"Choisy-le-Roi","latitude":"48.76639","longitude":"2.40778","population":"39400","region":"11","departement":"94","arrondissement":"941","commune":"94022"},
{"name":"Melun","latitude":"48.53972","longitude":"2.65917","population":"39400","region":"11","departement":"77","arrondissement":"772","commune":"77288"},
{"name":"Noisy-le-Sec","latitude":"48.89083","longitude":"2.45361","population":"39270","region":"11","departement":"93","arrondissement":"931","commune":"93053"},
{"name":"Chartres","latitude":"48.44667","longitude":"1.48833","population":"39122","region":"24","departement":"28","arrondissement":"281","commune":"28085"},
{"name":"Gagny","latitude":"48.88167","longitude":"2.53889","population":"38765","region":"11","departement":"93","arrondissement":"932","commune":"93032"},
{"name":"Bagneux","latitude":"48.79778","longitude":"2.3125","population":"38495","region":"11","departement":"92","arrondissement":"921","commune":"92007"},
{"name":"Savigny-sur-Orge","latitude":"48.67389","longitude":"2.3525","population":"37092","region":"11","departement":"91","arrondissement":"913","commune":"91589"},
{"name":"Pontault-Combault","latitude":"48.798","longitude":"2.6063","population":"35252","region":"11","departement":"77","arrondissement":"775","commune":"77373"},
{"name":"Sainte-Geneviève-des-Bois","latitude":"48.63778","longitude":"2.33222","population":"34054","region":"11","departement":"91","arrondissement":"913","commune":"91549"},
{"name":"Bagnolet","latitude":"48.86667","longitude":"2.41667","population":"33839","region":"11","departement":"93","arrondissement":"931","commune":"93006"},
{"name":"Montigny-le-Bretonneux","latitude":"48.77056","longitude":"2.0325","population":"33691","region":"11","departement":"78","arrondissement":"784","commune":"78423"},
{"name":"Neuilly-sur-Marne","latitude":"48.85778","longitude":"2.53111","population":"33157","region":"11","departement":"93","arrondissement":"932","commune":"93050"},
{"name":"Châtillon","latitude":"48.80111","longitude":"2.28861","population":"32448","region":"11","departement":"92","arrondissement":"921","commune":"92020"},
{"name":"Châtenay-Malabry","latitude":"48.76528","longitude":"2.27806","population":"32386","region":"11","departement":"92","arrondissement":"921","commune":"92019"},
{"name":"Le Perreux-sur-Marne","latitude":"48.84222","longitude":"2.50361","population":"32194","region":"11","departement":"94","arrondissement":"942","commune":"94058"},
{"name":"Viry-Châtillon","latitude":"48.66944","longitude":"2.37583","population":"31630","region":"11","departement":"91","arrondissement":"912","commune":"91687"},
{"name":"Villeneuve-Saint-Georges","latitude":"48.73333","longitude":"2.45","population":"31013","region":"11","departement":"94","arrondissement":"941","commune":"94078"},
{"name":"Malakoff","latitude":"48.81667","longitude":"2.3","population":"30988","region":"11","departement":"92","arrondissement":"921","commune":"92046"},
{"name":"Nogent-sur-Marne","latitude":"48.83667","longitude":"2.4825","population":"30956","region":"11","departement":"94","arrondissement":"942","commune":"94052"},
{"name":"Plaisir","latitude":"48.81778","longitude":"1.94639","population":"30709","region":"11","departement":"78","arrondissement":"784","commune":"78490"},
{"name":"Athis-Mons","latitude":"48.70861","longitude":"2.38917","population":"30644","region":"11","departement":"91","arrondissement":"913","commune":"91027"},
{"name":"Palaiseau","latitude":"48.71833","longitude":"2.24972","population":"30311","region":"11","departement":"91","arrondissement":"913","commune":"91477"},
{"name":"Clichy-sous-Bois","latitude":"48.90917","longitude":"2.54722","population":"29962","region":"11","departement":"93","arrondissement":"932","commune":"93014"},
{"name":"Chatou","latitude":"48.89056","longitude":"2.15694","population":"29789","region":"11","departement":"78","arrondissement":"783","commune":"78146"},
{"name":"L'Haÿ-les-Roses","latitude":"48.77917","longitude":"2.33722","population":"29785","region":"11","departement":"94","arrondissement":"943","commune":"94038"},
{"name":"Saint-Cloud","latitude":"48.8466","longitude":"2.2157","population":"29726","region":"11","departement":"92","arrondissement":"923","commune":"92064"},
{"name":"Thiais","latitude":"48.76444","longitude":"2.39139","population":"29472","region":"11","departement":"94","arrondissement":"943","commune":"94073"},
{"name":"Le Chesnay","latitude":"48.8205","longitude":"2.1311","population":"29210","region":"11","departement":"78","arrondissement":"784","commune":"78158"},
{"name":"Yerres","latitude":"48.71611","longitude":"2.49083","population":"28909","region":"11","departement":"91","arrondissement":"912","commune":"91691"},
{"name":"Charenton-le-Pont","latitude":"48.82139","longitude":"2.41194","population":"28844","region":"11","departement":"94","arrondissement":"941","commune":"94018"},
{"name":"Trappes","latitude":"48.77667","longitude":"2.00167","population":"28638","region":"11","departement":"78","arrondissement":"784","commune":"78621"},
{"name":"Draveil","latitude":"48.68611","longitude":"2.40944","population":"28564","region":"11","departement":"91","arrondissement":"912","commune":"91201"},
{"name":"Guyancourt","latitude":"48.77056","longitude":"2.07306","population":"28189","region":"11","departement":"78","arrondissement":"784","commune":"78297"},
{"name":"Bois-Colombes","latitude":"48.9175","longitude":"2.26833","population":"28153","region":"11","departement":"92","arrondissement":"922","commune":"92009"},
{"name":"Savigny-le-Temple","latitude":"48.57583","longitude":"2.58278","population":"28113","region":"11","departement":"77","arrondissement":"772","commune":"77445"},
{"name":"Villemomble","latitude":"48.89028","longitude":"2.51111","population":"28031","region":"11","departement":"93","arrondissement":"931","commune":"93077"},
{"name":"Cachan","latitude":"48.79194","longitude":"2.33194","population":"27786","region":"11","departement":"94","arrondissement":"943","commune":"94016"},
{"name":"Ris-Orangis","latitude":"48.65111","longitude":"2.41306","population":"27339","region":"11","departement":"91","arrondissement":"912","commune":"91521"},
{"name":"Villiers-sur-Marne","latitude":"48.8275","longitude":"2.54472","population":"27322","region":"11","departement":"94","arrondissement":"942","commune":"94079"},
{"name":"Élancourt","latitude":"48.78389","longitude":"1.95806","population":"27300","region":"11","departement":"78","arrondissement":"782","commune":"78208"},
{"name":"La Garenne-Colombes","latitude":"48.905","longitude":"2.24361","population":"27091","region":"11","departement":"92","arrondissement":"922","commune":"92035"},
{"name":"Vigneux-sur-Seine","latitude":"48.7","longitude":"2.41667","population":"27067","region":"11","departement":"91","arrondissement":"912","commune":"91657"},
{"name":"Grigny","latitude":"48.65667","longitude":"2.38806","population":"26860","region":"11","departement":"91","arrondissement":"912","commune":"91286"},
{"name":"Le Plessis-Robinson","latitude":"48.78333","longitude":"2.26361","population":"26581","region":"11","departement":"92","arrondissement":"921","commune":"92060"},
{"name":"Vanves","latitude":"48.8196","longitude":"2.2895","population":"26505","region":"11","departement":"92","arrondissement":"921","commune":"92075"},
{"name":"Le Kremlin-Bicêtre","latitude":"48.81","longitude":"2.35806","population":"26368","region":"11","departement":"94","arrondissement":"943","commune":"94043"},
{"name":"Rambouillet","latitude":"48.64361","longitude":"1.83","population":"26065","region":"11","departement":"78","arrondissement":"782","commune":"78517"},
{"name":"Sucy-en-Brie","latitude":"48.76972","longitude":"2.52278","population":"25927","region":"11","departement":"94","arrondissement":"941","commune":"94071"},
{"name":"Romainville","latitude":"48.88361","longitude":"2.43611","population":"25786","region":"11","departement":"93","arrondissement":"931","commune":"93063"},
{"name":"Fresnes","latitude":"48.75889","longitude":"2.32361","population":"25390","region":"11","departement":"94","arrondissement":"943","commune":"94034"},
{"name":"Brunoy","latitude":"48.69806","longitude":"2.50333","population":"25339","region":"11","departement":"91","arrondissement":"912","commune":"91114"},
{"name":"Montfermeil","latitude":"48.89833","longitude":"2.56472","population":"24722","region":"11","departement":"93","arrondissement":"932","commune":"93047"},
{"name":"Les Ulis","latitude":"48.68222","longitude":"2.1675","population":"24691","region":"11","departement":"91","arrondissement":"913","commune":"91692"},
{"name":"Champs-sur-Marne","latitude":"48.85278","longitude":"2.60194","population":"24271","region":"11","departement":"77","arrondissement":"775","commune":"77083"},
{"name":"Fontenay-aux-Roses","latitude":"48.78917","longitude":"2.28556","population":"23684","region":"11","departement":"92","arrondissement":"921","commune":"92032"},
{"name":"Sèvres","latitude":"48.82306","longitude":"2.21083","population":"22873","region":"11","departement":"92","arrondissement":"923","commune":"92072"},
{"name":"Montgeron","latitude":"48.7075","longitude":"2.45528","population":"22859","region":"11","departement":"91","arrondissement":"912","commune":"91421"},
{"name":"Brétigny-sur-Orge","latitude":"48.60944","longitude":"2.30778","population":"22691","region":"11","departement":"91","arrondissement":"913","commune":"91103"},
{"name":"Saint-Mandé","latitude":"48.84139","longitude":"2.41778","population":"22627","region":"11","departement":"94","arrondissement":"942","commune":"94067"},
{"name":"Les Lilas","latitude":"48.88","longitude":"2.41694","population":"22439","region":"11","departement":"93","arrondissement":"931","commune":"93045"},
{"name":"Roissy-en-Brie","latitude":"48.79111","longitude":"2.65139","population":"22237","region":"11","departement":"77","arrondissement":"775","commune":"77390"},
{"name":"Torcy","latitude":"48.85","longitude":"2.65","population":"22225","region":"11","departement":"77","arrondissement":"775","commune":"77468"},
{"name":"Bussy-Saint-Georges","latitude":"48.84167","longitude":"2.69778","population":"22217","region":"11","departement":"77","arrondissement":"775","commune":"77058"},
{"name":"Étampes","latitude":"48.435","longitude":"2.16222","population":"22182","region":"11","departement":"91","arrondissement":"911","commune":"91223"},
{"name":"Combs-la-Ville","latitude":"48.66194","longitude":"2.56306","population":"21427","region":"11","departement":"77","arrondissement":"772","commune":"77122"},
{"name":"Longjumeau","latitude":"48.69694","longitude":"2.29556","population":"21276","region":"11","departement":"91","arrondissement":"913","commune":"91345"},
{"name":"Les Pavillons-sous-Bois","latitude":"48.90583","longitude":"2.51056","population":"21226","region":"11","departement":"93","arrondissement":"931","commune":"93057"},
{"name":"Morsang-sur-Orge","latitude":"48.66333","longitude":"2.35139","population":"20875","region":"11","departement":"91","arrondissement":"912","commune":"91434"},
{"name":"Orly","latitude":"48.74361","longitude":"2.39278","population":"20874","region":"11","departement":"94","arrondissement":"941","commune":"94054"},
{"name":"La Celle-Saint-Cloud","latitude":"48.85","longitude":"2.145","population":"20844","region":"11","departement":"78","arrondissement":"783","commune":"78126"},
{"name":"Gif-sur-Yvette","latitude":"48.7017","longitude":"2.1347","population":"20776","region":"11","departement":"91","arrondissement":"913","commune":"91272"},
{"name":"Le Mée-sur-Seine","latitude":"48.5375","longitude":"2.63194","population":"20478","region":"11","departement":"77","arrondissement":"772","commune":"77285"},
{"name":"Ozoir-la-Ferrière","latitude":"48.76917","longitude":"2.67917","population":"20374","region":"11","departement":"77","arrondissement":"775","commune":"77350"},
{"name":"Neuilly-Plaisance","latitude":"48.86083","longitude":"2.50972","population":"20318","region":"11","departement":"93","arrondissement":"932","commune":"93049"},
{"name":"Lagny-sur-Marne","latitude":"48.8781","longitude":"2.7071","population":"20228","region":"11","departement":"77","arrondissement":"775","commune":"77243"},
{"name":"Saint-Michel-sur-Orge","latitude":"48.6325","longitude":"2.30278","population":"20075","region":"11","departement":"91","arrondissement":"913","commune":"91570"},
{"name":"Dammarie-les-Lys","latitude":"48.51528","longitude":"2.63444","population":"20052","region":"11","departement":"77","arrondissement":"772","commune":"77152"},
{"name":"Vélizy-Villacoublay","latitude":"48.7836","longitude":"2.1887","population":"19883","region":"11","departement":"78","arrondissement":"784","commune":"78640"},
{"name":"Bourg-la-Reine","latitude":"48.77806","longitude":"2.31583","population":"19801","region":"11","departement":"92","arrondissement":"921","commune":"92014"},
{"name":"Arcueil","latitude":"48.80667","longitude":"2.33528","population":"19548","region":"11","departement":"94","arrondissement":"943","commune":"94003"},
{"name":"Sceaux","latitude":"48.77861","longitude":"2.29056","population":"19334","region":"11","departement":"92","arrondissement":"921","commune":"92071"},
{"name":"Limeil-Brévannes","latitude":"48.7467","longitude":"2.4893","population":"19052","region":"11","departement":"94","arrondissement":"941","commune":"94044"},
{"name":"Le Plessis-Trévise","latitude":"48.81111","longitude":"2.57167","population":"18876","region":"11","departement":"94","arrondissement":"942","commune":"94059"},
{"name":"Maurepas","latitude":"48.76278","longitude":"1.94556","population":"18768","region":"11","departement":"78","arrondissement":"782","commune":"78383"},
{"name":"Chevilly-Larue","latitude":"48.76639","longitude":"2.35333","population":"18707","region":"11","departement":"94","arrondissement":"943","commune":"94021"},
{"name":"Chaville","latitude":"48.80861","longitude":"2.18861","population":"18613","region":"11","departement":"92","arrondissement":"923","commune":"92022"},
{"name":"Villeneuve-le-Roi","latitude":"48.73444","longitude":"2.41083","population":"18495","region":"11","departement":"94","arrondissement":"941","commune":"94077"},
{"name":"Chilly-Mazarin","latitude":"48.70528","longitude":"2.31611","population":"18448","region":"11","departement":"91","arrondissement":"913","commune":"91161"},
{"name":"Garches","latitude":"48.84556","longitude":"2.18694","population":"18291","region":"11","departement":"92","arrondissement":"922","commune":"92033"},
{"name":"Le Pré-Saint-Gervais","latitude":"48.885","longitude":"2.40389","population":"18121","region":"11","departement":"93","arrondissement":"931","commune":"93061"},
{"name":"Chennevières-sur-Marne","latitude":"48.79833","longitude":"2.53389","population":"18083","region":"11","departement":"94","arrondissement":"942","commune":"94019"},
{"name":"Joinville-le-Pont","latitude":"48.82139","longitude":"2.47278","population":"17607","region":"11","departement":"94","arrondissement":"942","commune":"94042"},
{"name":"Saint-Cyr-l'École","latitude":"48.80028","longitude":"2.0625","population":"17549","region":"11","departement":"78","arrondissement":"784","commune":"78545"},
{"name":"Les Clayes-sous-Bois","latitude":"48.82056","longitude":"1.98361","population":"17488","region":"11","departement":"78","arrondissement":"784","commune":"78165"},
{"name":"Gentilly","latitude":"48.81333","longitude":"2.34444","population":"17476","region":"11","departement":"94","arrondissement":"943","commune":"94037"},
{"name":"Moissy-Cramayel","latitude":"48.62611","longitude":"2.59222","population":"17010","region":"11","departement":"77","arrondissement":"772","commune":"77296"},
{"name":"Marly-le-Roi","latitude":"48.86694","longitude":"2.09417","population":"16604","region":"11","departement":"78","arrondissement":"783","commune":"78372"},
{"name":"Bonneuil-sur-Marne","latitude":"48.77417","longitude":"2.4875","population":"16594","region":"11","departement":"94","arrondissement":"941","commune":"94011"},
{"name":"Le Pecq","latitude":"48.89667","longitude":"2.10611","population":"16447","region":"11","departement":"78","arrondissement":"783","commune":"78481"},
{"name":"Boissy-Saint-Léger","latitude":"48.75028","longitude":"2.50972","population":"16248","region":"11","departement":"94","arrondissement":"941","commune":"94004"},
{"name":"Orsay","latitude":"48.69806","longitude":"2.1875","population":"16238","region":"11","departement":"91","arrondissement":"913","commune":"91471"},
{"name":"Le Vésinet","latitude":"48.89389","longitude":"2.13222","population":"16159","region":"11","departement":"78","arrondissement":"783","commune":"78650"},
{"name":"Brie-Comte-Robert","latitude":"48.6925","longitude":"2.61111","population":"16152","region":"11","departement":"77","arrondissement":"772","commune":"77053"},
{"name":"Viroflay","latitude":"48.8","longitude":"2.17222","population":"15909","region":"11","departement":"78","arrondissement":"784","commune":"78686"},
{"name":"Verrières-le-Buisson","latitude":"48.7475","longitude":"2.26278","population":"15543","region":"11","departement":"91","arrondissement":"913","commune":"91645"},
{"name":"Noisiel","latitude":"48.85472","longitude":"2.62889","population":"15512","region":"11","departement":"77","arrondissement":"775","commune":"77337"},
{"name":"Montesson","latitude":"48.90861","longitude":"2.14944","population":"15354","region":"11","departement":"78","arrondissement":"783","commune":"78418"},
{"name":"Bry-sur-Marne","latitude":"48.84111","longitude":"2.52222","population":"15309","region":"11","departement":"94","arrondissement":"942","commune":"94015"},
{"name":"Lucé","latitude":"48.43833","longitude":"1.465","population":"15288","region":"24","departement":"28","arrondissement":"281","commune":"28218"},
{"name":"Fontainebleau","latitude":"48.40889","longitude":"2.70167","population":"15268","region":"11","departement":"77","arrondissement":"774","commune":"77186"},
{"name":"Carrières-sur-Seine","latitude":"48.90806","longitude":"2.17806","population":"15249","region":"11","departement":"78","arrondissement":"783","commune":"78124"},
{"name":"Montargis","latitude":"47.99694","longitude":"2.7325","population":"15020","region":"24","departement":"45","arrondissement":"451","commune":"45208"},
{"name":"Lognes","latitude":"48.83611","longitude":"2.62778","population":"14756","region":"11","departement":"77","arrondissement":"775","commune":"77258"},
{"name":"Saint-Maurice","latitude":"48.81833","longitude":"2.43472","population":"14439","region":"11","departement":"94","arrondissement":"941","commune":"94069"},
{"name":"Juvisy-sur-Orge","latitude":"48.68833","longitude":"2.3775","population":"14347","region":"11","departement":"91","arrondissement":"913","commune":"91326"},
{"name":"Courcouronnes","latitude":"48.61806","longitude":"2.40694","population":"14029","region":"11","departement":"91","arrondissement":"912","commune":"91182"},
{"name":"Avon","latitude":"48.40889","longitude":"2.725","population":"13906","region":"11","departement":"77","arrondissement":"774","commune":"77014"},
{"name":"Le Raincy","latitude":"48.89917","longitude":"2.52306","population":"13779","region":"11","departement":"93","arrondissement":"932","commune":"93062"},
{"name":"Bois-d'Arcy","latitude":"48.80139","longitude":"2.03167","population":"13646","region":"11","departement":"78","arrondissement":"784","commune":"78073"},
{"name":"Mennecy","latitude":"48.56528","longitude":"2.43611","population":"13295","region":"11","departement":"91","arrondissement":"912","commune":"91386"},
{"name":"Châlette-sur-Loing","latitude":"48.01167","longitude":"2.73583","population":"13256","region":"24","departement":"45","arrondissement":"451","commune":"45068"},
{"name":"Nemours","latitude":"48.26861","longitude":"2.69361","population":"12692","region":"11","departement":"77","arrondissement":"774","commune":"77333"},
{"name":"Fontenay-le-Fleury","latitude":"48.81361","longitude":"2.04861","population":"12607","region":"11","departement":"78","arrondissement":"784","commune":"78242"},
{"name":"Épinay-sous-Sénart","latitude":"48.6936","longitude":"2.5163","population":"12355","region":"11","departement":"91","arrondissement":"912","commune":"91215"},
{"name":"Valenton","latitude":"48.745","longitude":"2.46722","population":"12215","region":"11","departement":"94","arrondissement":"941","commune":"94074"},
{"name":"Saint-Fargeau-Ponthierry","latitude":"48.53278","longitude":"2.54472","population":"12165","region":"11","departement":"77","arrondissement":"772","commune":"77407"},
{"name":"Vaires-sur-Marne","latitude":"48.87417","longitude":"2.63806","population":"12047","region":"11","departement":"77","arrondissement":"775","commune":"77479"},
{"name":"Voisins-le-Bretonneux","latitude":"48.75833","longitude":"2.05083","population":"11910","region":"11","departement":"78","arrondissement":"782","commune":"78688"},
{"name":"Morangis","latitude":"48.70639","longitude":"2.33472","population":"11891","region":"11","departement":"91","arrondissement":"913","commune":"91432"},
{"name":"La Queue-en-Brie","latitude":"48.78944","longitude":"2.57667","population":"11315","region":"11","departement":"94","arrondissement":"942","commune":"94060"},
{"name":"Vaux-le-Pénil","latitude":"48.52639","longitude":"2.68222","population":"11171","region":"11","departement":"77","arrondissement":"772","commune":"77487"},
{"name":"Ville-d'Avray","latitude":"48.82611","longitude":"2.19333","population":"10717","region":"11","departement":"92","arrondissement":"923","commune":"92077"},
{"name":"Mainvilliers","latitude":"48.45306","longitude":"1.46194","population":"10435","region":"24","departement":"28","arrondissement":"281","commune":"28229"},
{"name":"Arpajon","latitude":"48.59028","longitude":"2.24778","population":"10430","region":"11","departement":"91","arrondissement":"913","commune":"91021"},
{"name":"Lieusaint","latitude":"48.63222","longitude":"2.54861","population":"10416","region":"11","departement":"77","arrondissement":"772","commune":"77251"},
{"name":"Igny","latitude":"48.74222","longitude":"2.22611","population":"10146","region":"11","departement":"91","arrondissement":"913","commune":"91312"},
{"name":"Épinay-sur-Orge","latitude":"48.67389","longitude":"2.32722","population":"10129","region":"11","departement":"91","arrondissement":"913","commune":"91216"},
{"name":"Croissy-sur-Seine","latitude":"48.8781","longitude":"2.1428","population":"10112","region":"11","departement":"78","arrondissement":"783","commune":"78190"}
]