[
{"name":"Bordeaux","latitude":"44.83778","longitude":"-0.57944","population":"236725","region":"75","departement":"33","arrondissement":"332","commune":"33063"},
{"name":"Mérignac","latitude":"44.8425","longitude":"-0.645","population":"66488","region":"75","departement":"33","arrondissement":"332","commune":"33281"},
{"name":"Pessac","latitude":"44.80583","longitude":"-0.63222","population":"57593","region":"75","departement":"33","arrondissement":"332","commune":"33318"},
{"name":"Talence","latitude":"44.80833","longitude":"-0.58917","population":"40793","region":"75","departement":"33","arrondissement":"332","commune":"33522"},
{"name":"Villenave-d'Ornon","latitude":"44.7795","longitude":"-0.5662","population":"28469","region":"75","departement":"33","arrondissement":"332","commune":"33550"},
{"name":"Saint-Médard-en-Jalles","latitude":"44.89556","longitude":"-0.7175","population":"27332","region":"75","departement":"33","arrondissement":"332","commune":"33449"},
{"name":"Bègles","latitude":"44.80778","longitude":"-0.54889","population":"24829","region":"75","departement":"33","arrondissement":"332","commune":"33039"},
{"name":"La Teste-de-Buch","latitude":"44.6325","longitude":"-1.145","population":"24597","region":"75","departement":"33","arrondissement":"336","commune":"33529"},
{"name":"Libourne","latitude":"44.91528","longitude":"-0.24389","population":"23830","region":"75","departement":"33","arrondissement":"335","commune":"33243"},
{"name":"Gradignan","latitude":"44.77139","longitude":"-0.61694","population":"23386","region":"75","departement":"33","arrondissement":"332","commune":"33192"},
{"name":"Le Bouscat","latitude":"44.86472","longitude":"-0.59861","population":"23317","region":"75","departement":"33","arrondissement":"332","commune":"33069"},
{"name":"Cenon","latitude":"44.85694","longitude":"-0.53278","population":"22200","region":"75","departement":"33","arrondissement":"332","commune":"33119"},
{"name":"Lormont","latitude":"44.8794","longitude":"-0.5212","population":"19955","region":"75","departement":"33","arrondissement":"332","commune":"33249"},
{"name":"Eysines","latitude":"44.88444","longitude":"-0.65139","population":"18946","region":"75","departement":"33","arrondissement":"332","commune":"33162"},
{"name":"Gujan-Mestras","latitude":"44.63528","longitude":"-1.06778","population":"18794","region":"75","departement":"33","arrondissement":"336","commune":"33199"},
{"name":"Cestas","latitude":"44.7444","longitude":"-0.6814","population":"16409","region":"75","departement":"33","arrondissement":"332","commune":"33122"},
{"name":"Floirac","latitude":"44.83639","longitude":"-0.52583","population":"15882","region":"75","departement":"33","arrondissement":"332","commune":"33167"},
{"name":"Blanquefort","latitude":"44.91056","longitude":"-0.6375","population":"14623","region":"75","departement":"33","arrondissement":"332","commune":"33056"},
{"name":"Bruges","latitude":"44.88278","longitude":"-0.6125","population":"14499","region":"75","departement":"33","arrondissement":"332","commune":"33075"},
{"name":"Ambarès-et-Lagrave","latitude":"44.9244","longitude":"-0.4861","population":"13172","region":"75","departement":"33","arrondissement":"332","commune":"33003"},
{"name":"Biscarrosse","latitude":"44.39306","longitude":"-1.16389","population":"12163","region":"75","departement":"40","arrondissement":"402","commune":"40046"},
{"name":"Arcachon","latitude":"44.65861","longitude":"-1.16889","population":"11441","region":"75","departement":"33","arrondissement":"336","commune":"33009"},
{"name":"Andernos-les-Bains","latitude":"44.7425","longitude":"-1.09028","population":"11043","region":"75","departement":"33","arrondissement":"336","commune":"33005"}
]