[
{"name":"Châteauroux","latitude":"46.80972","longitude":"1.69028","population":"46386","region":"24","departement":"36","arrondissement":"362","commune":"36044"},
{"name":"Montluçon","latitude":"46.34","longitude":"2.6025","population":"38978","region":"84","departement":"03","arrondissement":"031","commune":"03185"},
{"name":"Guéret","latitude":"46.17056","longitude":"1.86833","population":"13844","region":"75","departement":"23","arrondissement":"232","commune":"23096"},
{"name":"Issoudun","latitude":"46.94806","longitude":"1.99333","population":"13230","region":"24","departement":"36","arrondissement":"364","commune":"36088"},
{"name":"Saint-Amand-Montrond","latitude":"46.7226","longitude":"2.5055","population":"10952","region":"24","departement":"18","arrondissement":"182","commune":"18197"}
]