[
{"name":"Perpignan","latitude":"42.69764","longitude":"2.89541","population":"117905","region":"76","departement":"66","arrondissement":"662","commune":"66136"},
{"name":"Canet-en-Roussillon","latitude":"42.70556","longitude":"3.00722","population":"13052","region":"76","departement":"66","arrondissement":"662","commune":"66037"},
{"name":"Saint-Estève","latitude":"42.7131","longitude":"2.843","population":"10901","region":"76","departement":"66","arrondissement":"662","commune":"66172"},
{"name":"Saint-Cyprien","latitude":"42.61806","longitude":"3.00639","population":"10508","region":"76","departement":"66","arrondissement":"662","commune":"66171"},
{"name":"Argelès-sur-Mer","latitude":"42.54619","longitude":"3.02332","population":"10033","region":"76","departement":"66","arrondissement":"661","commune":"66008"}
]