[
{"name":"Montpellier","latitude":"43.6113","longitude":"3.8771","population":"255080","region":"76","departement":"34","arrondissement":"343","commune":"34172"},
{"name":"Béziers","latitude":"43.34333","longitude":"3.21611","population":"70957","region":"76","departement":"34","arrondissement":"341","commune":"34032"},
{"name":"Narbonne","latitude":"43.18472","longitude":"3.00361","population":"51227","region":"76","departement":"11","arrondissement":"113","commune":"11262"},
{"name":"Sète","latitude":"43.40444","longitude":"3.69667","population":"42496","region":"76","departement":"34","arrondissement":"343","commune":"34301"},
{"name":"Lunel","latitude":"43.67694","longitude":"4.13528","population":"24923","region":"76","departement":"34","arrondissement":"343","commune":"34145"},
{"name":"Agde","latitude":"43.31","longitude":"3.47528","population":"24031","region":"76","departement":"34","arrondissement":"341","commune":"34003"},
{"name":"Frontignan","latitude":"43.44722","longitude":"3.75556","population":"22684","region":"76","departement":"34","arrondissement":"343","commune":"34108"},
{"name":"Mauguio","latitude":"43.61639","longitude":"4.0075","population":"16195","region":"76","departement":"34","arrondissement":"343","commune":"34154"},
{"name":"Lattes","latitude":"43.56889","longitude":"3.90861","population":"15804","region":"76","departement":"34","arrondissement":"343","commune":"34129"},
{"name":"Castelnau-le-Lez","latitude":"43.63611","longitude":"3.90139","population":"14925","region":"76","departement":"34","arrondissement":"343","commune":"34057"},
{"name":"Mèze","latitude":"43.4268","longitude":"3.6053","population":"10749","region":"76","departement":"34","arrondissement":"343","commune":"34157"}
]