[
{"name":"Reims","latitude":"49.2651","longitude":"4.0292","population":"180842","region":"44","departement":"51","arrondissement":"513","commune":"51454"},
{"name":"Meaux","latitude":"48.95944","longitude":"2.88778","population":"49612","region":"11","departement":"77","arrondissement":"771","commune":"77284"},
{"name":"Compiègne","latitude":"49.41417","longitude":"2.82222","population":"40860","region":"32","departement":"60","arrondissement":"603","commune":"60159"},
{"name":"Soissons","latitude":"49.3812","longitude":"3.3236","population":"28845","region":"32","departement":"02","arrondissement":"024","commune":"02722"},
{"name":"Laon","latitude":"49.56333","longitude":"3.62361","population":"26094","region":"32","departement":"02","arrondissement":"022","commune":"02408"},
{"name":"Épernay","latitude":"49.04","longitude":"3.95917","population":"24317","region":"44","departement":"51","arrondissement":"512","commune":"51230"},
{"name":"Château-Thierry","latitude":"49.04639","longitude":"3.40306","population":"14683","region":"32","departement":"02","arrondissement":"021","commune":"02168"},
{"name":"Tergnier","latitude":"49.65583","longitude":"3.28722","population":"14373","region":"32","departement":"02","arrondissement":"022","commune":"02738"},
{"name":"Noyon","latitude":"49.58111","longitude":"2.99889","population":"13896","region":"32","departement":"60","arrondissement":"603","commune":"60471"},
{"name":"Crépy-en-Valois","latitude":"49.23444","longitude":"2.8875","population":"13839","region":"32","departement":"60","arrondissement":"604","commune":"60176"},
{"name":"Chauny","latitude":"49.61556","longitude":"3.21917","population":"11952","region":"32","departement":"02","arrondissement":"022","commune":"02173"},
{"name":"Tinqueux","latitude":"49.25","longitude":"3.99083","population":"10326","region":"44","departement":"51","arrondissement":"513","commune":"51573"},
{"name":"Villers-Cotterêts","latitude":"49.25311","longitude":"3.09003","population":"10242","region":"32","departement":"02","arrondissement":"024","commune":"02810"}
]