[
{"name":"Lyon","latitude":"45.75889","longitude":"4.84139","population":"480778","region":"84","departement":"69","arrondissement":"691","commune":"69123"},
{"name":"Saint-Étienne","latitude":"45.43389","longitude":"4.38972","population":"171961","region":"84","departement":"42","arrondissement":"423","commune":"42218"},
{"name":"Villeurbanne","latitude":"45.76611","longitude":"4.87944","population":"144751","region":"84","departement":"69","arrondissement":"691","commune":"69266"},
{"name":"Vénissieux","latitude":"45.69694","longitude":"4.88583","population":"58643","region":"84","departement":"69","arrondissement":"691","commune":"69259"},
{"name":"Saint-Priest","latitude":"45.6966","longitude":"4.9445","population":"41751","region":"84","departement":"69","arrondissement":"691","commune":"69290"},
{"name":"Caluire-et-Cuire","latitude":"45.79472","longitude":"4.84639","population":"41149","region":"84","departement":"69","arrondissement":"691","commune":"69034"},
{"name":"Vaulx-en-Velin","latitude":"45.78694","longitude":"4.925","population":"40339","region":"84","departement":"69","arrondissement":"691","commune":"69256"},
{"name":"Bron","latitude":"45.73861","longitude":"4.91306","population":"38827","region":"84","departement":"69","arrondissement":"691","commune":"69029"},
{"name":"Saint-Chamond","latitude":"45.47639","longitude":"4.51472","population":"35891","region":"84","departement":"42","arrondissement":"423","commune":"42207"},
{"name":"Villefranche-sur-Saône","latitude":"45.98944","longitude":"4.71972","population":"34686","region":"84","departement":"69","arrondissement":"692","commune":"69264"},
{"name":"Rillieux-la-Pape","latitude":"45.8208","longitude":"4.8977","population":"29990","region":"84","departement":"69","arrondissement":"691","commune":"69286"},
{"name":"Meyzieu","latitude":"45.76639","longitude":"5.00278","population":"29666","region":"84","departement":"69","arrondissement":"691","commune":"69282"},
{"name":"Vienne","latitude":"45.52556","longitude":"4.87472","population":"29619","region":"84","departement":"38","arrondissement":"383","commune":"38544"},
{"name":"Bourgoin-Jallieu","latitude":"45.5913","longitude":"5.2802","population":"25540","region":"84","departement":"38","arrondissement":"382","commune":"38053"},
{"name":"Décines-Charpieu","latitude":"45.7686","longitude":"4.9598","population":"25414","region":"84","departement":"69","arrondissement":"691","commune":"69275"},
{"name":"Oullins","latitude":"45.71417","longitude":"4.8075","population":"25347","region":"84","departement":"69","arrondissement":"691","commune":"69149"},
{"name":"Sainte-Foy-lès-Lyon","latitude":"45.73361","longitude":"4.8025","population":"22015","region":"84","departement":"69","arrondissement":"691","commune":"69202"},
{"name":"Voiron","latitude":"45.36333","longitude":"5.59","population":"20206","region":"84","departement":"38","arrondissement":"381","commune":"38563"},
{"name":"Saint-Genis-Laval","latitude":"45.6957","longitude":"4.7933","population":"20116","region":"84","departement":"69","arrondissement":"691","commune":"69204"},
{"name":"Givors","latitude":"45.59056","longitude":"4.76889","population":"19301","region":"84","departement":"69","arrondissement":"691","commune":"69091"},
{"name":"Tassin-la-Demi-Lune","latitude":"45.76333","longitude":"4.78","population":"18967","region":"84","departement":"69","arrondissement":"691","commune":"69244"},
{"name":"Villefontaine","latitude":"45.61333","longitude":"5.14861","population":"18541","region":"84","departement":"38","arrondissement":"382","commune":"38553"},
{"name":"Écully","latitude":"45.77444","longitude":"4.7775","population":"18071","region":"84","departement":"69","arrondissement":"691","commune":"69081"},
{"name":"Firminy","latitude":"45.38806","longitude":"4.28722","population":"17207","region":"84","departement":"42","arrondissement":"423","commune":"42095"},
{"name":"Annonay","latitude":"45.24","longitude":"4.67083","population":"16923","region":"84","departement":"07","arrondissement":"073","commune":"07010"},
{"name":"Saint-Fons","latitude":"45.70861","longitude":"4.85333","population":"16690","region":"84","departement":"69","arrondissement":"691","commune":"69199"},
{"name":"L'Isle-d'Abeau","latitude":"45.61944","longitude":"5.23306","population":"15373","region":"84","departement":"38","arrondissement":"382","commune":"38193"},
{"name":"Rive-de-Gier","latitude":"45.52944","longitude":"4.61694","population":"15295","region":"84","departement":"42","arrondissement":"423","commune":"42186"},
{"name":"Saint-Just-Saint-Rambert","latitude":"45.4995","longitude":"4.2407","population":"14315","region":"84","departement":"42","arrondissement":"421","commune":"42279"},
{"name":"Ambérieu-en-Bugey","latitude":"45.9585","longitude":"5.3585","population":"13350","region":"84","departement":"01","arrondissement":"011","commune":"01004"},
{"name":"Le Chambon-Feugerolles","latitude":"45.39611","longitude":"4.325","population":"12945","region":"84","departement":"42","arrondissement":"423","commune":"42044"},
{"name":"Francheville","latitude":"45.73639","longitude":"4.76361","population":"12633","region":"84","departement":"69","arrondissement":"691","commune":"69089"},
{"name":"Genas","latitude":"45.73139","longitude":"5.00222","population":"11994","region":"84","departement":"69","arrondissement":"691","commune":"69277"},
{"name":"Mions","latitude":"45.66306","longitude":"4.95306","population":"11575","region":"84","departement":"69","arrondissement":"691","commune":"69283"},
{"name":"Brignais","latitude":"45.67389","longitude":"4.75417","population":"11372","region":"84","departement":"69","arrondissement":"691","commune":"69027"},
{"name":"Roche-la-Molière","latitude":"45.43389","longitude":"4.32361","population":"10330","region":"84","departement":"42","arrondissement":"423","commune":"42189"},
{"name":"Tarare","latitude":"45.89611","longitude":"4.43306","population":"10180","region":"84","departement":"69","arrondissement":"692","commune":"69243"}
]