[
{"name":"Rochefort","latitude":"45.94194","longitude":"-0.96694","population":"25317","region":"75","departement":"17","arrondissement":"172","commune":"17299"},
{"name":"Royan","latitude":"45.62778","longitude":"-1.02556","population":"18259","region":"75","departement":"17","arrondissement":"172","commune":"17306"},
{"name":"Tonnay-Charente","latitude":"45.94778","longitude":"-0.90889","population":"7778","region":"75","departement":"17","arrondissement":"172","commune":"17449"},
{"name":"Saujon","latitude":"45.67139","longitude":"-0.92778","population":"6636","region":"75","departement":"17","arrondissement":"174","commune":"17421"},
{"name":"Saint-Pierre-d'Oléron","latitude":"45.94361","longitude":"-1.30583","population":"6532","region":"75","departement":"17","arrondissement":"172","commune":"17385"},
{"name":"Châtelaillon-Plage","latitude":"46.07306","longitude":"-1.08806","population":"6081","region":"75","departement":"17","arrondissement":"173","commune":"17094"},
{"name":"Marennes","latitude":"45.8225","longitude":"-1.10528","population":"5608","region":"75","departement":"17","arrondissement":"172","commune":"17219"},
{"name":"Saint-Georges-de-Didonne","latitude":"45.60528","longitude":"-0.99861","population":"5055","region":"75","departement":"17","arrondissement":"172","commune":"17333"}
]