[
{"name":"Périgueux","latitude":"45.18417","longitude":"0.71806","population":"29273","region":"75","departement":"24","arrondissement":"243","commune":"24322"},
{"name":"Trélissac","latitude":"45.1962","longitude":"0.7829","population":"6947","region":"75","departement":"24","arrondissement":"243","commune":"24557"},
{"name":"Saint-Yrieix-la-Perche","latitude":"45.51444","longitude":"1.20333","population":"6932","region":"75","departement":"87","arrondissement":"872","commune":"87187"},
{"name":"Boulazac Isle Manoire","latitude":"45.171","longitude":"0.773","population":"6603","region":"75","departement":"24","arrondissement":"243","commune":"24053"},
{"name":"Terrasson-Lavilledieu","latitude":"45.1296","longitude":"1.3022","population":"6222","region":"75","departement":"24","arrondissement":"244","commune":"24547"}
]