[
{"name":"Liévin","latitude":"50.4225","longitude":"2.7782","population":"32009","region":"32","departement":"62","arrondissement":"627","commune":"62510"},
{"name":"Béthune","latitude":"50.5296","longitude":"2.6405","population":"25766","region":"32","departement":"62","arrondissement":"622","commune":"62119"},
{"name":"Bruay-la-Buissière","latitude":"50.481","longitude":"2.5487","population":"23621","region":"32","departement":"62","arrondissement":"622","commune":"62178"},
{"name":"Hazebrouck","latitude":"50.72444","longitude":"2.53833","population":"21721","region":"32","departement":"59","arrondissement":"594","commune":"59295"},
{"name":"Bully-les-Mines","latitude":"50.44194","longitude":"2.72444","population":"12237","region":"32","departement":"62","arrondissement":"627","commune":"62186"},
{"name":"Nœux-les-Mines","latitude":"50.4801","longitude":"2.6657","population":"12177","region":"32","departement":"62","arrondissement":"622","commune":"62617"},
{"name":"Auchel","latitude":"50.50833","longitude":"2.47361","population":"11204","region":"32","departement":"62","arrondissement":"622","commune":"62048"},
{"name":"Longuenesse","latitude":"50.73556","longitude":"2.23722","population":"11015","region":"32","departement":"62","arrondissement":"625","commune":"62525"},
{"name":"Lillers","latitude":"50.56361","longitude":"2.48194","population":"10011","region":"32","departement":"62","arrondissement":"622","commune":"62516"},
{"name":"Arques","latitude":"50.7357","longitude":"2.303","population":"9945","region":"32","departement":"62","arrondissement":"625","commune":"62040"},
{"name":"Aire-sur-la-Lys","latitude":"50.63861","longitude":"2.39667","population":"9785","region":"32","departement":"62","arrondissement":"625","commune":"62014"},
{"name":"Isbergues","latitude":"50.62333","longitude":"2.45667","population":"9320","region":"32","departement":"62","arrondissement":"622","commune":"62473"},
{"name":"Beuvry","latitude":"50.5197","longitude":"2.6801","population":"8856","region":"32","departement":"62","arrondissement":"622","commune":"62126"},
{"name":"Merville","latitude":"50.6439","longitude":"2.6414","population":"8743","region":"32","departement":"59","arrondissement":"594","commune":"59400"},
{"name":"Houdain","latitude":"50.4522","longitude":"2.5379","population":"7651","region":"32","departement":"62","arrondissement":"622","commune":"62457"},
{"name":"Barlin","latitude":"50.45528","longitude":"2.61861","population":"7549","region":"32","departement":"62","arrondissement":"622","commune":"62083"},
{"name":"Mazingarbe","latitude":"50.47306","longitude":"2.71806","population":"7492","region":"32","departement":"62","arrondissement":"627","commune":"62563"},
{"name":"Divion","latitude":"50.47222","longitude":"2.50139","population":"7288","region":"32","departement":"62","arrondissement":"622","commune":"62270"},
{"name":"Loos-en-Gohelle","latitude":"50.45778","longitude":"2.79333","population":"6794","region":"32","departement":"62","arrondissement":"627","commune":"62528"},
{"name":"Grenay","latitude":"50.45222","longitude":"2.74306","population":"6673","region":"32","departement":"62","arrondissement":"627","commune":"62386"},
{"name":"Sains-en-Gohelle","latitude":"50.44472","longitude":"2.68361","population":"6338","region":"32","departement":"62","arrondissement":"627","commune":"62737"},
{"name":"Hersin-Coupigny","latitude":"50.44611","longitude":"2.64778","population":"6288","region":"32","departement":"62","arrondissement":"627","commune":"62443"},
{"name":"La Bassée","latitude":"50.53361","longitude":"2.80722","population":"6166","region":"32","departement":"59","arrondissement":"595","commune":"59051"},
{"name":"Estaires","latitude":"50.6439","longitude":"2.7233","population":"5983","region":"32","departement":"59","arrondissement":"594","commune":"59212"},
{"name":"La Gorgue","latitude":"50.63833","longitude":"2.71417","population":"5906","region":"32","departement":"59","arrondissement":"594","commune":"59268"},
{"name":"Saint-Laurent-Blangy","latitude":"50.3025","longitude":"2.80278","population":"5877","region":"32","departement":"62","arrondissement":"621","commune":"62753"},
{"name":"Calonne-Ricouart","latitude":"50.48694","longitude":"2.48361","population":"5875","region":"32","departement":"62","arrondissement":"622","commune":"62194"},
{"name":"Marles-les-Mines","latitude":"50.50222","longitude":"2.50222","population":"5763","region":"32","departement":"62","arrondissement":"622","commune":"62555"},
{"name":"Annezin","latitude":"50.53361","longitude":"2.61833","population":"5607","region":"32","departement":"62","arrondissement":"622","commune":"62035"},
{"name":"Blendecques","latitude":"50.71694","longitude":"2.27639","population":"5171","region":"32","departement":"62","arrondissement":"625","commune":"62139"},
{"name":"Saint-Pol-sur-Ternoise","latitude":"50.37917","longitude":"2.33472","population":"5125","region":"32","departement":"62","arrondissement":"621","commune":"62767"}
]