[
{"name":"Angers","latitude":"47.47278","longitude":"-0.55556","population":"147305","region":"52","departement":"49","arrondissement":"491","commune":"49007"},
{"name":"Saumur","latitude":"47.25917","longitude":"-0.07806","population":"28070","region":"52","departement":"49","arrondissement":"493","commune":"49328"},
{"name":"Avrillé","latitude":"47.50694","longitude":"-0.58889","population":"12454","region":"52","departement":"49","arrondissement":"491","commune":"49015"},
{"name":"Trélazé","latitude":"47.44611","longitude":"-0.46639","population":"12181","region":"52","departement":"49","arrondissement":"491","commune":"49353"},
{"name":"Les Ponts-de-Cé","latitude":"47.42444","longitude":"-0.52528","population":"11575","region":"52","departement":"49","arrondissement":"491","commune":"49246"},
{"name":"Saint-Barthélemy-d'Anjou","latitude":"47.4675","longitude":"-0.495","population":"8822","region":"52","departement":"49","arrondissement":"491","commune":"49267"},
{"name":"Doué-la-Fontaine","latitude":"47.19306","longitude":"-0.27556","population":"7477","region":"52","departement":"49","arrondissement":"493","commune":"49125"},
{"name":"Longué-Jumelles","latitude":"47.37806","longitude":"-0.10806","population":"6820","region":"52","departement":"49","arrondissement":"493","commune":"49180"},
{"name":"Beaufort-en-Anjou","latitude":"47.43944","longitude":"-0.21556","population":"6250","region":"52","departement":"49","arrondissement":"491","commune":"49021"},
{"name":"Bouchemaine","latitude":"47.4224","longitude":"-0.60957","population":"6003","region":"52","departement":"49","arrondissement":"491","commune":"49035"},
{"name":"Mûrs-Erigné","latitude":"47.39556","longitude":"-0.55306","population":"5333","region":"52","departement":"49","arrondissement":"491","commune":"49223"},
{"name":"Beaucouzé","latitude":"47.47556","longitude":"-0.63278","population":"5020","region":"52","departement":"49","arrondissement":"491","commune":"49020"}
]