[
{"name":"Tours","latitude":"47.39278","longitude":"0.68833","population":"135218","region":"24","departement":"37","arrondissement":"372","commune":"37261"},
{"name":"Joué-lès-Tours","latitude":"47.35056","longitude":"0.66167","population":"36000","region":"24","departement":"37","arrondissement":"372","commune":"37122"},
{"name":"Saint-Cyr-sur-Loire","latitude":"47.40278","longitude":"0.67806","population":"15930","region":"24","departement":"37","arrondissement":"372","commune":"37214"},
{"name":"Fondettes","latitude":"47.40417","longitude":"0.59889","population":"10466","region":"24","departement":"37","arrondissement":"372","commune":"37109"},
{"name":"La Riche","latitude":"47.38917","longitude":"0.66056","population":"10070","region":"24","departement":"37","arrondissement":"372","commune":"37195"},
{"name":"Ballan-Miré","latitude":"47.34167","longitude":"0.61306","population":"8152","region":"24","departement":"37","arrondissement":"372","commune":"37018"},
{"name":"Chinon","latitude":"47.16694","longitude":"0.24278","population":"7986","region":"24","departement":"37","arrondissement":"371","commune":"37072"},
{"name":"Monts","latitude":"47.27722","longitude":"0.62444","population":"6895","region":"24","departement":"37","arrondissement":"372","commune":"37159"},
{"name":"Luynes","latitude":"47.38472","longitude":"0.55444","population":"5025","region":"24","departement":"37","arrondissement":"372","commune":"37139"}
]