[
{"name":"Flers","latitude":"48.74833","longitude":"-0.56944","population":"15592","region":"28","departement":"61","arrondissement":"612","commune":"61169"},
{"name":"Argentan","latitude":"48.74444","longitude":"-0.02028","population":"14356","region":"28","departement":"61","arrondissement":"612","commune":"61006"},
{"name":"Falaise","latitude":"48.89222","longitude":"-0.19333","population":"8333","region":"28","departement":"14","arrondissement":"142","commune":"14258"},
{"name":"La Ferté-Macé","latitude":"48.5925","longitude":"-0.35722","population":"6013","region":"28","departement":"61","arrondissement":"611","commune":"61168"},
{"name":"Condé-en-Normandie","latitude":"48.85","longitude":"-0.55","population":"5529","region":"28","departement":"14","arrondissement":"144","commune":"14174"}
]