[
{"name":"Étampes","latitude":"48.435","longitude":"2.16222","population":"22182","region":"11","departement":"91","arrondissement":"911","commune":"91223"},
{"name":"Fontainebleau","latitude":"48.40889","longitude":"2.70167","population":"15268","region":"11","departement":"77","arrondissement":"774","commune":"77186"},
{"name":"Montargis","latitude":"47.99694","longitude":"2.7325","population":"15020","region":"24","departement":"45","arrondissement":"451","commune":"45208"},
{"name":"Avon","latitude":"48.40889","longitude":"2.725","population":"13906","region":"11","departement":"77","arrondissement":"774","commune":"77014"},
{"name":"Châlette-sur-Loing","latitude":"48.01167","longitude":"2.73583","population":"13256","region":"24","departement":"45","arrondissement":"451","commune":"45068"},
{"name":"Nemours","latitude":"48.26861","longitude":"2.69361","population":"12692","region":"11","departement":"77","arrondissement":"774","commune":"77333"},
{"name":"Pithiviers","latitude":"48.17194","longitude":"2.25194","population":"8761","region":"24","departement":"45","arrondissement":"453","commune":"45252"},
{"name":"Champagne-sur-Seine","latitude":"48.39722","longitude":"2.80111","population":"6423","region":"11","departement":"77","arrondissement":"774","commune":"77079"},
{"name":"Villemandeur","latitude":"47.99028","longitude":"2.70944","population":"6370","region":"24","departement":"45","arrondissement":"451","commune":"45338"},
{"name":"Le Malesherbois","latitude":"48.29639","longitude":"2.40528","population":"6124","region":"24","departement":"45","arrondissement":"453","commune":"45191"},
{"name":"Saint-Pierre-lès-Nemours","latitude":"48.26528","longitude":"2.67972","population":"5658","region":"11","departement":"77","arrondissement":"774","commune":"77431"},
{"name":"Souppes-sur-Loing","latitude":"48.18306","longitude":"2.73528","population":"5628","region":"11","departement":"77","arrondissement":"774","commune":"77458"}
]