[
{"name":"Grenoble","latitude":"45.1872","longitude":"5.7266","population":"155632","region":"84","departement":"38","arrondissement":"381","commune":"38185"},
{"name":"Chambéry","latitude":"45.56639","longitude":"5.92083","population":"56476","region":"84","departement":"73","arrondissement":"732","commune":"73065"},
{"name":"Saint-Martin-d'Hères","latitude":"45.16639","longitude":"5.76472","population":"35669","region":"84","departement":"38","arrondissement":"381","commune":"38421"},
{"name":"Échirolles","latitude":"45.14278","longitude":"5.71778","population":"35657","region":"84","departement":"38","arrondissement":"381","commune":"38151"},
{"name":"Fontaine","latitude":"45.19306","longitude":"5.68472","population":"22004","region":"84","departement":"38","arrondissement":"381","commune":"38169"},
{"name":"Meylan","latitude":"45.2088","longitude":"5.7797","population":"17380","region":"84","departement":"38","arrondissement":"381","commune":"38229"},
{"name":"Saint-Égrève","latitude":"45.2313","longitude":"5.6834","population":"15990","region":"84","departement":"38","arrondissement":"381","commune":"38382"},
{"name":"Seyssinet-Pariset","latitude":"45.1809","longitude":"5.6996","population":"12221","region":"84","departement":"38","arrondissement":"381","commune":"38485"},
{"name":"Le Pont-de-Claix","latitude":"45.12306","longitude":"5.69806","population":"11415","region":"84","departement":"38","arrondissement":"381","commune":"38317"},
{"name":"Sassenage","latitude":"45.205","longitude":"5.665","population":"10881","region":"84","departement":"38","arrondissement":"381","commune":"38474"},
{"name":"Voreppe","latitude":"45.29778","longitude":"5.63694","population":"9732","region":"84","departement":"38","arrondissement":"381","commune":"38565"},
{"name":"Eybens","latitude":"45.14861","longitude":"5.75028","population":"9490","region":"84","departement":"38","arrondissement":"381","commune":"38158"},
{"name":"Crolles","latitude":"45.285","longitude":"5.88278","population":"8571","region":"84","departement":"38","arrondissement":"381","commune":"38140"},
{"name":"Claix","latitude":"45.11972","longitude":"5.67167","population":"7554","region":"84","departement":"38","arrondissement":"381","commune":"38111"},
{"name":"La Ravoire","latitude":"45.55694","longitude":"5.96639","population":"7458","region":"84","departement":"73","arrondissement":"732","commune":"73213"},
{"name":"Villard-Bonnot","latitude":"45.23806","longitude":"5.88833","population":"7297","region":"84","departement":"38","arrondissement":"381","commune":"38547"},
{"name":"Pontcharra","latitude":"45.43306","longitude":"6.01528","population":"7220","region":"84","departement":"38","arrondissement":"381","commune":"38314"},
{"name":"Seyssins","latitude":"45.15611","longitude":"5.67972","population":"6939","region":"84","departement":"38","arrondissement":"381","commune":"38486"},
{"name":"Domène","latitude":"45.2025","longitude":"5.83889","population":"6650","region":"84","departement":"38","arrondissement":"381","commune":"38150"},
{"name":"Saint-Ismier","latitude":"45.24861","longitude":"5.82694","population":"6320","region":"84","departement":"38","arrondissement":"381","commune":"38397"},
{"name":"Gières","latitude":"45.18194","longitude":"5.79194","population":"6049","region":"84","departement":"38","arrondissement":"381","commune":"38179"},
{"name":"La Tronche","latitude":"45.20639","longitude":"5.74028","population":"6038","region":"84","departement":"38","arrondissement":"381","commune":"38516"},
{"name":"Cognin","latitude":"45.56194","longitude":"5.89722","population":"5943","region":"84","departement":"73","arrondissement":"732","commune":"73087"},
{"name":"Saint-Alban-Leysse","latitude":"45.5805","longitude":"5.9588","population":"5692","region":"84","departement":"73","arrondissement":"732","commune":"73222"},
{"name":"Saint-Martin-d'Uriage","latitude":"45.15222","longitude":"5.83917","population":"5424","region":"84","departement":"38","arrondissement":"381","commune":"38422"},
{"name":"Saint-Martin-le-Vinoux","latitude":"45.20306","longitude":"5.71639","population":"5354","region":"84","departement":"38","arrondissement":"381","commune":"38423"},
{"name":"Challes-les-Eaux","latitude":"45.5475","longitude":"5.98389","population":"5073","region":"84","departement":"73","arrondissement":"732","commune":"73064"}
]