[
{"name":"Dijon","latitude":"47.32306","longitude":"5.04194","population":"152110","region":"27","departement":"21","arrondissement":"212","commune":"21231"},
{"name":"Dole","latitude":"47.09222","longitude":"5.48972","population":"24906","region":"27","departement":"39","arrondissement":"391","commune":"39198"},
{"name":"Chenôve","latitude":"47.29111","longitude":"5.00722","population":"14111","region":"27","departement":"21","arrondissement":"212","commune":"21166"},
{"name":"Talant","latitude":"47.3364","longitude":"5.0057","population":"11638","region":"27","departement":"21","arrondissement":"212","commune":"21617"},
{"name":"Chevigny-Saint-Sauveur","latitude":"47.30167","longitude":"5.13556","population":"10076","region":"27","departement":"21","arrondissement":"212","commune":"21171"},
{"name":"Quetigny","latitude":"47.31444","longitude":"5.10611","population":"9684","region":"27","departement":"21","arrondissement":"212","commune":"21515"},
{"name":"Longvic","latitude":"47.28778","longitude":"5.06361","population":"9332","region":"27","departement":"21","arrondissement":"212","commune":"21355"},
{"name":"Fontaine-lès-Dijon","latitude":"47.34333","longitude":"5.01917","population":"9062","region":"27","departement":"21","arrondissement":"212","commune":"21278"},
{"name":"Auxonne","latitude":"47.19389","longitude":"5.38778","population":"7726","region":"27","departement":"21","arrondissement":"212","commune":"21038"},
{"name":"Saint-Apollinaire","latitude":"47.33167","longitude":"5.08417","population":"6239","region":"27","departement":"21","arrondissement":"212","commune":"21540"},
{"name":"Gray","latitude":"47.44417","longitude":"5.59139","population":"6050","region":"27","departement":"70","arrondissement":"702","commune":"70279"},
{"name":"Nuits-Saint-Georges","latitude":"47.1375","longitude":"4.95028","population":"5618","region":"27","departement":"21","arrondissement":"211","commune":"21464"},
{"name":"Genlis","latitude":"47.24083","longitude":"5.22306","population":"5577","region":"27","departement":"21","arrondissement":"212","commune":"21292"},
{"name":"Marsannay-la-Côte","latitude":"47.27056","longitude":"4.98861","population":"5095","region":"27","departement":"21","arrondissement":"212","commune":"21390"}
]