[
{"name":"Halluin","latitude":"50.78278","longitude":"3.12472","population":"20125","region":"32","departement":"59","arrondissement":"595","commune":"59279"},
{"name":"Roncq","latitude":"50.75361","longitude":"3.12028","population":"12730","region":"32","departement":"59","arrondissement":"595","commune":"59508"},
{"name":"Comines","latitude":"50.76111","longitude":"3.00778","population":"12493","region":"32","departement":"59","arrondissement":"595","commune":"59152"},
{"name":"Neuville-en-Ferrain","latitude":"50.74667","longitude":"3.15806","population":"9953","region":"32","departement":"59","arrondissement":"595","commune":"59426"},
{"name":"Linselles","latitude":"50.73722","longitude":"3.07944","population":"8333","region":"32","departement":"59","arrondissement":"595","commune":"59352"}
]