[
{"name":"Monistrol-sur-Loire","latitude":"45.2925","longitude":"4.17222","population":"8677","region":"84","departement":"43","arrondissement":"433","commune":"43137"},
{"name":"Ambert","latitude":"45.54944","longitude":"3.74167","population":"6962","region":"84","departement":"63","arrondissement":"631","commune":"63003"},
{"name":"Yssingeaux","latitude":"45.14278","longitude":"4.12361","population":"6946","region":"84","departement":"43","arrondissement":"433","commune":"43268"},
{"name":"Aurec-sur-Loire","latitude":"45.36917","longitude":"4.20167","population":"5557","region":"84","departement":"43","arrondissement":"433","commune":"43012"},
{"name":"Sury-le-Comtal","latitude":"45.5375","longitude":"4.18306","population":"5409","region":"84","departement":"42","arrondissement":"421","commune":"42304"}
]