[
{"name":"Marseille","latitude":"43.29667","longitude":"5.37639","population":"847084","region":"93","departement":"13","arrondissement":"133","commune":"13055"},
{"name":"Aix-en-Provence","latitude":"43.52778","longitude":"5.44556","population":"141895","region":"93","departement":"13","arrondissement":"131","commune":"13001"},
{"name":"Martigues","latitude":"43.40528","longitude":"5.0475","population":"46625","region":"93","departement":"13","arrondissement":"134","commune":"13056"},
{"name":"Aubagne","latitude":"43.29083","longitude":"5.57083","population":"46568","region":"93","departement":"13","arrondissement":"133","commune":"13005"},
{"name":"Istres","latitude":"43.51417","longitude":"4.98889","population":"42460","region":"93","departement":"13","arrondissement":"134","commune":"13047"},
{"name":"Vitrolles","latitude":"43.46","longitude":"5.24861","population":"36117","region":"93","departement":"13","arrondissement":"134","commune":"13117"},
{"name":"Marignane","latitude":"43.41694","longitude":"5.21472","population":"34226","region":"93","departement":"13","arrondissement":"134","commune":"13054"},
{"name":"La Ciotat","latitude":"43.17611","longitude":"5.60806","population":"33812","region":"93","departement":"13","arrondissement":"133","commune":"13028"},
{"name":"Gardanne","latitude":"43.45444","longitude":"5.47611","population":"20785","region":"93","departement":"13","arrondissement":"131","commune":"13041"},
{"name":"Les Pennes-Mirabeau","latitude":"43.41","longitude":"5.30944","population":"19634","region":"93","departement":"13","arrondissement":"131","commune":"13071"},
{"name":"Allauch","latitude":"43.33611","longitude":"5.48222","population":"18646","region":"93","departement":"13","arrondissement":"133","commune":"13002"},
{"name":"Port-de-Bouc","latitude":"43.405","longitude":"4.98861","population":"17181","region":"93","departement":"13","arrondissement":"134","commune":"13077"},
{"name":"Fos-sur-Mer","latitude":"43.43639","longitude":"4.94528","population":"15453","region":"93","departement":"13","arrondissement":"134","commune":"13039"},
{"name":"Berre-l'Étang","latitude":"43.47556","longitude":"5.16806","population":"13853","region":"93","departement":"13","arrondissement":"134","commune":"13014"},
{"name":"Bouc-Bel-Air","latitude":"43.45444","longitude":"5.41444","population":"13461","region":"93","departement":"13","arrondissement":"131","commune":"13015"},
{"name":"Rognac","latitude":"43.48778","longitude":"5.23222","population":"11931","region":"93","departement":"13","arrondissement":"134","commune":"13081"},
{"name":"Châteauneuf-les-Martigues","latitude":"43.38306","longitude":"5.16417","population":"11331","region":"93","departement":"13","arrondissement":"134","commune":"13026"},
{"name":"Plan-de-Cuques","latitude":"43.34694","longitude":"5.46306","population":"10990","region":"93","departement":"13","arrondissement":"133","commune":"13075"},
{"name":"Septèmes-les-Vallons","latitude":"43.39833","longitude":"5.36583","population":"10590","region":"93","departement":"13","arrondissement":"131","commune":"13106"},
{"name":"Gignac-la-Nerthe","latitude":"43.39333","longitude":"5.23583","population":"9127","region":"93","departement":"13","arrondissement":"134","commune":"13043"},
{"name":"Fuveau","latitude":"43.45222","longitude":"5.56167","population":"9070","region":"93","departement":"13","arrondissement":"131","commune":"13040"},
{"name":"Roquevaire","latitude":"43.34944","longitude":"5.60472","population":"8489","region":"93","departement":"13","arrondissement":"133","commune":"13086"},
{"name":"Velaux","latitude":"43.5225","longitude":"5.25389","population":"8466","region":"93","departement":"13","arrondissement":"131","commune":"13112"},
{"name":"Cabriès","latitude":"43.44111","longitude":"5.37972","population":"8059","region":"93","departement":"13","arrondissement":"131","commune":"13019"},
{"name":"Saint-Chamas","latitude":"43.55028","longitude":"5.03472","population":"7781","region":"93","departement":"13","arrondissement":"134","commune":"13092"},
{"name":"Cassis","latitude":"43.21556","longitude":"5.53722","population":"7758","region":"93","departement":"13","arrondissement":"133","commune":"13022"},
{"name":"Éguilles","latitude":"43.56861","longitude":"5.35417","population":"7607","region":"93","departement":"13","arrondissement":"131","commune":"13032"},
{"name":"Sausset-les-Pins","latitude":"43.33222","longitude":"5.11389","population":"7471","region":"93","departement":"13","arrondissement":"134","commune":"13104"},
{"name":"Carnoux-en-Provence","latitude":"43.2567","longitude":"5.5646","population":"6933","region":"93","departement":"13","arrondissement":"133","commune":"13119"},
{"name":"La Fare-les-Oliviers","latitude":"43.55167","longitude":"5.19472","population":"6710","region":"93","departement":"13","arrondissement":"131","commune":"13037"},
{"name":"Saint-Victoret","latitude":"43.42083","longitude":"5.23333","population":"6514","region":"93","departement":"13","arrondissement":"134","commune":"13102"},
{"name":"La Penne-sur-Huveaune","latitude":"43.28056","longitude":"5.51583","population":"6335","region":"93","departement":"13","arrondissement":"133","commune":"13070"},
{"name":"Carry-le-Rouet","latitude":"43.33194","longitude":"5.15194","population":"6320","region":"93","departement":"13","arrondissement":"134","commune":"13021"},
{"name":"La Bouilladisse","latitude":"43.39528","longitude":"5.59528","population":"5906","region":"93","departement":"13","arrondissement":"133","commune":"13016"},
{"name":"Simiane-Collongue","latitude":"43.4313","longitude":"5.4332","population":"5604","region":"93","departement":"13","arrondissement":"131","commune":"13107"},
{"name":"Saint-Mitre-les-Remparts","latitude":"43.455","longitude":"5.01417","population":"5379","region":"93","departement":"13","arrondissement":"134","commune":"13098"},
{"name":"Peypin","latitude":"43.38583","longitude":"5.57833","population":"5375","region":"93","departement":"13","arrondissement":"133","commune":"13073"},
{"name":"Meyreuil","latitude":"43.48611","longitude":"5.49556","population":"5255","region":"93","departement":"13","arrondissement":"131","commune":"13060"},
{"name":"Ensuès-la-Redonne","latitude":"43.35583","longitude":"5.20417","population":"5197","region":"93","departement":"13","arrondissement":"134","commune":"13033"},
{"name":"Roquefort-la-Bédoule","latitude":"43.2475","longitude":"5.59083","population":"5042","region":"93","departement":"13","arrondissement":"133","commune":"13085"}
]