[
{"name":"Saint-Affrique","latitude":"43.95833","longitude":"2.88639","population":"8280","region":"76","departement":"12","arrondissement":"121","commune":"12208"},
{"name":"Clermont-l'Hérault","latitude":"43.6275","longitude":"3.4325","population":"7627","region":"76","departement":"34","arrondissement":"342","commune":"34079"},
{"name":"Lodève","latitude":"43.7319","longitude":"3.32","population":"7361","region":"76","departement":"34","arrondissement":"342","commune":"34142"},
{"name":"Bédarieux","latitude":"43.61583","longitude":"3.15889","population":"6564","region":"76","departement":"34","arrondissement":"341","commune":"34028"},
{"name":"Saint-André-de-Sangonis","latitude":"43.64972","longitude":"3.50361","population":"5175","region":"76","departement":"34","arrondissement":"342","commune":"34239"}
]